     2.11           OBSERVATION DATA    GPS(GPS)            RINEX VERSION / TYPE
cnvtToRINEX 2.11.0  Stan Thomas         26-Mar-11 14:08 UTC PGM / RUN BY / DATE 
----------------------------------------------------------- COMMENT             
MD1                                                         MARKER NAME         
MD1                                                         MARKER NUMBER       
Stan Thomas         University of Utah                      OBSERVER / AGENCY   
4644124574          NetRS               1.12                REC # / TYPE / VERS 
12532422            TRM41249.00                             ANT # / TYPE        
 -1926374.9575 -4539530.6392  4033985.0910                  APPROX POSITION XYZ 
        1.4250        0.0000        0.0000                  ANTENNA: DELTA H/E/N
     1     1     0                                          WAVELENGTH FACT L1/2
     7    C1    D1    L1    L2    P2    S1    S2            # / TYPES OF OBSERV 
  2011     3    24     2    16    0.0000000     GPS         TIME OF FIRST OBS   
  2011     3    24    14    54   15.0000000     GPS         TIME OF LAST OBS    
     0                                                      RCV CLOCK OFFS APPL 
    15                                                      LEAP SECONDS        
    29                                                      # OF SATELLITES     
   G02  1672  1672  1663  1649  1649  1672  1649            PRN / # OF OBS      
   G03   380   380   377   370   370   380   370            PRN / # OF OBS      
   G04  1509  1509  1507  1394  1394  1509  1394            PRN / # OF OBS      
   G05  1872  1872  1837  1667  1667  1872  1667            PRN / # OF OBS      
   G06   284   284   273   243   243   284   243            PRN / # OF OBS      
   G07  1142  1142  1137  1125  1125  1142  1125            PRN / # OF OBS      
   G08  1410  1410  1409  1395  1395  1410  1395            PRN / # OF OBS      
   G09  1132  1132  1127  1071  1071  1132  1071            PRN / # OF OBS      
   G10  1593  1593  1572  1500  1500  1593  1500            PRN / # OF OBS      
   G11  1014  1014  1003   926   926  1014   926            PRN / # OF OBS      
   G12  1444  1444  1433  1378  1378  1444  1378            PRN / # OF OBS      
   G13   696   696   692   648   648   696   648            PRN / # OF OBS      
   G15  1326  1326  1319  1256  1256  1326  1256            PRN / # OF OBS      
   G16   403   403   390   242   242   403   242            PRN / # OF OBS      
   G17  1667  1667  1665  1642  1642  1667  1642            PRN / # OF OBS      
   G18   441   441   441   438   438   441   438            PRN / # OF OBS      
   G19   694   694   692   681   681   694   681            PRN / # OF OBS      
   G20   375   375   370   264   264   375   264            PRN / # OF OBS      
   G21   826   826   826   824   824   826   824            PRN / # OF OBS      
   G22   125   125   122   121   121   125   121            PRN / # OF OBS      
   G23   372   372   370   370   370   372   370            PRN / # OF OBS      
   G24   828   828   822   791   791   828   791            PRN / # OF OBS      
   G25  1288  1288  1275  1195  1195  1288  1195            PRN / # OF OBS      
   G26  1703  1703  1694  1617  1617  1703  1617            PRN / # OF OBS      
   G27  1248  1248  1241  1196  1196  1248  1196            PRN / # OF OBS      
   G28  1769  1769  1761  1719  1719  1769  1719            PRN / # OF OBS      
   G29  1207  1207  1200  1113  1113  1207  1113            PRN / # OF OBS      
   G30   416   416   411   361   361   416   361            PRN / # OF OBS      
   G31    69    69    48     0     0    69     0            PRN / # OF OBS      
CARRIER PHASE MEASUREMENTS: PHASE SHIFTS REMOVED            COMMENT             
                                                            END OF HEADER       
 11  3 24  2 16  0.0000000  0 11G03G06G07G08G10G13G16G19G20G23G28   
  21725326.25816       -64.46916   -281559.05516   -197094.41258  21725317.62158
        46.000          34.000  
  23076428.78116      -843.92216     93301.68616     85571.64757  23076420.90657
        43.500          29.750  
  21070550.46917      1308.00017   -870584.06117   -642770.34958  21070540.54358
        51.000          41.000  
  23093818.68016      2351.10916  -1329397.58516  -1000943.07857  23093809.98457
        42.750          30.000  
  22535684.85216      -610.85916     -8668.68616      1984.35557  22535676.68457
        45.500          32.250  
  20041382.25017      -469.29717    -70665.14517    -45338.47459  20041372.14859
        50.250          42.000  
  24043687.35215     -3461.78115   1352893.07515   1041138.45656  24043679.12556
        42.250          22.500  
  22572519.52316      2122.29716  -1273758.41116   -948423.69157  22572508.48457
        46.250          32.500  
  25679230.13311     -3346.93811    856297.78711                
        33.250  
  21417198.07817     -2593.50017    922295.73617    713446.29458  21417186.92258
        50.250          36.750  
  24458195.07815      3204.60915    196410.72115  -1221593.74956  24458185.97356
        40.500          20.250  
 11  3 24  2 16 15.0000000  0 11G03G06G07G08G10G13G16G19G20G23G28   
  21725526.258 6       -70.022 6   -280508.731 6   -196275.96748  21725517.44548
        47.250          34.250  
  23078850.500 5      -848.614 5    106030.901 5     95490.52147  23078842.68447
        42.250          29.000  
  21066822.547 7      1306.030 7   -890174.517 7   -658035.62948  21066812.97348
        50.000          41.250  
  23087110.063 5      2350.155 5  -1364649.918 5  -1028412.40047  23087102.18847
        41.750          30.500  
  22537442.625 6      -615.738 6       567.391 6      9181.29047  22537434.28147
        45.250          32.500  
  20042735.039 7      -473.854 7    -63557.332 7    -39799.91349  20042725.34849
        49.750          42.250  
  24053572.875 5     -3462.817 5   1404835.323 5   1081612.96746  24053563.77046
        42.000          22.250  
  22566472.531 6      2118.609 6  -1305537.544 6   -973186.62648  22566460.61348
        46.500          33.750  
  25688782.453 3     -3345.622 3    906482.124 3                
        36.250  
  21424611.180 7     -2597.105 7    961252.306 7    743802.04748  21424600.31648
        49.500          37.000  
  24449051.930 5      3203.128 5    148363.800 5  -1259032.83146  24449043.23446
        40.500          20.000  
 11  3 24  2 16 30.0000000  0 11G03G06G07G08G10G13G16G19G20G23G28   
  21725755.938 6       -80.589 6   -279299.894 6   -195334.01248  21725747.30148
        46.500          34.000  
  23081298.688 6      -857.622 6    118895.235 6    105514.68947  23081291.28147
        42.500          28.500  
  21063103.898 7      1302.684 7   -909714.771 7   -673261.79048  21063094.61748
        49.000          41.000  
  23080406.117 5      2348.773 5  -1399881.509 5  -1055865.57147  23080397.65647
        41.750          30.500  
  22539226.102 6      -624.969 6      9941.926 6     16486.09947  22539218.22747
        44.750          32.500  
  20044112.539 7      -482.497 7    -56319.880 7    -34160.34849  20044102.49649
        50.500          42.000  
  24063461.914 5     -3464.365 5   1456800.794 5   1122105.52146  24063452.28146
        41.500          22.000  
  22560444.969 6      2111.677 6  -1337212.704 6   -997868.54147  22560433.16847
        47.000          32.750  
  25698321.414 3     -3342.636 3    956621.665 3                
        36.750  
  21432042.563 7     -2603.688 7   1000307.625 7    774234.75148  21432032.10948
        49.750          37.000  
  24439914.977 5      3200.462 5    100356.868 5  -1296440.81646  24439908.21546
        39.250          20.750  
 11  3 24  2 16 45.0000000  0 11G03G06G07G08G10G13G16G19G20G23G28   
  21726016.688 6       -91.221 6   -277931.573 6   -194267.77648  21726007.75848
        46.750          34.250  
  23083772.938 6      -866.704 6    131895.789 6    115644.99447  23083764.77047
        43.250          29.500  
  21059395.203 7      1299.268 7   -929203.797 7   -688448.04048  21059385.80548
        49.000          41.000  
  23073705.813 6      2347.321 6  -1435091.319 6  -1083301.78147  23073697.35247
        42.500          29.750  
  22541036.945 6      -634.246 6     19455.614 6     23899.36147  22541028.66047
        44.500          32.250  
  20045514.273 7      -491.206 7    -48951.791 7    -28418.97549  20045504.75849
        50.500          42.000  
  24073355.398 5     -3465.941 5   1508789.912 5   1162616.51446  24073345.47346
        42.000          21.750  
  22554437.078 6      2104.658 6  -1368782.579 6  -1022468.42147  22554425.92247
        47.250          33.250  
  25707851.000 4     -3339.714 4   1006717.378 4                
        37.500  
  21439493.500 7     -2610.329 7   1039462.562 7    804745.08848  21439482.81348
        48.750          36.750  
  24430788.211 5      3197.713 5     52391.180 5  -1333816.63146  24430780.04346
        40.000          20.500  
 11  3 24  2 17  0.0000000  0 11G03G06G07G08G10G13G16G19G20G23G28   
  21726306.617 6      -101.788 6   -276404.746 6   -193078.03048  21726298.39148
        46.500          34.500  
  23086272.594 6      -875.723 6    145031.641 6    125880.73347  23086264.30947
        43.500          29.250  
  21055696.391 7      1295.909 7   -948642.432 7   -703595.02348  21055686.81648
        49.750          40.500  
  23067009.656 6      2345.933 6  -1470280.314 6  -1110721.75547  23067001.19547
        43.000          30.500  
  22542873.500 6      -643.462 6     29107.541 6     31420.33547  22542865.09847
        45.000          32.500  
  20046941.336 7      -499.896 7    -41453.349 7    -22576.03749  20046931.17649
        50.750          42.250  
  24083252.031 5     -3467.457 5   1560801.771 5   1203145.21146  24083242.75046
        41.500          22.500  
  22548449.281 6      2097.663 6  -1400247.530 6  -1046986.54247  22548438.30147
        47.000          33.250  
  25717369.852 1     -3336.712 1   1056768.053 1                
        29.250  
  21446963.375 7     -2616.900 7   1078716.058 7    835332.22748  21446952.74648
        49.000          36.750  
  24421668.773 5      3195.019 5      4465.895 5  -1371160.94646  24421661.19146
        40.500          21.000  
 11  3 24  2 17 15.0000000  0 10G03G06G07G08G10G13G16G19G23G28      
  21726627.805 7      -112.435 7   -274718.225 7   -191763.85248  21726619.10948
        48.500          34.000  
  23088798.016 6      -884.784 6    158303.407 6    136222.38247  23088790.02347
        43.500          29.000  
  21052007.453 7      1292.482 7   -968029.663 7   -718701.96848  21051997.58648
        49.500          41.000  
  23060317.141 6      2344.484 6  -1505447.570 6  -1138124.79247  23060309.20747
        43.000          30.000  
  22544736.609 6      -652.721 6     38898.351 6     39049.53147  22544728.32447
        44.250          32.250  
  20048393.016 7      -508.622 7    -33824.016 7    -16631.10149  20048383.03149
        50.000          42.000  
  24093154.195 5     -3469.002 5   1612836.801 5   1243691.99646  24093144.32846
        40.750          21.000  
  22542482.102 6      2090.597 6  -1431606.481 6  -1071422.05847  22542471.35547
        46.750          33.250  
  21454451.930 7     -2623.525 7   1118068.929 7    865996.79848  21454441.06648
        49.250          36.750  
  24412556.453 5      3192.265 5    -43418.080 5  -1408473.12446  24412548.52046
        40.500          21.500  
 11  3 24  2 17 30.0000000  0 10G03G06G07G08G10G13G16G19G23G28      
  21726978.336 6      -122.968 6   -272873.706 6   -190326.55148  21726970.28548
        47.250          34.250  
  23091349.188 6      -893.738 6    171709.478 6    146668.67747  23091341.02047
        43.500          29.000  
  21048327.266 7      1289.176 7   -987367.308 7   -733770.25148  21048318.04348
        49.750          41.000  
  23053629.313 6      2343.132 6  -1540594.556 6  -1165512.03847  23053621.32047
        43.000          30.250  
  22546625.719 6      -661.852 6     48826.127 6     46785.44747  22546617.66847
        44.000          31.250  
  20049869.352 7      -517.240 7    -26065.414 7    -10585.44149  20049859.30949
        50.750          42.000  
  24103059.086 5     -3470.434 5   1664893.313 5   1284255.50746  24103049.86346
        39.750          20.000  
  22536534.273 6      2083.610 6  -1462860.626 6  -1095775.90847  22536523.29347
        46.500          33.500  
  21461959.492 7     -2630.025 7   1157519.297 7    896737.33248  21461947.98448
        49.250          37.500  
  24403453.797 5      3189.603 5    -91262.125 5  -1445754.10546  24403445.04346
        41.250          21.500  
 11  3 24  2 17 45.0000000  0 11G03G06G07G08G10G13G16G19G20G23G28   
  21727359.594 7      -133.529 7   -270870.777 7   -188765.82048  21727351.19148
        48.000          33.750  
  23093926.109 6      -902.710 6    185250.121 6    157219.82847  23093917.94147
        43.500          30.000  
  21044656.977 7      1285.837 7  -1006654.862 7   -748799.51348  21044647.28548
        49.000          40.750  
  23046944.828 6      2341.768 6  -1575721.083 6  -1192883.34147  23046936.54347
        44.000          29.500  
  22548541.281 6      -670.999 6     58891.118 6     54628.29047  22548532.87947
        44.000          31.250  
  20051370.609 7      -525.884 7    -18177.153 7     -4438.74749  20051360.68449
        50.500          42.000  
  24112969.461 5     -3471.861 5   1716971.232 5   1324835.69046  24112960.18046
        39.750          20.000  
  22530606.641 6      2076.583 6  -1494009.364 6  -1120047.63248  22530595.77748
        46.500          34.250  
  25745938.57811     -3325.89111   -559149.66511                
        31.500  
  21469485.391 7     -2636.538 7   1197067.374 7    927554.00848  21469473.94148
        48.500          37.250  
  24394356.234 5      3186.900 5   -139065.625 5  -1483003.56946  24394347.36346
        41.000          21.500  
 11  3 24  2 18  0.0000000  0 11G03G06G07G08G10G13G16G19G20G23G28   
  21727771.508 7      -144.132 7   -268708.797 7   -187081.14447  21727762.75447
        48.750          33.250  
  23096528.648 6      -911.721 6    198925.939 6    167876.31947  23096520.36347
        44.000          28.500  
  21040996.563 7      1282.425 7  -1025891.236 7   -763788.88948  21040986.52048
        49.500          41.000  
  23040264.180 6      2340.350 6  -1610826.337 6  -1220238.07047  23040256.12947
        43.250          30.000  
  22550482.648 6      -680.197 6     69094.070 6     62578.62847  22550474.24647
        45.000          31.750  
  20052896.656 7      -534.580 7    -10158.456 7      1809.59749  20052886.20349
        50.500          41.500  
  24122883.047 4     -3473.315 4   1769070.960 4   1365432.88846  24122873.23846
        38.500          19.500  
  22524698.992 6      2069.491 6  -1525051.735 6  -1144236.47047  22524688.89147
        45.750          33.500  
  25755427.031 1     -3324.507 1   -509282.061 1                
        30.500  
  21477029.742 7     -2643.089 7   1236713.715 7    958447.24948  21477018.46948
        49.000          36.750  
  24385267.664 5      3184.135 5   -186827.657 5  -1520220.67046  24385258.85246
        42.250          21.750  
 11  3 24  2 18 15.0000000  0 10G03G06G07G08G10G13G16G19G23G28      
  21728212.984 7      -154.751 7   -266387.530 7   -185272.36447  21728204.58247
        48.000          33.000  
  23099157.094 6      -920.729 6    212736.872 6    178638.08147  23099147.75447
        43.500          28.750  
  21037345.570 7      1279.022 7  -1045076.569 7   -778738.49348  21037335.87948
        49.250          40.750  
  23033588.539 6      2338.927 6  -1645910.237 6  -1247576.15647  23033580.31347
        44.250          31.000  
  22552450.563 6      -689.383 6     79434.817 6     70636.35147  22552441.69147
        43.500          31.000  
  20054447.313 7      -543.293 7     -2009.058 7      8159.78349  20054436.97749
        51.000          41.750  
  24132800.211 4     -3474.762 4   1821192.396 4   1406046.97246  24132791.51646
        37.500          19.750  
  22518811.961 6      2062.356 6  -1555987.069 6  -1168341.89947  22518801.97747
        45.250          33.500  
  21484592.836 7     -2649.627 7   1276458.113 7    989416.91148  21484581.38748
        48.250          37.000  
  24376185.555 5      3181.354 5   -234547.960 5  -1557405.24546  24376177.85546
        41.000          21.250  
 11  3 24  2 18 30.0000000  0 10G03G06G07G08G10G13G16G19G23G28      
  21728685.227 6      -165.342 6   -263907.402 6   -183339.77647  21728676.41447
        47.000          33.500  
  23101810.070 6      -929.706 6    226682.459 6    189504.78847  23101802.37147
        43.750          28.750  
  21033704.313 7      1275.668 7  -1064211.587 7   -793648.88548  21033694.62148
        48.250          40.750  
  23026916.195 6      2337.541 6  -1680973.354 6  -1274898.03547  23026908.02747
        43.000          31.250  
  22554444.641 6      -698.528 6     89912.741 6     78800.94947  22554435.77047
        44.000          31.250  
  20056022.953 7      -551.975 7      6270.572 7     14611.44349  20056012.79349
        51.250          42.250  
  24142722.297 4     -3476.149 4   1873334.632 4   1446677.27046  24142713.83646
        37.500          19.250  
  22512945.523 6      2055.236 6  -1586815.604 6  -1192364.10947  22512935.24647
        45.000          33.500  
  21492174.219 7     -2656.122 7   1316299.942 7   1020462.48348  21492163.35548
        48.250          36.500  
  24367112.695 5      3178.589 5   -282226.792 5  -1594557.58646  24367105.34846
        41.500          24.250  
 11  3 24  2 18 45.0000000  0 11G03G06G07G08G10G13G16G19G20G23G28   
  21729187.414 6      -175.983 6   -261267.650 6   -181282.81747  21729178.42647
        47.500          33.500  
  23104489.469 6      -938.737 6    240763.510 6    200477.02647  23104481.65247
        42.750          28.750  
  21030072.375 7      1272.250 7  -1083295.345 7   -808519.34148  21030063.03548
        49.250          40.750  
  23020247.547 6      2336.087 6  -1716014.654 6  -1302202.93047  23020239.78947
        44.500          31.250  
  22556464.922 6      -707.715 6    100528.469 6     87072.93847  22556456.10947
        44.000          32.250  
  20057623.461 7      -560.710 7     14681.225 7     21165.19949  20057613.59449
        50.750          41.500  
  24152648.617 4     -3477.568 4   1925498.148 4   1487324.14345  24152639.21945
        38.000          17.750  
  22507099.492 6      2048.033 6  -1617536.101 6  -1216302.14048  22507089.21548
        46.000          34.000  
  25783802.23412     -3313.28112   -429368.18312                
        35.500  
  21499774.695 7     -2662.666 7   1356239.935 7   1051584.55048  21499763.30548
        48.250          36.750  
  24358048.094 6      3175.764 6   -329863.257 6  -1631676.80246  24358040.16046
        42.500          22.000  
 11  3 24  2 19  0.0000000  0 11G03G06G07G08G10G13G16G19G20G23G28   
  21729719.516 7      -186.424 7   -258471.286 7   -179103.82548  21729710.76248
        48.000          33.750  
  23107194.289 5      -947.556 5    254976.856 5    211552.36847  23107186.70747
        42.000          29.500  
  21026450.367 7      1269.016 7  -1102330.579 7   -823351.98248  21026440.96948
        49.000          40.500  
  23013583.313 6      2334.843 6  -1751037.296 6  -1329493.28747  23013575.26247
        44.500          30.500  
  22558509.867 6      -716.685 6    111278.747 6     95449.76847  22558501.87547
        43.750          32.500  
  20059247.938 7      -569.261 7     23220.135 7     27818.89949  20059238.42249
        49.500          41.750  
  24162580.180 4     -3478.787 4   1977679.948 4   1527985.27146  24162568.67246
        38.500          19.000  
  22501273.508 6      2040.994 6  -1648151.013 6  -1240157.89248  22501263.46548
        42.500          34.000  
  25793265.078 3     -3311.976 3   -379688.537 3                
        37.250  
  21507393.711 7     -2669.003 7   1396274.977 7   1082780.68648  21507381.96948
        48.750          36.000  
  24348988.734 5      3173.124 5   -377460.110 5  -1668765.26546  24348982.14846
        39.750          22.250  
 11  3 24  2 19 15.0000000  0 11G03G06G07G08G10G13G16G19G20G23G28   
  21730281.148 7      -196.759 7   -255519.895 7   -176804.02247  21730272.27747
        49.000          33.250  
  23109924.492 6      -956.266 6    269320.852 6    222729.51847  23109915.32847
        42.500          29.000  
  21022836.969 7      1265.881 7  -1121318.794 7   -838147.98248  21022827.62948
        48.500          40.750  
  23006921.578 6      2333.676 6  -1786042.440 6  -1356770.00447  23006913.35247
        44.500          30.250  
  22560581.242 6      -725.556 6    122162.087 6    103930.28547  22560573.54347
        44.500          32.500  
  20060897.148 7      -577.714 7     31885.842 7     34571.41049  20060887.39849
        50.500          41.750  
  24172512.906 4     -3479.885 4   2029878.222 4   1568659.26645  24172501.80945
        38.750          16.750  
  22495467.742 6      2034.053 6  -1678661.811 6  -1263932.51948  22495457.52348
        46.000          34.000  
  25802738.219 3     -3308.577 3   -330059.889 3                
        36.000  
  21515029.773 7     -2675.220 7   1436403.282 7   1114049.48548  21515018.26648
        47.750          36.500  
  24339941.367 6      3170.566 6   -425018.595 6  -1705823.72546  24339932.43846
        43.250          22.750  
 11  3 24  2 19 30.0000000  0 11G03G06G07G08G10G13G16G19G20G23G28   
  21730873.352 7      -207.409 7   -252408.765 7   -174379.75848  21730864.65648
        48.750          33.750  
  23112679.188 6      -965.272 6    283799.925 6    234011.91647  23112670.96147
        42.750          29.250  
  21019233.680 7      1262.447 7  -1140255.496 7   -852903.84748  21019223.98848
        49.000          40.500  
  23000264.727 6      2332.217 6  -1821025.694 6  -1384029.67147  23000256.61747
        45.750          31.750  
  22562677.930 6      -734.707 6    133182.693 6    112517.77347  22562670.17247
        43.750          31.000  
  20062571.180 7      -586.466 7     40682.834 7     41426.21749  20062561.02049
        50.750          42.000  
  24182450.797 5     -3481.265 5   2082097.202 5   1609349.38645  24182438.58645
        39.750          17.750  
  22489683.313 6      2026.790 6  -1709063.660 6  -1287622.24948  22489672.62548
        45.500          34.000  
  25812171.578 4     -3305.435 4   -280478.362 4                
        38.000  
  21522684.563 7     -2681.728 7   1476629.195 7   1145394.34548  21522673.11348
        48.500          37.000  
  24330899.422 6      3167.700 6   -472534.099 6  -1742848.76846  24330890.08246
        42.750          22.000  
 11  3 24  2 19 45.0000000  0 11G03G06G07G08G10G13G16G19G20G23G28   
  21731495.680 7      -218.122 7   -249136.929 7   -171830.25647  21731486.92647
        48.750          33.250  
  23115460.547 6      -974.336 6    298414.959 6    245400.25747  23115452.32047
        43.750          28.750  
  21015640.086 7      1258.941 7  -1159139.613 7   -867618.73448  21015630.57048
        48.250          41.000  
  22993612.180 6      2330.694 6  -1855986.107 6  -1411271.53547  22993603.77747
        44.000          31.000  
  22564801.664 6      -743.924 6    144341.560 6    121212.98547  22564793.61347
        43.500          31.500  
  20064270.773 7      -595.288 7     49612.150 7     48384.12749  20064260.08649
        51.000          41.500  
  24192391.891 5     -3482.686 5   2134337.492 5   1650056.06945  24192380.38345
        40.000          18.250  
  22483918.836 6      2019.421 6  -1739354.978 6  -1311225.84147  22483907.62147
        46.250          33.250  
  25821598.063 3     -3302.365 3   -230942.882 3                
        37.250  
  21530357.672 6     -2688.281 6   1516953.413 6   1176815.80448  21530346.45748
        47.500          36.500  
  24321865.320 6      3164.756 6   -520005.443 6  -1779839.34946  24321857.09446
        42.750          22.250  
 11  3 24  2 20  0.0000000  0 11G03G06G07G08G10G13G16G19G20G23G28   
  21732148.930 7      -228.824 7   -245704.572 7   -169155.68648  21732139.88348
        48.500          34.500  
  23118267.391 6      -983.390 6    313165.807 6    256894.44747  23118259.39847
        43.000          29.000  
  21012056.555 7      1255.415 7  -1177970.841 7   -882292.41748  21012046.68848
        48.500          40.750  
  22986963.617 6      2329.173 6  -1890923.699 6  -1438495.61847  22986955.15647
        44.750          32.000  
  22566951.852 6      -753.113 6    155638.253 6    130015.60447  22566942.80547
        45.000          32.250  
  20065995.055 7      -604.105 7     58673.729 7     55445.09349  20065984.66049
        49.750          42.000  
  24202337.906 5     -3484.082 5   2186598.728 5   1690779.12045  24202325.46145
        41.000          16.750  
  22478176.023 6      2012.063 6  -1769535.927 6  -1334743.44848  22478164.80948
        45.500          34.000  
  25831010.836 5     -3299.263 5   -181453.936 5                
        40.250  
  21538049.094 6     -2694.824 6   1557375.774 6   1208313.73048  21538038.46548
        47.000          36.750  
  24312840.625 6      3161.818 6   -567432.711 6  -1816795.62746  24312831.22746
        43.500          22.500  
 11  3 24  2 20 15.0000000  0 11G03G06G07G08G10G13G16G19G20G23G28   
  21732832.375 7      -239.456 7   -242112.731 7   -166356.84248  21732823.15248
        48.000          34.750  
  23121099.773 6      -992.361 6    328051.228 6    268493.47647  23121091.78147
        44.000          28.500  
  21008482.516 7      1251.997 7  -1196750.801 7   -896926.14248  21008473.29348
        48.500          40.500  
  22980319.328 6      2327.738 6  -1925839.771 6  -1465702.93047  22980310.86747
        44.000          31.000  
  22569127.773 6      -762.216 6    167071.488 6    138924.61047  22569119.43047
        45.000          31.750  
  20067743.898 7      -612.848 7     67866.451 7     62608.25449  20067734.26649
        50.250          41.750  
  24212287.148 5     -3485.378 5   2238879.401 5   1731517.30445  24212274.93845
        40.500          17.250  
  22472453.328 6      2004.746 6  -1799607.123 6  -1358175.51948  22472442.40648
        46.250          34.750  
  25840418.086 4     -3296.064 4   -132012.982 4                
        39.000  
  21545759.656 6     -2701.283 6   1597895.012 6   1239887.16248  21545749.08648
        46.500          36.000  
  24303822.688 5      3158.937 5   -614816.773 5  -1853718.16046  24303815.04746
        42.000          22.250  
 11  3 24  2 20 30.0000000  0 11G03G06G07G08G10G13G16G19G20G23G28   
  21733545.883 6      -250.063 6   -238361.783 6   -163434.00748  21733536.60248
        47.500          34.000  
  23123958.008 6     -1001.291 6    343070.593 6    280196.87347  23123949.48847
        43.000          29.000  
  21004918.906 7      1248.608 7  -1215479.926 7   -911520.25448  21004909.21548
        48.500          40.500  
  22973679.031 6      2326.328 6  -1960734.689 6  -1492893.75047  22973671.39147
        45.250          32.500  
  22571328.727 6      -771.267 6    178640.495 6    147939.41347  22571320.03147
        44.250          32.000  
  20069518.133 7      -621.558 7     77189.820 7     69873.22049  20069508.26649
        49.000          42.500  
  24222239.398 5     -3486.632 5   2291178.877 5   1772270.11045  24222227.94945
        41.000          18.250  
  22466752.484 6      1997.437 6  -1829568.672 6  -1381522.15648  22466741.27048
        46.250          34.000  
  25849814.977 2     -3292.816 2    -82620.740 2                
        35.500  
  21553488.719 6     -2707.686 6   1638510.303 6   1271535.43948  21553478.44148
        46.500          35.250  
  24294813.734 5      3156.068 5   -662157.793 5  -1890607.28146  24294805.39146
        40.750          22.750  
 11  3 24  2 20 45.0000000  0 11G03G06G07G08G10G13G16G19G20G23G28   
  21734290.570 7      -260.729 7   -234450.842 7   -160386.51448  21734281.23048
        48.250          35.000  
  23126841.320 6     -1010.279 6    358224.779 6    292005.33347  23126833.21147
        43.250          28.500  
  21001364.883 7      1245.149 7  -1234157.166 7   -926073.94648  21001355.30948
        48.000          40.500  
  22967042.828 6      2324.856 6  -1995607.523 6  -1520067.37747  22967035.07047
        43.500          31.000  
  22573555.891 6      -780.379 6    190346.182 6    157060.72647  22573548.25047
        45.000          32.000  
  20071317.156 7      -630.336 7     86644.855 7     77240.78449  20071307.52349
        49.500          41.500  
  24232194.828 5     -3487.926 5   2343497.769 5   1813038.12945  24232184.25845
        39.500          17.750  
  22461071.797 6      1990.033 6  -1859419.169 6  -1404782.24948  22461060.05548
        46.500          34.750  
  25859200.375 1     -3289.635 1    -33276.211 1                
        33.500  
  21561236.188 6     -2714.148 6   1679222.521 6   1303259.24948  21561225.14848
        47.000          36.000  
  24285813.859 5      3153.136 5   -709454.835 5  -1927461.99546  24285805.63346
        41.500          22.500  
 11  3 24  2 21  0.0000000  0 11G03G06G07G08G10G13G16G19G20G23G28   
  21735066.391 7      -271.776 7   -230374.196 7   -157209.88948  21735057.46148
        48.500          33.750  
  23129752.383 6     -1019.641 6    373519.392 6    303923.22147  23129744.27347
        43.000          28.750  
  20997821.602 7      1241.301 7  -1252776.687 7   -940582.65148  20997811.67648
        47.750          41.000  
  22960412.203 6      2322.999 6  -2030452.500 6  -1547219.28647  22960404.44547
        43.750          31.750  
  22575810.516 6      -789.864 6    202194.148 6    166292.91147  22575802.75847
        44.500          31.500  
  20073142.664 7      -639.511 7     96237.523 7     84715.58649  20073132.79749
        49.000          41.750  
  24242153.945 5     -3489.591 5   2395841.627 5   1853825.54445  24242144.95745
        40.250          18.250  
  22455413.641 6      1982.221 6  -1889152.482 6  -1427951.03948  22455402.48448
        46.000          33.750  
  25868572.61711     -3286.45411     16025.96711                
        30.500  
  21569003.656 6     -2720.986 6   1720037.311 6   1335062.96748  21568991.68048
        46.750          35.750  
  24276821.797 5      3149.793 5   -756701.724 5  -1964277.75746  24276813.92246
        40.250          22.000  
 11  3 24  2 21 15.0000000  0 10G03G06G07G08G10G13G16G19G23G28      
  21735870.695 7      -281.858 7   -226146.328 7   -153915.43448  21735861.88348
        48.500          34.250  
  23132687.180 6     -1028.041 6    388940.002 6    315939.28547  23132678.30947
        43.500          30.000  
  20994286.680 7      1238.414 7  -1271352.890 7   -955057.60748  20994276.98848
        47.750          41.000  
  22953784.141 6      2322.107 6  -2065284.109 6  -1574360.77847  22953775.50447
        43.750          32.000  
  22578089.250 6      -798.373 6    214169.743 6    175624.54547  22578081.84447
        45.000          32.000  
  20074991.875 7      -647.714 7    105953.235 7     92286.26949  20074981.53949
        49.500          41.750  
  24252116.758 5     -3490.265 5   2448195.595 5   1894620.82245  24252108.06345
        39.250          18.500  
  22449775.047 6      1975.362 6  -1918782.907 6  -1451039.65048  22449763.94948
        46.000          34.500  
  21576787.359 7     -2726.839 7   1760939.898 7   1366935.09948  21576775.91048
        47.750          36.250  
  24267839.484 5      3147.417 5   -803912.982 5  -2001065.64846  24267830.90646
        41.000          22.500  
 11  3 24  2 21 30.0000000  0 11G03G05G06G07G08G10G13G16G19G23G28   
  21736705.461 7      -292.492 7   -221758.948 7   -150496.68548  21736697.05948
        48.500          33.750  
  24601929.51611      1797.82811                                
        26.750  
  23135646.781 6     -1036.972 6    404494.579 6    328059.74747  23135638.55547
        43.000          29.500  
  20990761.555 7      1234.975 7  -1289877.520 7   -969492.38348  20990751.92248
        48.750          41.250  
  22947159.500 6      2320.667 6  -2100094.113 6  -1601485.43747  22947151.39147
        43.500          31.750  
  22580394.258 6      -807.409 6    226280.884 6    185061.79347  22580386.20747
        44.000          32.250  
  20076865.398 7      -656.468 7    115800.258 7     99959.27349  20076855.59049
        49.500          41.500  
  24262081.688 4     -3491.475 4   2500567.715 4   1935430.31245  24262073.34445
        38.500          16.250  
  22444156.992 6      1967.930 6  -1948301.856 6  -1474041.41748  22444146.48048
        45.500          34.000  
  21584588.711 6     -2733.221 6   1801938.211 6   1398881.82048  21584577.67248
        47.000          36.000  
  24258864.000 5      3144.484 5   -851080.241 5  -2037819.31746  24258854.89546
        41.500          22.500  
 11  3 24  2 21 45.0000000  0 11G03G05G06G07G08G10G13G16G19G23G28   
  21737570.195 7      -303.095 7   -217212.523 7   -146953.99848  21737561.96948
        48.000          35.000  
  24596821.76611      1789.65611                                
        25.750  
  23138631.875 6     -1045.877 6    420182.738 6    340284.29647  23138623.64847
        43.500          28.250  
  20987246.055 7      1231.567 7  -1308351.025 7   -983887.31048  20987236.59848
        48.500          41.000  
  22940539.656 6      2319.254 6  -2134882.930 6  -1628593.59547  22940531.48847
        44.250          31.250  
  22582725.023 6      -816.413 6    238527.076 6    194604.27547  22582716.50447
        45.000          32.000  
  20078764.438 7      -665.191 7    125778.125 7    107734.23549  20078754.62949
        49.000          41.500  
  24272051.273 3     -3492.637 3   2552957.269 3   1976253.33745  24272042.93045
        37.000          16.750  
  22438561.266 6      1960.498 6  -1977709.325 6  -1496956.29248  22438550.34448
        46.250          34.500  
  21592407.875 6     -2739.569 6   1843031.746 6   1430902.75048  21592397.30548
        46.250          36.000  
  24249895.406 5      3141.563 5   -898203.688 5  -2074538.80446  24249887.76646
        39.500          21.500  
 11  3 24  2 22  0.0000000  0 10G03G06G07G08G10G13G16G19G23G28      
  21738465.844 7      -313.712 7   -212506.842 7   -143287.22948  21738457.79348
        48.000          34.500  
  23141642.633 6     -1054.785 6    436004.508 6    352612.94747  23141634.17247
        43.000          29.000  
  20983740.281 7      1228.133 7  -1326773.017 7   -998242.09648  20983730.70748
        47.750          41.000  
  22933923.484 6      2317.818 6  -2169650.198 6  -1655684.96447  22933915.55147
        43.000          31.500  
  22585081.148 6      -825.419 6    250908.366 6    204252.03247  22585072.68847
        44.750          33.000  
  20080688.102 7      -673.950 7    135887.380 7    115611.57649  20080678.35249
        49.500          41.750  
  24282023.922 4     -3493.800 4   2605364.269 4   2017089.96945  24282015.75445
        38.250          16.250  
  22432986.195 6      1953.034 6  -2007004.836 6  -1519783.94048  22432975.44948
        46.500          34.250  
  21600245.336 6     -2745.925 6   1884220.619 6   1462997.96948  21600235.29348
        46.250          36.000  
  24240935.930 5      3138.617 5   -945282.949 5  -2111223.90146  24240928.69946
        39.500          22.500  
 11  3 24  2 22 15.0000000  0 10G03G06G07G08G10G13G16G19G23G28      
  21739391.305 7      -324.301 7   -207642.320 7   -139496.67848  21739383.02048
        48.000          34.500  
  23144678.891 6     -1063.658 6    451959.384 6    365045.33247  23144670.78147
        43.250          28.250  
  20980244.422 7      1224.720 7  -1345143.820 7  -1012556.99948  20980235.08248
        48.250          40.750  
  22927312.164 6      2316.412 6  -2204396.375 6  -1682759.89047  22927303.41047
        44.000          31.500  
  22587462.773 6      -834.390 6    263424.217 6    214004.64747  22587454.13747
        45.250          32.500  
  20082636.836 7      -682.680 7    146127.573 7    123590.94849  20082626.61749
        48.750          41.500  
  24292000.023 4     -3494.917 4   2657788.025 4   2057939.66845  24291991.91445
        38.000          16.250  
  22427433.164 6      1945.571 6  -2036188.407 6  -1542524.36248  22427422.71148
        46.250          34.750  
  21608101.594 6     -2752.238 6   1925504.188 6   1495166.98948  21608090.90648
        46.750          36.500  
  24231986.781 5      3135.681 5   -992318.170 5  -2147874.62946  24231977.61746
        41.500          20.750  
 11  3 24  2 22 30.0000000  0 11G03G05G06G07G08G10G13G16G19G23G28   
  21740346.133 7      -334.313 7   -202627.619 7   -135589.10748  21740337.14548
        48.500          35.000  
  24581595.09411      1766.09411     54912.94811                
        33.750  
  23147738.539 6     -1071.951 6    468038.643 6    377574.62547  23147729.90247
        43.500          28.500  
  20976756.500 7      1221.894 7  -1363472.236 7  -1026838.86949  20976747.27749
        48.500          41.500  
  22920701.992 6      2315.583 6  -2239130.122 6  -1709825.12447  22920693.70747
        44.000          31.250  
  22589868.117 6      -842.761 6    276065.625 6    223855.08947  22589859.71547
        45.500          31.750  
  20084608.469 7      -690.826 7    156489.966 7    131665.53749  20084598.71949
        48.250          41.500  
  24301977.367 4     -3495.432 4   2710219.499 4   2098795.34045  24301968.96545
        38.500          16.750  
  22421898.789 6      1938.675 6  -2065268.534 6  -1565184.18448  22421888.51248
        46.250          34.000  
  21615974.344 6     -2757.958 6   1966873.557 6   1527402.85848  21615963.07048
        47.500          36.500  
  24223042.203 4      3133.312 4  -1039317.852 4  -2184497.69346  24223033.62546
        39.000          20.000  
 11  3 24  2 22 45.0000000  0 11G03G05G06G07G08G10G13G16G19G23G28   
  21741331.719 7      -345.383 7   -197446.878 7   -131552.14648  21741323.08248
        48.250          34.250  
  24576563.500 2      1761.962 2     28483.521 2                
        34.000  
  23150825.055 6     -1081.282 6    484257.875 6    390212.99247  23150816.77047
        43.500          29.000  
  20973279.922 7      1218.004 7  -1381742.303 7  -1041075.27449  20973270.52349
        48.500          41.500  
  22914097.672 6      2313.705 6  -2273835.704 6  -1736868.42047  22914089.09447
        44.500          31.000  
  22592300.539 6      -852.174 6    288848.237 6    233815.56547  22592292.31347
        44.750          32.000  
  20086606.695 7      -700.025 7    166990.335 7    139847.64549  20086596.53549
        48.250          41.500  
  24311960.813 5     -3496.978 5   2762674.166 5   2139669.11145  24311950.18445
        39.500          14.750  
  22416387.555 6      1930.702 6  -2094229.070 6  -1587750.81647  22416377.39547
        46.250          33.500  
  21623866.406 7     -2764.717 7   2008344.318 7   1559717.72348  21623855.19148
        48.000          37.000  
  24214108.328 5      3129.879 5  -1086266.033 5  -2221080.65146  24214099.92646
        40.500          20.250  
 11  3 24  2 23  0.0000000  0 11G03G05G06G07G08G10G13G16G19G23G28   
  21742348.719 7      -356.151 7   -192104.616 7   -127389.33048  21742339.78948
        48.750          34.000  
  24571559.180 2      1753.846 2      2175.827 2                
        34.000  
  23153937.352 6     -1090.320 6    500612.672 6    402957.00247  23153928.89147
        44.000          28.500  
  20969813.523 7      1214.409 7  -1399958.435 7  -1055269.64949  20969803.77349
        48.500          41.500  
  22907497.719 6      2312.119 6  -2308517.494 6  -1763893.18647  22907489.84447
        44.000          30.750  
  22594759.133 6      -861.283 6    301767.484 6    243882.51347  22594750.90647
        46.000          31.750  
  20088630.641 7      -708.942 7    177624.472 7    148133.98649  20088620.18849
        48.500          41.500  
  24321946.969 5     -3498.213 5   2815147.354 5   2180557.29445  24321934.99245
        40.500          16.750  
  22410898.758 6      1922.995 6  -2123073.999 6  -1610227.36647  22410888.48047
        46.500          33.500  
  21631776.430 7     -2771.172 7   2049911.901 7   1592108.03248  21631765.15648
        48.000          36.750  
  24205184.516 5      3126.734 5  -1133167.036 5  -2257626.79746  24205175.29346
        41.250          21.000  
 11  3 24  2 23 15.0000000  0 11G03G05G06G07G08G10G13G16G19G23G28   
  21743396.508 7      -367.200 7   -186596.616 7   -123097.36848  21743387.98848
        48.000          33.750  
  24566584.906 1      1745.442 1    -24005.801 1                
        30.500  
  23157076.102 6     -1099.626 6    517107.058 6    415809.77147  23157067.81647
        42.750          27.750  
  20966358.117 7      1210.542 7  -1418116.570 7  -1069418.83548  20966348.77748
        48.750          41.000  
  22900903.383 6      2310.235 6  -2343171.019 6  -1790895.91547  22900895.33247
        43.250          30.500  
  22597243.914 6      -870.656 6    314827.321 6    254059.00947  22597235.98047
        44.750          32.250  
  20090680.438 7      -718.138 7    188396.535 7    156527.80549  20090670.51249
        48.000          41.750  
  24331936.523 5     -3499.722 5   2867643.188 5   2221463.17845  24331924.02045
        42.000          18.500  
  22405433.305 6      1914.982 6  -2151798.732 6  -1632610.25148  22405422.32448
        46.250          34.000  
  21639705.383 7     -2777.902 7   2091580.438 7   1624577.01048  21639694.34448
        47.750          36.250  
  24196268.047 5      3123.300 5  -1180016.542 5  -2294132.84446  24196260.28946
        39.250          19.250  
 11  3 24  2 23 30.0000000  0 10G03G06G07G08G10G13G16G19G23G28      
  21744473.078 7      -377.238 7   -180938.043 7   -118688.08648  21744464.91048
        47.750          34.250  
  23160238.508 6     -1107.913 6    533725.759 6    428759.40447  23160230.04747
        43.750          29.000  
  20962910.820 6      1207.662 6  -1436231.504 6  -1083534.36448  20962901.18848
        47.500          40.750  
  22894312.031 6      2309.371 6  -2377811.583 6  -1817888.53047  22894303.33647
        44.500          31.000  
  22599753.133 6      -879.004 6    328012.383 6    264333.10347  22599745.19947
        45.750          32.250  
  20092753.859 7      -726.328 7    199291.452 7    165017.35549  20092743.52349
        47.750          41.500  
  24341928.531 5     -3500.182 5   2920145.922 5   2262374.34845  24341914.61745
        41.250          16.250  
  22399987.242 6      1907.965 6  -2180418.205 6  -1654911.13148  22399975.91048
        47.000          34.250  
  21647651.008 6     -2783.595 6   2133334.364 6   1657112.52048  21647640.02748
        46.250          36.500  
  24187359.086 5      3120.853 5  -1226829.335 5  -2330610.25746  24187351.15246
        39.250          19.750  
 11  3 24  2 23 45.0000000  0 10G03G06G07G08G10G13G16G19G23G28      
  21745580.469 7      -387.838 7   -175120.472 7   -114154.89748  21745572.12548
        48.250          33.750  
  23163426.398 6     -1116.764 6    550477.225 6    441812.51047  23163417.35247
        43.000          28.250  
  20959473.516 7      1204.205 7  -1454294.571 7  -1097609.47948  20959464.00048
        48.500          40.750  
  22887724.133 6      2307.925 6  -2412430.454 6  -1844864.24647  22887715.43847
        45.250          31.250  
  22602287.266 6      -887.926 6    341331.271 6    274711.44347  22602279.09847
        46.250          31.500  
  20094851.492 7      -735.084 7    210317.719 7    173609.24849  20094841.44949
        48.250          41.750  
  24351921.422 5     -3501.221 5   2972664.234 5   2303297.74945  24351908.80145
        40.750          17.750  
  22394562.766 6      1900.353 6  -2208923.500 6  -1677123.00848  22394551.49248
        47.000          34.500  
  21655614.320 6     -2789.862 6   2175182.288 6   1689721.28548  21655603.51648
        47.250          36.500  
  24178461.086 5      3117.816 5  -1273596.570 5  -2367052.22546  24178451.33646
        40.250          20.000  
 11  3 24  2 24  0.0000000  0 10G03G06G07G08G10G13G16G19G23G28      
  21746717.430 7      -398.450 7   -169143.720 7   -109497.67647  21746708.79347
        48.250          33.000  
  23166639.438 6     -1125.622 6    567361.558 6    454969.14547  23166630.44947
        44.000          28.500  
  20956046.695 7      1200.744 7  -1472305.736 7  -1111644.13448  20956036.65248
        48.750          41.000  
  22881140.242 6      2306.472 6  -2447027.538 6  -1871822.99947  22881131.84047
        44.500          30.500  
  22604847.195 6      -896.830 6    354783.727 6    285193.88747  22604839.20347
        46.250          31.750  
  20096974.797 7      -743.862 7    221475.647 7    182303.74249  20096964.40249
        48.500          41.750  
  24361916.375 5     -3502.251 5   3025197.995 5   2344233.15645  24361906.50845
        39.750          16.750  
  22389160.359 6      1892.696 6  -2237313.939 6  -1699245.39848  22389148.96948
        46.750          34.750  
  21663595.133 7     -2796.113 7   2217123.986 7   1722403.12948  21663584.68048
        48.000          36.000  
  24169569.977 5      3114.777 5  -1320318.227 5  -2403458.61246  24169560.75446
        40.000          19.500  
 11  3 24  2 24 15.0000000  0 11G03G05G06G07G08G10G13G16G19G23G28   
  21747885.250 7      -409.069 7   -163007.689 7   -104716.34148  21747876.32048
        48.000          34.000  
  24546865.10911      1710.20311                                
        33.000  
  23169877.539 6     -1134.451 6    584378.319 6    468228.96047  23169868.90247
        44.000          28.250  
  20952628.758 7      1197.291 7  -1490265.104 7  -1125638.43448  20952619.12548
        48.250          40.750  
  22874560.742 6      2305.018 6  -2481602.815 6  -1898764.76447  22874552.51647
        45.250          30.250  
  22607433.039 6      -905.714 6    368369.435 6    295780.15047  22607424.28547
        45.750          31.750  
  20099123.469 7      -752.631 7    232765.109 7    191100.72749  20099113.07449
        48.000          42.000  
  24371916.055 4     -3503.252 4   3077746.776 4   2385180.23145  24371906.53945
        39.000          16.250  
  22383779.164 6      1885.040 6  -2265589.546 6  -1721278.31948  22383768.30148
        46.750          34.250  
  21671594.594 6     -2802.352 6   2259159.262 6   1755157.87648  21671583.61348
        47.000          35.750  
  24160686.797 4      3111.728 4  -1366994.145 4  -2439829.43046  24160677.86746
        39.000          19.750  
 11  3 24  2 24 30.0000000  0 11G03G05G06G07G08G10G13G16G19G23G28   
  21749082.461 7      -419.346 7   -156717.491 7    -99814.87848  21749073.59048
        48.000          34.000  
  24541996.570 1      1702.000 1    294570.647 1                
        33.500  
  23173140.383 6     -1142.952 6    601522.599 6    481588.14447  23173131.21947
        44.000          29.250  
  20949220.148 7      1194.167 7  -1508177.603 7  -1139596.21148  20949210.39848
        48.000          41.000  
  22867984.820 6      2303.915 6  -2516161.535 6  -1925693.61947  22867976.12547
        46.000          31.000  
  22610042.906 6      -914.255 6    382083.266 6    306466.25347  22610034.44547
        47.000          31.500  
  20101295.656 7      -761.073 7    244181.197 7    199996.37549  20101285.84849
        48.000          42.000  
  24381917.086 4     -3503.905 4   3130305.355 4   2426134.99745  24381908.15645
        38.000          16.750  
  22378419.531 6      1877.694 6  -2293754.949 6  -1743225.36347  22378408.72747
        47.000          33.500  
  21679609.914 7     -2808.232 7   2301282.746 7   1787981.37148  21679599.69548
        47.750          36.000  
  24151814.055 5      3109.003 5  -1413629.183 5  -2476168.35346  24151804.48046
        41.250          21.250  
 11  3 24  2 24 45.0000000  0 11G03G05G06G07G08G10G13G16G19G23G28   
  21750311.539 7      -430.610 7   -150258.349 7    -94781.77247  21750302.60947
        48.500          33.500  
  24537146.047 1      1697.612 1    269106.471 1                
        28.500  
  23176429.406 6     -1152.434 6    618809.108 6    495058.16047  23176420.65247
        44.500          28.500  
  20945823.180 7      1190.049 7  -1526028.340 7  -1153505.85348  20945813.78148
        48.250          41.000  
  22861414.781 6      2301.809 6  -2550688.664 6  -1952597.85047  22861405.85247
        46.000          30.750  
  22612679.852 6      -923.779 6    395939.953 6    317263.66747  22612671.27347
        46.000          31.750  
  20103495.000 7      -770.498 7    255738.661 7    209002.19149  20103485.30949
        48.000          42.000  
  24391922.781 3     -3505.518 3   3182888.130 3   2467108.60245  24391914.90645
        36.500          18.250  
  22373083.758 6      1869.331 6  -2321794.914 6  -1765074.66948  22373072.77748
        46.750          34.000  
  21687645.406 6     -2815.106 6   2343509.340 6   1820885.19848  21687634.89548
        46.250          35.750  
  24142950.852 5      3105.270 5  -1460208.233 5  -2512463.64846  24142940.28146
        42.000          21.250  
 11  3 24  2 25  0.0000000  0 10G03G06G07G08G10G13G16G19G23G28      
  21751569.781 7      -440.840 7   -143645.742 7    -89629.07848  21751560.73448
        48.000          33.750  
  23179743.297 6     -1160.874 6    636222.215 6    508626.81447  23179734.42647
        43.750          28.250  
  20942435.313 7      1186.966 7  -1543832.835 7  -1167379.47348  20942425.73848
        47.750          41.000  
  22854846.852 6      2300.736 6  -2585199.703 6  -1979489.54447  22854838.33247
        45.750          32.000  
  22615340.766 6      -932.252 6    409923.729 6    328160.11047  22615332.18847
        46.000          32.000  
  20105718.258 6      -778.887 6    267421.972 6    218106.06249  20105708.39149
        47.500          41.750  
  24401931.156 3     -3506.084 3   3235479.393 3   2508088.77945  24401922.57845
        37.000          16.750  
  22367768.922 6      1861.980 6  -2349724.621 6  -1786838.05548  22367758.11748
        46.250          35.000  
  21695698.141 7     -2820.921 7   2385823.153 7   1853856.99548  21695686.63348
        48.000          36.000  
  24134093.352 5      3102.570 5  -1506746.789 5  -2548727.39146  24134084.65646
        41.250          20.000  
 11  3 24  2 25 15.0000000  0 10G03G06G07G08G10G13G16G19G23G28      
  21752858.711 7      -451.450 7   -136873.992 7    -84352.38448  21752849.60548
        48.750          33.750  
  23183082.094 6     -1169.686 6    653767.504 6    522298.48047  23183073.16447
        44.000          28.000  
  20939057.078 6      1183.497 6  -1561585.285 6  -1181212.54148  20939047.32848
        47.000          41.000  
  22848283.352 6      2299.270 6  -2619688.749 6  -2006364.10447  22848275.41847
        45.750          30.500  
  22618027.156 6      -941.085 6    424040.011 6    339159.81647  22618018.10947
        46.000          31.500  
  20107966.492 6      -787.665 6    279236.944 6    227312.52849  20107956.74249
        47.500          42.000  
  24411941.797 3     -3507.019 3   3288084.678 3   2549079.92145  24411932.51645
        37.000          17.250  
  22362475.555 6      1854.225 6  -2377537.995 6  -1808510.80448  22362465.51248
        46.250          34.500  
  21703768.313 7     -2827.108 7   2428229.772 7   1886901.09848  21703756.57048
        47.750          36.250  
  24125245.391 5      3099.469 5  -1553238.817 5  -2584954.88246  24125237.92646
        39.250          21.250  
 11  3 24  2 25 30.0000000  0 10G03G06G07G08G10G13G16G19G23G28      
  21754177.063 7      -462.004 7   -129943.930 7    -78952.32347  21754168.42647
        48.000          33.500  
  23186445.352 6     -1178.442 6    671444.129 6    536072.47147  23186436.94947
        44.000          28.750  
  20935688.898 7      1180.062 7  -1579286.218 7  -1195005.46548  20935679.14848
        48.000          41.000  
  22841724.805 6      2297.862 6  -2654156.684 6  -2033222.22647  22841716.63747
        46.500          31.500  
  22620738.578 6      -949.863 6    438287.958 6    350262.11547  22620729.94147
        45.250          31.500  
  20110239.781 7      -796.396 7    291182.883 7    236621.04549  20110229.62149
        48.750          41.750  
  24421955.711 3     -3507.878 3   3340702.851 3   2590081.07645  24421945.37545
        37.000          17.750  
  22357204.734 6      1846.505 6  -2405235.567 6  -1830093.30748  22357194.34048
        47.000          35.000  
  21711855.422 6     -2833.235 6   2470728.301 6   1920016.82248  21711844.03148
        47.500          35.500  
  24116408.156 5      3096.405 5  -1599684.895 5  -2621146.56946  24116398.75846
        40.250          20.500  
 11  3 24  2 25 45.0000000  0 11G03G05G06G07G08G10G13G16G19G23G28   
  21755524.922 7      -472.344 7   -122858.769 7    -73431.41248  21755516.28548
        47.750          34.000  
  24517993.09411      1661.73411    517353.93011                
        33.000  
  23189833.727 6     -1186.972 6    689248.711 6    549946.19047  23189824.73847
        43.500          27.750  
  20932329.469 7      1176.851 7  -1596938.987 7  -1208760.85549  20932320.12949
        48.000          41.500  
  22835169.391 6      2296.670 6  -2688606.739 6  -2060066.39747  22835160.75447
        46.500          31.750  
  22623473.953 6      -958.410 6    452664.104 6    361464.30347  22623464.73047
        45.500          31.500  
  20112537.781 7      -804.911 7    303256.552 7    246029.08749  20112527.44549
        48.250          41.750  
  24431970.922 4     -3508.506 4   3393330.434 4   2631089.59245  24431960.11745
        38.750          16.750  
  22351955.758 6      1838.971 6  -2432820.135 6  -1851587.74948  22351945.42248
        45.750          34.250  
  21719959.438 6     -2839.132 6   2513315.285 6   1953201.46648  21719948.34048
        46.750          35.750  
  24107577.266 5      3093.547 5  -1646088.096 5  -2657304.82446  24107568.33646
        39.500          20.250  
 11  3 24  2 26  0.0000000  0 11G03G05G06G07G08G10G13G16G19G23G28   
  21756904.539 7      -483.152 7   -115611.496 7    -67784.17047  21756895.84447
        47.750          32.500  
  24513260.969 1      1657.651 1    492489.159 1                
        32.750  
  23193247.219 6     -1195.964 6    707188.176 6    563924.99147  23193238.93447
        43.250          28.500  
  20928980.438 7      1173.169 7  -1614536.521 7  -1222473.19549  20928970.98049
        49.500          41.500  
  22828618.320 6      2295.008 6  -2723031.852 6  -2086891.14647  22828609.68447
        47.250          31.250  
  22626235.359 6      -967.424 6    467175.465 6    372771.85047  22626226.66447
        46.000          31.250  
  20114860.617 7      -813.901 7    315465.073 7    255542.21549  20114850.69149
        49.000          42.000  
  24441988.703 4     -3509.594 4   3445974.346 4   2672110.80845  24441977.19545
        38.250          16.750  
  22346729.469 6      1830.950 6  -2460284.390 6  -1872988.44647  22346719.42647
        46.500          33.500  
  21728081.219 6     -2845.490 6   2555997.632 6   1986460.43448  21728070.35548
        47.000          36.250  
  24098754.906 4      3090.207 4  -1692441.196 4  -2693424.09546  24098747.20746
        37.750          21.500  
 11  3 24  2 26 15.0000000  0 11G03G05G06G07G08G10G13G16G19G23G28   
  21758314.531 7      -494.042 7   -108200.866 7    -62009.64647  21758306.01247
        48.000          33.000  
  24508551.00011      1645.51611                                
        28.750  
  23196686.984 6     -1205.037 6    725263.732 6    578009.86147  23196678.28947
        43.000          28.500  
  20925642.641 7      1169.394 7  -1632077.425 7  -1236141.42548  20925633.12548
        48.750          41.000  
  22822072.797 6      2293.252 6  -2757430.632 6  -2113695.36847  22822063.98447
        46.500          31.000  
  22629022.281 6      -976.500 6    481822.960 6    384185.48347  22629014.28947
        45.000          31.500  
  20117209.320 7      -822.983 7    327809.817 7    265161.49949  20117199.51249
        49.250          41.750  
  24452010.484 3     -3510.742 3   3498635.482 3   2713145.46445  24451997.98045
        36.500          16.250  
  22341526.367 6      1822.821 6  -2487626.698 6  -1894294.11948  22341515.79748
        46.750          33.750  
  21736221.234 6     -2851.914 6   2598776.335 6   2019794.49148  21736210.60548
        46.250          35.500  
  24089943.906 4      3086.770 4  -1738742.744 4  -2729503.17046  24089935.85546
        38.250          20.500  
 11  3 24  2 26 30.0000000  0 10G03G06G07G08G10G13G16G19G23G28      
  21759753.961 7      -504.341 7   -100635.748 7    -56114.74047  21759745.44147
        48.500          33.000  
  23200150.750 6     -1213.514 6    743466.440 6    592193.78347  23200142.40647
        44.000          29.000  
  20922314.047 7      1166.190 7  -1649570.282 7  -1249772.21449  20922304.47349
        49.250          41.500  
  22815529.828 6      2292.096 6  -2791812.076 6  -2140486.08947  22815521.71947
        46.250          32.250  
  22631833.930 6      -984.976 6    496597.602 6    395698.19347  22631825.41047
        45.500          31.750  
  20119582.930 7      -831.472 7    340281.897 7    274879.99349  20119572.94549
        49.500          42.000  
  24462033.555 3     -3511.291 3   3551304.852 3   2754186.48145  24462021.46145
        36.500          15.500  
  22336345.063 6      1815.245 6  -2514855.371 6  -1915511.24548  22336334.49248
        46.250          34.000  
  21744378.727 6     -2857.739 6   2641642.417 6   2053196.62648  21744367.92248
        46.750          36.000  
  24081142.063 5      3083.908 5  -1785001.370 5  -2765548.79646  24081133.60246
        39.250          20.000  
 11  3 24  2 26 45.0000000  0 10G03G06G07G08G10G13G16G19G23G28      
  21761223.945 7      -514.938 7    -92911.681 7    -50095.98147  21761215.13347
        48.000          33.000  
  23203639.508 6     -1222.270 6    761800.496 6    606480.06547  23203630.93047
        43.500          27.250  
  20918995.242 7      1162.705 7  -1667010.850 7  -1263362.25948  20918985.49248
        49.250          41.250  
  22808991.266 6      2290.629 6  -2826171.505 6  -2167259.66047  22808983.27347
        46.500          31.500  
  22634670.203 6      -993.734 6    511503.616 6    407313.26947  22634662.09447
        45.750          31.500  
  20121981.273 7      -840.260 7    352885.797 7    284701.21649  20121971.17249
