     2.11           OBSERVATION DATA    GPS(GPS)            RINEX VERSION / TYPE
cnvtToRINEX 2.11.0  Stan Thomas         02-Apr-11 18:25 UTC PGM / RUN BY / DATE 
----------------------------------------------------------- COMMENT             
BR2                                                         MARKER NAME         
BR2                                                         MARKER NUMBER       
Stan Thomas         University of Utah                      OBSERVER / AGENCY   
4644124574          NetRS               1.12                REC # / TYPE / VERS 
12532422            TRM41249.00                             ANT # / TYPE        
 -1911675.1063 -4567247.4039  4009469.8749                  APPROX POSITION XYZ 
        1.2210        0.0000        0.0000                  ANTENNA: DELTA H/E/N
     1     1     0                                          WAVELENGTH FACT L1/2
     4    C1    L1    L2    P2                              # / TYPES OF OBSERV 
  2011     3    31    16    47   15.0000000     GPS         TIME OF FIRST OBS   
  2011     3    31    23    59   45.0000000     GPS         TIME OF LAST OBS    
     0                                                      RCV CLOCK OFFS APPL 
    15                                                      LEAP SECONDS        
    23                                                      # OF SATELLITES     
   G03   715   715   696   696                              PRN / # OF OBS      
   G04   459   454   437   437                              PRN / # OF OBS      
   G06   761   760   727   727                              PRN / # OF OBS      
   G07   281   281   245   245                              PRN / # OF OBS      
   G09   613   613   607   607                              PRN / # OF OBS      
   G10   141   141   141   141                              PRN / # OF OBS      
   G11  1235  1232  1202  1202                              PRN / # OF OBS      
   G12   413   407   413   413                              PRN / # OF OBS      
   G13   561   550   507   507                              PRN / # OF OBS      
   G14  1352  1345  1330  1330                              PRN / # OF OBS      
   G15   232   231   228   228                              PRN / # OF OBS      
   G16   761   759   751   751                              PRN / # OF OBS      
   G18   810   808   794   794                              PRN / # OF OBS      
   G19   820   817   782   782                              PRN / # OF OBS      
   G20  1083  1078  1062  1062                              PRN / # OF OBS      
   G21   406   404   376   376                              PRN / # OF OBS      
   G22  1093  1088  1081  1081                              PRN / # OF OBS      
   G23   960   959   904   904                              PRN / # OF OBS      
   G24  1301  1299  1267  1267                              PRN / # OF OBS      
   G25   807   804   807   807                              PRN / # OF OBS      
   G27   419   419   418   418                              PRN / # OF OBS      
   G30   909   908   889   889                              PRN / # OF OBS      
   G31  1494  1494  1494  1494                              PRN / # OF OBS      
CARRIER PHASE MEASUREMENTS: PHASE SHIFTS REMOVED            COMMENT             
                                                            END OF HEADER       
 11  3 31 16 47 15.0000000  0 10G03G06G09G14G15G18G19G21G22G27      
  21915849.70316    103774.17916    100250.27658  21915841.53558
  21978989.32017    259053.82317    210646.37158  21978981.15258
  22969453.78916  -1040657.57816   -795361.47257  22969446.67657
  21939204.79716  -1778983.96016  -1347164.15058  21939196.21958
  23606273.48416   1872655.86216   1445517.04657  23606267.25057
  20787582.60217    368605.77317    294317.27258  20787572.44158
  23352391.88316  -1324434.16816  -1001839.10557  23352382.19157
  21279899.53117    991330.59817    771881.33858  21279890.36758
  20780004.31317   -547943.45617   -405733.98858  20779992.62958
  23710003.57015     38812.29315     35254.82157  23709998.09857
 11  3 31 16 47 30.0000000  0 10G03G06G09G14G15G18G19G21G22G27      
  21916994.867 7    109791.160 7    104938.81447  21916986.40647
  21980781.063 7    268469.212 7    217983.01748  21980773.24648
  22964762.984 6  -1065308.622 6   -814570.06747  22964755.81347
  21930995.594 6  -1822122.914 6  -1380778.90548  21930987.42648
  23615546.680 6   1921386.148 6   1483488.61947  23615540.15247
  20789599.383 7    379203.867 7    302575.51548  20789589.57448
  23346471.992 6  -1355547.063 6  -1026082.91047  23346461.18847
  21285091.938 7   1018618.208 7    793144.37648  21285082.89148
  20777643.461 7   -560349.133 7   -415400.75548  20777632.12948
  23710598.422 5     41936.615 5     37689.34746  23710592.53946
 11  3 31 16 47 45.0000000  0 10G03G06G09G14G15G18G19G21G22G27      
  21918167.578 7    115953.377 7    109740.52147  21918159.11747
  21982598.094 7    278016.420 7    225422.38548  21982590.04348
  22960096.492 6  -1089829.987 6   -833677.60547  22960089.43847
  21922802.766 6  -1865174.640 6  -1414325.68247  21922794.24647
  23624829.148 6   1970167.427 6   1521499.92847  23624823.38347
  20791626.078 7    389855.061 7    310875.13848  20791616.50448
  23340572.922 6  -1386546.973 6  -1050238.67947  23340562.17647
  21290303.391 7   1046003.769 7    814483.74448  21290294.10948
  20775294.820 7   -572692.725 7   -425019.13748  20775282.72748
  23711217.406 5     45187.036 5     40222.13647  23711210.76247
 11  3 31 16 48  0.0000000  0 10G03G06G09G14G15G18G19G21G22G27      
  21919367.625 6    122261.076 6    114655.59547  21919359.28147
  21984439.813 7    287695.812 7    232964.74348  21984431.35248
  22955454.969 6  -1114220.910 6   -852683.51947  22955447.62147
  21914627.250 6  -1908138.517 6  -1447804.00948  21914618.73048
  23634121.578 6   2018999.832 6   1559551.07247  23634115.81347
  20793663.305 7    400559.619 7    319216.33648  20793653.61348
  23334695.617 6  -1417433.381 6  -1074305.99447  23334684.63747
  21295533.516 7   1073487.737 7    835899.79448  21295524.23448
  20772957.359 7   -584973.977 7   -434588.94948  20772945.85248
  23711859.586 5     48563.958 5     42853.48447  23711853.46947
 11  3 31 16 48 15.0000000  0 10G03G06G09G14G15G18G19G21G22G27      
  21920595.656 7    128714.136 7    119683.93847  21920587.37147
  21986307.328 7    297507.218 7    240609.98148  21986298.45748
  22950838.688 6  -1138481.045 6   -871587.49247  22950831.39847
  21906468.047 6  -1951014.258 6  -1481213.66548  21906459.93848
  23643423.914 6   2067883.166 6   1597641.90347  23643418.09047
  20795710.664 7    411317.602 7    327599.16948  20795700.50448
  23328839.555 6  -1448206.048 6  -1098284.70147  23328829.04347
  21300782.094 7   1101070.000 7    857392.43848  21300772.87148
  20770632.219 7   -597192.847 7   -444110.14548  20770620.71148
  23712526.641 5     52067.445 5     45583.46747  23712519.76247
 11  3 31 16 48 30.0000000  0 10G03G06G09G14G15G18G19G21G22G27      
  21921851.414 7    135312.466 7    124825.48147  21921843.01247
  21988199.047 7    307450.402 7    248357.90148  21988191.05548
  22946247.047 6  -1162610.238 6   -890389.45747  22946239.99247
  21898326.367 6  -1993801.795 6  -1514554.57948  21898317.55548
  23652736.125 6   2116816.641 6   1635771.80547  23652729.77347
  20797767.609 7    422128.815 7    336023.47948  20797757.85948
  23323004.844 6  -1478864.848 6  -1122174.67747  23322994.50847
  21306049.789 7   1128750.428 7    878961.57448  21306040.62548
  20768319.086 7   -609349.357 7   -453582.75448  20768307.28548
  23713217.375 5     55697.413 5     48412.00946  23713210.49646
 11  3 31 16 48 45.0000000  0 10G03G06G09G14G15G18G19G21G22G27      
  21923134.445 6    142055.682 6    130079.91647  21923126.21947
  21990116.391 7    317525.148 7    256208.33748  21990108.28148
  22941680.281 6  -1186608.197 6   -909089.14947  22941673.16847
  21890200.352 6  -2036500.868 6  -1547826.56748  21890192.65248
  23662056.969 6   2165800.115 6   1673940.66247  23662050.96947
  20799835.156 7    432993.095 7    344489.13648  20799825.69948
  23317193.039 6  -1509409.472 6  -1145975.67747  23317182.05947
  21311335.578 7   1156528.821 7    900607.04548  21311326.41448
  20766017.414 7   -621443.828 7   -463007.01748  20766006.08248
  23713932.055 5     59453.724 5     51338.99246  23713926.17246
 11  3 31 16 49  0.0000000  0 10G03G06G09G14G15G18G19G21G22G27      
  21924445.609 7    148944.325 7    135447.66948  21924437.20748
  21992058.266 7    327731.910 7    264161.63648  21992050.68448
  22937138.375 6  -1210474.108 6   -927685.94747  22937131.67247
  21882092.563 6  -2079110.572 6  -1581028.92248  21882083.80948
  23671388.438 6   2214833.696 6   1712148.57547  23671381.61747
  20801912.727 7    443911.060 7    352996.62648  20801902.91848
  23311402.719 6  -1539839.154 6  -1169687.10747  23311391.73847
  21316640.648 7   1184405.753 7    922329.30248  21316631.48448
  20763727.750 7   -633475.677 7   -472382.48248  20763716.12548
  23714671.164 6     63337.008 6     54364.90946  23714664.46146
 11  3 31 16 49 15.0000000  0 10G03G06G09G14G15G18G19G21G22G27      
  21925783.539 6    155977.637 6    140928.15147  21925775.54747
  21994025.930 7    338069.861 7    272217.16848  21994018.17248
  22932622.305 6  -1234208.261 6   -946180.07747  22932615.54347
  21874001.039 6  -2121631.455 6  -1614162.05148  21873992.63748
  23680728.359 6   2263916.555 6   1750394.89047  23680722.00847
  20804000.430 7    454881.951 7    361545.34948  20803990.62148
  23305633.609 6  -1570154.280 6  -1193309.29147  23305623.15647
  21321964.133 7   1212380.561 7    944127.82748  21321955.02748
  20761450.125 7   -645445.450 7   -481709.59248  20761438.79348
  23715434.023 6     67346.630 6     57489.28147  23715427.90647
 11  3 31 16 49 30.0000000  0 10G03G06G09G14G15G18G19G21G22G27      
  21927149.852 6    163155.989 6    146521.66647  21927141.68447
  21996018.219 7    348539.415 7    280375.23748  21996010.22748
  22928131.055 6  -1257809.705 6   -964570.80747  22928123.94147
  21865926.531 6  -2164062.718 6  -1647225.35848  21865918.18848
  23690078.156 6   2313048.877 6   1788679.73347  23690071.62947
  20806098.570 7    465906.263 7    370135.71548  20806088.64548
  23299886.406 6  -1600354.126 6  -1216841.63347  23299875.77747
  21327306.109 7   1240453.746 7    966003.00348  21327297.35548
  20759184.445 7   -657352.769 7   -490988.02148  20759172.76248
  23716221.758 6     71483.226 6     60712.60146  23716215.11346
 11  3 31 16 49 45.0000000  0 10G03G06G09G14G15G18G19G21G22G27      
  21928543.109 7    170479.172 7    152228.02347  21928535.23447
  21998035.578 7    359140.405 7    288635.73548  21998027.23448
  22923665.289 6  -1281278.415 6   -982858.10147  22923658.00047
  21857869.641 6  -2206404.315 6  -1680218.79948  21857860.53548
  23699436.570 6   2362230.135 6   1827002.72047  23699430.16047
  20808206.531 7    476983.905 7    378767.63448  20808196.66448
  23294161.773 6  -1630438.591 6  -1240284.08647  23294151.26247
  21332667.102 7   1268625.070 7    987954.65748  21332657.82048
  20756930.438 7   -669197.736 7   -500217.87248  20756918.75448
  23717032.242 6     75746.660 6     64034.74746  23717026.41846
 11  3 31 16 50  0.0000000  0 10G03G06G09G14G15G18G19G21G22G27      
  21929964.484 6    177946.279 6    158046.52547  21929956.19947
  22000077.766 7    369871.979 7    296997.99148  22000069.89148
  22919224.375 6  -1304614.502 6  -1001042.05047  22919217.32047
  21849829.031 6  -2248656.510 6  -1713142.56748  21849820.57048
  23708805.164 6   2411459.536 6   1865363.22347  23708798.63747
  20810324.242 7    488113.925 7    387440.36348  20810314.55148
  23288459.117 6  -1660408.089 6  -1263636.93347  23288448.31347
  21338046.422 7   1296894.049 7   1009982.40248  21338037.25848
  20754687.906 7   -680980.827 7   -509399.50448  20754676.63348
  23717867.906 6     80136.480 6     67455.37547  23717862.14147
 11  3 31 16 50 15.0000000  0 10G03G06G09G14G15G18G19G21G22G27      
  21931413.250 7    185558.061 7    163977.77347  21931404.67247
  22002144.453 7    380734.795 7    305462.50848  22002137.04748
  22914809.125 6  -1327817.055 6  -1019121.94547  22914801.95347
  21841805.781 6  -2290818.386 6  -1745995.96448  21841797.37948
  23718182.383 6   2460737.518 6   1903761.57347  23718175.62147
  20812452.625 7    499297.011 7    396154.45548  20812442.52348
  23282778.219 6  -1690261.571 6  -1286899.37847  23282767.47347
  21343444.484 7   1325261.172 7   1032086.62348  21343435.08648
  20752457.656 7   -692701.589 7   -518532.56248  20752446.20748
  23718727.180 6     84653.287 6     70974.95947  23718721.12147
 11  3 31 16 50 30.0000000  0 10G03G06G09G14G15G18G19G21G22G27      
  21932888.672 7    193313.983 7    170021.32448  21932880.56348
  22004237.039 7    391728.301 7    314028.85948  22004228.87148
  22910419.102 6  -1350886.120 6  -1037097.83547  22910411.87147
  21833799.898 6  -2332890.098 6  -1778779.10248  21833791.78948
  23727568.734 6   2510063.179 6   1942197.09347  23727562.38347
  20814590.453 7    510532.814 7    404909.59948  20814580.76248
  23277118.906 6  -1719999.036 6  -1310071.42347  23277108.33647
  21348861.109 7   1353726.039 7   1054267.00648  21348852.59048
  20750238.914 7   -704360.392 7   -527617.34948  20750227.58248
  23719611.172 6     89296.706 6     74593.19347  23719604.64547
 11  3 31 16 50 45.0000000  0 10G03G06G09G14G15G18G19G21G22G27      
  21934392.094 6    201213.613 6    176176.87147  21934383.69147
  22006353.719 7    402852.187 7    322696.80948  22006345.43448
  22906054.453 6  -1373821.458 6  -1054969.51247  22906047.86747
  21825810.922 6  -2374871.598 6  -1811491.94448  21825802.34448
  23736964.250 6   2559436.151 6   1980669.44347  23736957.07847
  20816738.547 7    521821.080 7    413705.63948  20816728.85548
  23271481.984 6  -1749620.584 6  -1333153.14947  23271471.70747
  21354296.289 7   1382288.514 7   1076523.44948  21354287.00848
  20748032.016 7   -715957.446 7   -536654.01248  20748020.74248
  23720518.359 6     94066.591 6     78309.98046  23720512.53546
 11  3 31 16 51  0.0000000  0 10G03G06G09G14G15G18G19G21G22G27      
  21935922.414 7    209257.546 7    182444.85248  21935914.83248
  22008495.648 7    414106.908 7    331466.70348  22008487.36348
  22901715.391 6  -1396622.238 6  -1072736.33847  22901708.98047
  21817839.578 7  -2416762.056 7  -1844133.85148  21817830.94148
  23746368.844 6   2608856.714 6   2019178.90847  23746361.73047
  20818896.820 7    533162.458 7    422543.06648  20818887.01248
  23265867.695 6  -1779125.407 6  -1356143.92047  23265857.18447
  21359750.898 7   1410949.120 7   1098856.36748  21359741.61748
  20745837.188 7   -727492.088 7   -545642.05648  20745825.56348
  23721450.555 6     98963.624 6     82125.84747  23721443.96947
 11  3 31 16 51 15.0000000  0 10G03G06G09G14G15G18G19G21G22G27      
  21937480.492 6    217445.408 6    188824.98648  21937472.96948
  22010661.734 7    425492.172 7    340338.32248  22010653.85948
  22897402.469 6  -1419288.307 6  -1090398.19847  22897395.70747
  21809885.500 6  -2458561.342 6  -1876704.71548  21809877.03948
  23755781.969 5   2658324.438 5   2057725.11147  23755775.44147
  20821065.203 7    544556.637 7    431421.62748  20821054.92648
  23260274.758 6  -1808513.320 6  -1379043.59147  23260264.77347
  21365223.188 7   1439707.686 7   1121265.60448  21365214.37548
  20743653.938 7   -738964.448 7   -554581.55848  20743642.60548
  23722406.586 6    103987.687 6     86040.70147  23722400.23447
 11  3 31 16 51 30.0000000  0 10G03G06G09G14G15G18G19G21G22G27      
  21939066.336 6    225776.534 6    195316.76348  21939058.57848
  22012853.195 7    437007.250 7    349311.09448  22012845.43848
  22893114.703 6  -1441819.874 6  -1107955.25147  22893108.00047
  21801948.398 6  -2500269.793 6  -1909204.79748  21801939.64548
  23765204.297 5   2707838.316 5   2096307.27947  23765197.82847
  20823243.250 7    556002.889 7    440340.77648  20823233.26648
  23254704.688 6  -1837784.820 6  -1401852.55747  23254694.05947
  21370714.352 7   1468563.544 7   1143750.65548  21370705.30548
  20741482.898 7   -750375.342 7   -563473.16448  20741470.74648
  23723386.875 6    109138.210 6     90054.09246  23723379.93846
 11  3 31 16 51 45.0000000  0 10G03G06G09G14G15G18G19G21G22G27      
  21940679.102 7    234251.553 7    201920.65147  21940671.16847
  22015069.289 7    448652.697 7    358385.45148  22015061.23848
  22888853.813 6  -1464215.955 6  -1125406.72447  22888846.40647
  21794028.891 7  -2541886.583 7  -1941633.44748  21794020.66448
  23774635.656 5   2757398.739 5   2134925.70547  23774629.12947
  20825431.227 7    567501.931 7    449301.05248  20825421.41848
  23249157.500 6  -1866938.944 6  -1424570.04447  23249146.52047
  21376224.148 7   1497517.259 7   1166311.96648  21376214.86748
  20739323.430 7   -761724.026 7   -572316.30349  20739311.45349
  23724391.352 6    114415.738 6     94166.43447  23724384.70747
 11  3 31 16 52  0.0000000  0 10G03G06G09G14G15G18G19G21G22G27      
  21942318.969 7    242870.034 7    208636.32447  21942311.21147
  22017309.906 7    460428.329 7    367561.24948  22017302.55948
  22884617.234 6  -1486476.378 6  -1142752.47947  22884610.23847
  21786126.672 6  -2583411.627 6  -1973990.61348  21786118.32848
  23784075.297 5   2807005.317 5   2173580.12547  23784068.82847
  20827629.695 7    579053.574 7    458302.32048  20827619.59448
  23243631.766 6  -1895975.542 6  -1447195.96147  23243620.55147
  21381752.406 7   1526568.784 7   1188949.49148  21381743.30148
  20737175.320 7   -773010.700 7   -581111.12249  20737163.57849
  23725419.289 6    119820.272 6     98377.75946  23725413.17246
 11  3 31 16 52 15.0000000  0 10G03G06G09G14G15G18G19G21G22G27      
  21943986.555 6    251631.531 6    215463.44847  21943978.15247
  22019575.445 7    472333.512 7    376837.99548  22019567.04348
  22880406.516 6  -1508601.176 6  -1159992.56347  22880399.98847
  21778242.203 7  -2624844.969 7  -2006276.31948  21778234.09448
  23793524.000 5   2856657.355 5   2212269.95946  23793517.00446
  20829837.648 7    590657.400 7    467344.25148  20829827.78148
  23238128.563 6  -1924894.840 6  -1469730.47747  23238117.69947
  21387299.250 7   1555717.626 7   1211662.84748  21387290.26248
  20735039.484 7   -784235.780 7   -589857.94249  20735027.74249
  23726471.648 6    125351.313 6    102687.65047  23726465.94147
 11  3 31 16 52 30.0000000  0 10G03G06G09G14G15G18G19G21G22G27      
  21945680.867 7    260536.394 7    222402.29247  21945672.69947
  22021865.945 7    484368.499 7    386215.89348  22021857.25048
  22876222.703 6  -1530589.525 6  -1177126.31547  22876215.53147
  21770375.703 7  -2666185.847 7  -2038489.97748  21770367.41848
  23802980.789 5   2906354.908 5   2250995.24546  23802974.49646
  20832055.781 7    602313.808 7    476427.16348  20832046.32448
  23232648.039 6  -1953696.063 6  -1492172.98147  23232637.41047
  21392864.531 7   1584964.412 7   1234452.52048  21392855.48448
  20732914.891 7   -795398.748 7   -598556.36348  20732903.85248
  23727548.445 6    131009.409 6    107096.54147  23727542.73847
 11  3 31 16 52 45.0000000  0 10G03G06G09G14G15G18G19G21G22G27      
  21947402.266 6    269584.447 6    229452.70948  21947394.68448
  22024180.555 7    496533.247 7    395694.90048  22024172.68048
  22872064.320 6  -1552441.188 6  -1194153.56747  22872057.44147
  21762525.930 6  -2707434.225 6  -2070631.55048  21762517.64548
  23812447.414 5   2956097.781 5   2289755.87247  23812440.24247
  20834283.875 7    614022.667 7    485550.92748  20834274.59448
  23227190.055 6  -1982378.956 6  -1514523.29047  23227179.07447
  21398448.797 7   1614308.869 7   1257318.29748  21398439.34048
  20730802.516 7   -806499.771 7   -607206.51448  20730791.06648
  23728649.922 6    136794.562 6    111604.43246  23728643.27746
 11  3 31 16 53  0.0000000  0 10G03G06G09G14G15G18G19G21G22G27      
  21949151.094 6    278774.837 6    236614.02547  21949143.62947
  22026520.430 7    508826.870 7    405274.33748  22026512.02748
  22867932.000 6  -1574156.713 6  -1211074.74047  22867925.29747
  21754694.531 7  -2748590.614 7  -2102701.45048  21754686.59848
  23821921.367 5   3005885.127 5   2328551.12447  23821914.60547
  20836522.555 7    625783.184 7    494714.96148  20836512.21948
  23221753.828 6  -2010944.122 6  -1536781.85647  23221742.84847
  21404051.125 7   1643750.073 7   1280259.47148  21404041.72748
  20728702.000 7   -817539.429 7   -615808.84548  20728690.49248
  23729774.914 6    142706.111 6    116210.82446  23729768.32846
 11  3 31 16 53 15.0000000  0 10G03G06G09G14G15G18G19G21G22G27      
  21950927.672 6    288107.847 6    243886.48248  21950919.62148
  22028883.656 7    521249.711 7    414954.45048  22028876.13348
  22863825.883 6  -1595735.329 6  -1227889.23047  22863818.24247
  21746880.750 7  -2789654.105 7  -2134698.95948  21746872.23048
  23831403.430 5   3055716.773 5   2367380.91646  23831397.25446
  20838769.945 7    637595.669 7    503919.48348  20838760.02048
  23216340.961 6  -2039390.706 6  -1558948.01147  23216330.21547
  21409672.250 7   1673288.538 7   1303276.41748  21409662.79348
  20726612.914 7   -828517.316 7   -624363.05048  20726601.17248
  23730923.656 6    148744.517 6    120916.06647  23730916.95347
 11  3 31 16 53 30.0000000  0 10G03G06G09G14G15G18G19G21G22G27      
  21952730.406 6    297583.944 6    251270.43047  21952722.94147
  22031272.898 7    533802.011 7    424735.44448  22031264.67248
  22859745.852 6  -1617176.115 6  -1244596.31547  22859738.32847
  21739083.930 6  -2830623.971 6  -2166623.52148  21739075.70348
  23840894.891 5   3105593.021 5   2406245.44746  23840888.83246
  20841027.672 7    649460.800 7    513165.02448  20841017.62948
  23210950.508 6  -2067718.103 6  -1581021.30947  23210939.82047
  21415312.016 7   1702924.897 7   1326369.66248  21415302.85248
  20724535.836 7   -839433.004 7   -632868.77948  20724524.38748
  23732096.766 6    154910.309 6    125720.58147  23732091.29347
 11  3 31 16 53 45.0000000  0 10G03G06G09G14G15G18G19G21G22G27      
  21954561.109 6    307202.228 6    258765.17647  21954553.11747
  22033685.625 7    546482.993 7    434616.71848  22033677.69148
  22855691.500 6  -1638479.496 6  -1261196.34747  22855684.79747
  21731305.398 7  -2871501.054 7  -2198475.77048  21731296.70348
  23850394.273 5   3155512.814 5   2445143.90247  23850387.68847
  20843295.414 7    661377.871 7    522451.03548  20843285.48848
  23205582.094 6  -2095926.687 6  -1603002.02347  23205571.99247
  21420969.703 7   1732658.391 7   1349538.59148  21420960.59848
  20722470.180 7   -850287.135 7   -641326.54549  20722458.67249
  23733294.633 6    161202.884 6    130623.88247  23733288.16447
 11  3 31 16 54  0.0000000  0 10G03G06G09G14G15G18G19G21G22G27      
  21956418.320 7    316963.090 7    266371.02647  21956410.73847
  22036123.727 6    559293.115 6    444598.59848  22036116.02748
  22851663.852 6  -1659644.600 6  -1277688.61247  22851657.26647
  21723544.516 7  -2912284.172 7  -2230254.80648  21723536.81648
  23859902.445 5   3205476.482 5   2484076.58547  23859896.21147
  20845573.422 7    673347.277 7    531777.83648  20845563.78948
  23200237.172 6  -2124015.733 6  -1624889.59547  23200227.01247
  21426646.742 7   1762489.334 7   1372783.44848  21426637.69548
  20720416.531 7   -861079.229 7   -649735.97049  20720405.14149
  23734516.266 6    167622.728 6    135626.32646  23734509.68046
 11  3 31 16 54 15.0000000  0 10G03G06G09G14G15G18G19G21G22G27      
  21958302.977 6    326865.738 6    274087.36047  21958294.69147
  22038585.773 7    572231.668 7    454680.56848  22038577.60548
  22847662.602 6  -1680671.554 6  -1294073.22547  22847655.43047
  21715801.305 7  -2952973.741 7  -2261960.94348  21715793.19548
  23869417.891 5   3255483.210 5   2523042.78047  23869412.30147
  20847860.828 7    685368.349 7    541144.89248  20847851.07848
  23194914.203 6  -2151985.542 6  -1646684.23847  23194904.27747
  21432341.734 7   1792417.173 7   1396103.81648  21432332.62948
  20718374.430 7   -871809.847 7   -658097.49749  20718363.15649
  23735761.586 6    174169.198 6    140727.46146  23735755.41046
 11  3 31 16 54 30.0000000  0 10G03G06G09G14G15G18G19G21G22G27      
  21960214.633 6    336910.284 6    281914.25147  21960205.82047
  22041072.070 7    585298.653 7    464862.61148  22041063.84448
  22843687.625 6  -1701560.087 6  -1310349.99547  22843680.86347
  21708076.430 7  -2993569.324 7  -2293593.85548  21708067.79348
  23878942.008 5   3305532.711 5   2562042.32647  23878936.00847
  20850158.172 7    697441.361 7    550552.42348  20850148.36348
  23189614.383 6  -2179835.619 6  -1668385.58947  23189604.45747
  21438055.547 7   1822442.104 7   1419499.83148  21438046.44148
  20716344.180 7   -882478.920 7   -666411.06448  20716332.61348
  23737031.992 6    180842.585 6    145927.48947  23737025.28947
 11  3 31 16 54 45.0000000  0 10G03G06G09G14G15G18G19G21G22G27      
  21962152.953 6    347096.844 6    289851.82047  21962144.55147
  22043583.438 7    598494.195 7    475144.84048  22043575.09448
  22839739.273 6  -1722309.462 6  -1326518.32947  22839732.21947
  21700369.234 7  -3034070.286 7  -2325153.03848  21700361.18448
  23888474.758 5   3355625.062 5   2601075.26147  23888468.75847
  20852465.492 7    709566.521 7    560000.58548  20852455.68448
  23184337.867 6  -2207565.516 6  -1689993.30047  23184328.05947
  21443787.445 7   1852564.386 7   1442971.71248  21443777.93048
  20714326.180 7   -893086.205 7   -674676.48348  20714314.20348
  23738325.578 6    187643.096 6    151226.57447  23738319.22747
 11  3 31 16 55  0.0000000  0 10G03G06G09G14G15G18G19G21G22G27      
  21964118.539 6    357425.180 6    297899.85347  21964109.90247
  22046118.883 7    611817.984 7    485526.98148  22046110.59848
  22835817.266 6  -1742919.539 6  -1342578.12547  22835810.56347
  21692680.227 6  -3074476.767 6  -2356638.59048  21692671.88348
  23898014.703 5   3405759.854 5   2640141.27647  23898009.05547
  20854782.922 7    721743.466 7    569489.09848  20854772.99648
  23179083.695 6  -2235175.250 6  -1711507.37647  23179073.53547
  21449538.188 7   1882783.824 7   1466519.29548  21449528.90648
  20712319.063 7   -903631.829 7   -682893.85748  20712307.08648
  23739644.031 6    194570.634 6    156624.63946  23739638.14846
 11  3 31 16 55 15.0000000  0 10G03G06G09G14G15G18G19G21G22G27      
  21966110.109 6    367894.579 6    306057.80547  21966102.29347
  22048678.195 7    625269.588 7    496008.73148  22048670.61348
  22831922.125 6  -1763390.418 6  -1358529.44647  22831914.89547
  21685009.016 6  -3114788.788 6  -2388050.53348  21685000.55548
  23907563.164 5   3455936.427 5   2679239.83047  23907557.34047
  20857109.453 7    733971.934 7    579017.77048  20857099.87948
  23173853.234 6  -2262664.852 6  -1732927.84147  23173842.72347
  21455307.234 7   1913099.956 7   1490142.22848  21455298.07048
  20710323.984 7   -914115.969 7   -691063.32249  20710312.47749
  23740985.836 6    201624.921 6    162121.46347  23740979.83647
 11  3 31 16 55 30.0000000  0 10G03G06G09G14G15G18G19G21G22G27      
  21968129.570 6    378505.286 6    314325.87247  21968121.52047
  22051262.781 7    638848.871 7    506589.96948  22051254.37948
  22828052.734 6  -1783721.661 6  -1374371.96647  22828045.73847
  21677356.188 7  -3155005.977 7  -2419388.58548  21677347.84448
  23917120.102 6   3506154.660 6   2718370.85247  23917113.10547
  20859446.836 7    746251.956 7    588586.61048  20859436.91048
  23168644.609 6  -2290033.922 6  -1754254.39047  23168634.33247
  21461094.039 7   1943512.838 7   1513840.54448  21461085.57848
  20708340.820 7   -924538.676 7   -699184.90848  20708328.90248
  23742352.805 6    208806.020 6    167717.12047  23742346.74647
 11  3 31 16 55 45.0000000  0 10G03G06G09G14G15G18G19G21G22G27      
  21970175.969 6    389257.202 6    322703.97247  21970167.15647
  22053870.734 6    652555.664 6    517270.56548  22053862.91848
  22824210.266 6  -1803912.968 6  -1390105.44547  22824203.62147
  21669720.914 6  -3195128.227 6  -2450652.65448  21669712.62948
  23926683.367 5   3556414.188 5   2757534.04947  23926678.12947
  20861793.203 7    758583.497 7    598195.59448  20861783.57048
  23163459.594 6  -2317282.260 6  -1775486.85247  23163449.25847
  21466900.117 7   1974022.519 7   1537614.28848  21466891.12948
  20706369.039 7   -934900.127 7   -707258.76849  20706357.29749
  23743743.797 6    216113.926 6    173411.59647  23743737.56347
 11  3 31 16 56  0.0000000  0 10G03G06G09G14G15G18G19G21G22G27      
  21972248.594 6    400150.068 6    331191.90247  21972240.66047
  22056503.797 7    666390.041 7    528050.58048  22056495.45348
  22820395.516 6  -1823963.903 6  -1405729.55547  22820388.52047
  21662104.219 6  -3235155.169 6  -2481842.46448  21662095.87548
  23936255.750 6   3606714.835 6   2796729.29447  23936249.69147
  20864149.516 7    770966.551 7    607844.71148  20864139.88348
  23158297.617 6  -2344409.562 6  -1796624.99947  23158286.93047
  21472724.305 7   2004628.991 7   1561463.45248  21472715.19948
  20704409.023 7   -945200.064 7   -715284.69749  20704397.04749
  23745158.305 6    223548.693 6    179204.88947  23745152.30547
 11  3 31 16 56 15.0000000  0 10G03G06G09G14G15G18G19G21G22G27      
  21974347.758 6    411183.200 6    339789.12547  21974340.11747
  22059160.211 6    680351.222 6    538929.40148  22059152.45348
  22816605.961 6  -1843874.615 6  -1421244.38647  22816599.25847
  21654505.313 6  -3275087.066 6  -2512958.20948  21654496.79348
  23945835.328 5   3657055.673 5   2835955.84647  23945829.56347
  20866515.719 7    783400.546 7    617533.53048  20866506.02748
  23153158.023 6  -2371416.058 6  -1817669.02447  23153148.03947
  21478566.938 7   2035331.661 7   1585387.58148  21478557.89148
  20702460.297 7   -955439.092 7   -723263.16449  20702448.84849
  23746597.969 6    231109.862 6    185096.69647  23746591.26647
 11  3 31 16 56 30.0000000  0 10G03G06G09G14G15G18G19G21G22G27      
  21976474.250 6    422357.448 6    348496.31047  21976466.49247
  22061841.539 6    694440.082 6    549907.70248  22061833.25448
  22812844.352 6  -1863643.984 6  -1436649.07747  22812836.88747
  21646924.906 6  -3314922.670 6  -2543998.92048  21646916.50448
  23955422.688 5   3707437.397 5   2875214.26447  23955416.80547
  20868891.461 7    795886.509 7    627262.83648  20868881.94548
  23148042.414 6  -2398300.572 6  -1838617.98747  23148031.90247
  21484427.977 7   2066131.432 7   1609387.36348  21484418.93048
  20700523.859 7   -965616.198 7   -731193.38049  20700512.05949
  23748060.273 6    238798.362 6    191087.70547  23748054.03947
 11  3 31 16 56 45.0000000  0 10G03G06G09G14G15G18G19G21G22G27      
  21978627.336 6    433672.114 6    357312.91647  21978619.22747
  22064546.344 6    708655.930 6    560984.96948  22064538.64548
  22809109.445 6  -1883272.197 6  -1451943.79947  22809102.44947
  21639362.797 6  -3354662.378 6  -2574964.91148  21639354.39548
  23965017.227 5   3757859.220 5   2914503.91047  23965011.52047
  20871277.695 7    808423.828 7    637032.16348  20871267.65248
  23142949.883 6  -2425063.545 6  -1859472.25447  23142939.02047
  21490307.570 7   2097027.610 7   1633462.28248  21490298.52348
  20698599.125 7   -975731.943 7   -739075.78849  20698587.32449
  23749548.023 6    246613.710 6    197177.57847  23749541.14547
 11  3 31 16 57  0.0000000  0 10G03G06G09G14G15G18G19G21G22G27      
  21980807.594 6    445127.048 6    366238.81947  21980799.66047
  22067275.969 6    722998.437 6    572160.91548  22067267.44948
  22805401.172 6  -1902759.047 6  -1467128.36947  22805394.17647
  21631818.711 6  -3394306.006 6  -2605856.03548  21631810.36748
  23974620.492 5   3808320.783 5   2953824.52847  23974614.14147
  20873673.125 7    821012.412 7    646841.44748  20873663.31648
  23137880.117 6  -2451704.692 6  -1880231.59147  23137869.72347
  21496205.078 7   2128020.205 7   1657612.31848  21496196.26648
  20696685.695 7   -985786.409 7   -746910.43048  20696673.95348
  23751058.820 6    254555.818 6    203366.22047  23751052.29347
 11  3 31 16 57 15.0000000  0 10G03G06G09G14G15G18G19G21G22G27      
  21983014.250 6    456722.266 6    375274.03648  21983005.90648
  22070029.250 6    737467.779 6    583435.71348  22070021.31648
  22801719.219 6  -1922103.904 6  -1482202.28147  22801712.57447
  21624293.508 6  -3433852.932 6  -2636671.80348  21624284.75448
  23984230.742 5   3858822.095 5   2993176.10847  23984224.68447
  20876078.469 7    833652.459 7    656690.81848  20876068.42648
  23132833.359 6  -2478223.453 6  -1900895.55647  23132822.67247
  21502121.258 7   2159109.482 7   1681837.69548  21502112.56348
  20694784.016 7   -995779.365 7   -754697.15649  20694772.27349
  23752594.859 6    262625.019 6    209653.88747  23752588.44947
 11  3 31 16 57 30.0000000  0 10G03G06G09G14G15G18G19G21G22G27      
  21985247.422 6    468457.333 6    384418.22348  21985239.48848
  22072807.016 6    752063.602 6    594809.04448  22072798.84848
  22798065.359 6  -1941306.766 6  -1497165.54347  22798058.24647
  21616785.898 7  -3473303.146 7  -2667412.21748  21616777.08648
  23993848.438 5   3909362.573 5   3032558.21347  23993842.32047
  20878493.203 7    846343.645 7    666580.04248  20878483.74648
  23127810.422 6  -2504619.921 6  -1921464.23447  23127799.96947
  21508055.867 7   2190295.224 7   1706138.23848  21508046.93848
  20692894.086 7  -1005711.065 7   -762436.14748  20692882.52048
  23754154.305 6    270821.021 6    216040.36047  23754148.30547
 11  3 31 16 57 45.0000000  0 10G03G06G09G14G15G18G19G21G22G27      
  21987506.906 6    480331.834 6    393671.05547  21987498.73847
  22075608.531 7    766785.458 7    606280.59948  22075600.24648
  22794438.461 6  -1960367.721 6  -1512018.25047  22794431.23047
  21609297.289 6  -3512656.877 6  -2698077.44348  21609288.65248
  24003473.320 5   3959941.704 5   3071970.44447  24003467.32047
  20880917.977 7    859085.613 7    676508.83848  20880908.28548
  23122811.117 6  -2530894.269 6  -1941937.74447  23122799.96147
  21514008.602 7   2221576.898 7   1730513.53148  21513999.20348
  20691015.703 7  -1015581.849 7   -770127.67649  20691004.31349
  23755738.109 6    279143.478 6    222525.38047  23755731.40647
 11  3 31 16 58  0.0000000  0 10G03G06G09G14G15G18G19G21G22G27      
  21989793.578 6    492346.275 6    403032.93648  21989785.11748
  22078434.289 6    781633.663 6    617850.61348  22078425.53548
  22790837.961 6  -1979285.807 6  -1526759.62747  22790830.96547
  21601826.914 6  -3551913.302 6  -2728666.83848  21601818.68848
  24013105.367 5   4010559.779 5   3111413.01847  24013099.66047
  20883352.313 7    871879.041 7    686477.73748  20883342.97348
  23117834.109 6  -2557045.584 6  -1962315.40047  23117823.53947
  21519979.813 7   2252955.379 7   1754964.26448  21519970.88348
  20689148.781 7  -1025391.052 7   -777771.21049  20689137.56649
  23757345.977 6    287593.035 6    229109.43147  23757339.74247
 11  3 31 16 58 15.0000000  0 10G03G06G09G14G15G18G19G21G22G27      
  21992105.914 6    504500.007 6    412503.36747  21992097.68847
  22081282.625 6    796607.859 6    629518.79448  22081275.04348
  22787265.398 6  -1998061.016 6  -1541389.66147  22787258.63747
  21594375.320 6  -3591072.545 6  -2759180.52748  21594366.50848
  24022745.414 5   4061216.157 5   3150885.43447  24022739.18047
  20885796.625 7    884723.506 7    696486.39448  20885786.87548
  23112880.859 6  -2583074.003 6  -1982597.27947  23112870.58247
  21525969.227 7   2284429.853 7   1779489.79348  21525960.18048
  20687294.195 7  -1035139.086 7   -785367.08048  20687282.21948
  23758977.469 6    296169.293 6    235792.22246  23758971.64546
 11  3 31 16 58 30.0000000  0 10G03G06G09G14G15G18G19G21G22G27      
  21994444.844 6    516793.184 6    422082.43847  21994437.26247
  22084156.859 7    811707.984 7    641285.10848  22084148.57448
  22783719.992 6  -2016692.838 6  -1555907.96847  22783712.99647
  21586941.898 6  -3630134.021 6  -2789618.01748  21586933.73048
  24032392.234 5   4111910.626 5   3190387.52747  24032386.46947
  20888250.867 7    897619.359 7    706535.10948  20888241.29348
  23107951.672 6  -2608979.081 6  -2002783.06447  23107940.92647
  21531976.828 7   2316000.567 7   1804090.31448  21531967.66448
  20685450.656 7  -1044825.736 7   -792915.12649  20685439.09049
  23760634.141 6    304872.406 6    242573.85747  23760627.78947
 11  3 31 16 58 45.0000000  0 10G03G06G09G14G15G18G19G21G22G27      
  21996810.891 6    529225.496 6    431769.93647  21996803.01647
  22087054.055 6    826933.494 6    653149.10948  22087046.29748
  22780202.008 6  -2035181.283 6  -1570314.54547  22780194.95347
  21579527.336 6  -3669097.922 6  -2819979.48348  21579518.69948
  24042046.180 5   4162642.717 5   3229918.94747  24042040.00447
  20890714.281 7    910566.010 7    716623.38748  20890704.59048
  23103045.344 6  -2634760.873 6  -2022872.76747  23103035.24247
  21538002.992 7   2347667.180 7   1828765.55548  21537993.88748
  20683619.172 7  -1054451.260 7   -800415.53149  20683607.13749
  23762314.664 6    313702.221 6    249454.21547  23762307.90247
 11  3 31 16 59  0.0000000  0 10G03G06G09G14G15G18G19G21G22G27      
  21999203.594 6    541796.659 6    441565.62447  21999195.13347
  22089975.414 7    842284.578 7    665110.97348  22089967.12948
  22776710.891 6  -2053526.022 6  -1584609.13847  22776704.12947
  21572131.758 6  -3707963.882 6  -2850264.62948  21572123.12148
  24051707.750 5   4213412.296 5   3269479.56747  24051701.92647
  20893187.852 7    923563.465 7    726751.26748  20893178.21948
  23098163.242 6  -2660419.020 6  -2042866.13147  23098152.43847
  21544047.102 7   2379429.817 7   1853515.62648  21544038.05548
  20681799.266 7  -1064015.537 7   -807868.22249  20681787.64149
  23764018.766 6    322658.804 6    256433.33847  23764012.47347
 11  3 31 16 59 15.0000000  0 10G03G06G09G14G15G18G19G21G22G27      
  22001621.195 6    554506.432 6    451469.33348  22001613.37948
  22092920.250 7    857760.886 7    677170.40848  22092912.55148
  22773247.453 6  -2071726.877 6  -1598791.62047  22773240.39847
  21564754.266 6  -3746731.695 6  -2880473.29348  21564745.57048
  24061376.047 5   4264219.025 5   3309069.12947  24061370.22347
  20895670.742 7    936611.528 7    736918.57348  20895661.05148
  23093303.789 6  -2685953.393 6  -2062763.04847  23093293.04347
  21550109.523 7   2411288.376 7   1878340.44148  21550100.35948
  20679990.617 7  -1073518.883 7   -815273.43549  20679978.93449
  23765746.828 6    331742.065 6    263511.19747  23765741.18047
 11  3 31 16 59 30.0000000  0 10G03G06G09G14G15G18G19G21G22G27      
  22004066.953 6    567354.695 6    461480.94048  22004059.07848
  22095889.672 6    873362.218 6    689327.27448  22095881.09448
  22769811.648 6  -2089783.480 6  -1612861.68047  22769804.30147
  21557395.430 7  -3785401.171 7  -2910605.34448  21557386.91048
  24071051.125 5   4315062.440 5   3348687.28647  24071044.77347
  20898163.656 7    949710.361 7    747125.45048  20898153.78948
  23088468.570 6  -2711363.827 6  -2082563.38747  23088458.11747
  21556190.289 7   2443242.684 7   1903239.87048  21556181.18448
  20678193.883 7  -1082961.150 7   -822631.04248  20678181.96548
  23767499.383 6    340951.873 6    270687.64947  23767493.44147
 11  3 31 16 59 45.0000000  0 10G03G06G09G14G15G18G19G21G22G27      
  22006538.391 6    580341.026 6    471600.14548  22006529.98848
  22098881.883 6    889088.313 6    701581.34648  22098873.59848
  22766402.484 6  -2107695.668 6  -1626819.23347  22766396.07447
  21550055.547 6  -3823972.204 6  -2940660.66848  21550047.49648
  24080732.867 5   4365942.219 5   3388333.78247  24080727.27747
  20900665.602 7    962859.868 7    757371.80048  20900655.91048
  23083656.781 6  -2736650.196 6  -2102267.04247  23083645.97747
  21562289.336 7   2475292.570 7   1928213.76348  21562280.17248
  20676408.773 7  -1092342.540 7   -829941.22349  20676396.97349
  23769276.164 6    350288.242 6    277962.72647  23769270.28147
 11  3 31 17  0  0.0000000  0 10G03G06G09G14G15G18G19G21G22G27      
  22009036.242 6    593465.877 6    481827.28447  22009027.89847
  22101898.539 6    904939.390 6    713932.81348  22101890.60548
  22763021.719 6  -2125462.824 6  -1640663.76247  22763014.84047
  21542734.891 6  -3862444.205 6  -2970638.83548  21542726.07848
  24090422.156 5   4416858.487 5   3428008.70447  24090416.33247
  20903177.711 7    976060.345 7    767657.87348  20903167.78548
  23078868.742 5  -2761811.764 5  -2121873.47147  23078858.05547
  21568406.625 7   2507438.512 7   1953262.51248  21568397.46148
  20674635.000 7  -1101662.640 7   -837203.64649  20674623.43449
  23771077.266 6    359751.440 6    285336.64346  23771070.68046
 11  3 31 17  0 15.0000000  0 10G03G06G09G14G15G18G19G21G22G27      
  22011559.172 6    606728.581 6    492161.82848  22011551.94148
  22104938.320 7    920914.800 7    726381.16648  22104930.44548
  22759668.078 6  -2143085.201 6  -1654395.46347  22759661.60947
  21535432.648 7  -3900817.310 7  -3000539.94448  21535424.30548
  24100118.305 5   4467810.586 5   3467711.54547  24100112.30547
  20905699.266 7    989311.363 7    777983.33648  20905689.92648
  23074104.234 6  -2786848.917 6  -2141382.93547  23074093.84047
  21574541.883 7   2539679.894 7   1978385.63248  21574532.71948
  20672873.109 7  -1110921.980 7   -844418.72549  20672861.54349
  23772902.133 6    369341.143 6    292809.12347  23772895.89847
 11  3 31 17  0 30.0000000  0 10G03G06G09G14G15G18G19G21G22G27      
  22014109.570 6    620128.749 6    502603.49347  22014100.99247
  22108002.281 6    937014.393 6    738926.28448  22107994.17248
  22756342.500 6  -2160562.454 6  -1668014.09547  22756335.68047
  21528149.398 7  -3939091.458 7  -3030363.93348  21528140.70348
  24109820.695 5   4518798.078 5   3507441.95947  24109815.28147
  20908230.461 7   1002612.818 7    788348.08948  20908221.29748
  23069363.156 6  -2811761.441 6  -2160795.29847  23069352.99647
  21580695.492 7   2572016.657 7   2003583.07548  21580686.50448
  20671122.828 7  -1120120.457 7   -851586.37549  20671111.26249
  23774751.102 6    379057.165 6    300380.02047  23774744.75047
 11  3 31 17  0 45.0000000  0 10G03G06G09G14G15G18G19G21G22G27      
  22016685.695 6    633666.370 6    513152.27447  22016677.46947
  22111089.133 7    953237.979 7    751568.01148  22111081.08248
  22753044.281 5  -2177894.125 5  -1681519.29047  22753037.40247
  21520884.977 6  -3977266.281 6  -3060110.53548  21520875.81348
  24119529.992 5   4569820.762 5   3547199.79447  24119524.46147
  20910771.602 7   1015964.628 7    798752.08648  20910761.50048
  23064646.523 5  -2836549.083 5  -2180110.33847  23064636.24647
  21586866.969 7   2604448.846 7   2028854.87348  21586857.86348
  20669383.859 7  -1129258.059 7   -858706.58849  20669371.88349
  23776623.875 6    388899.621 6    308049.45446  23776617.58246
 11  3 31 17  1  0.0000000  0 10G03G06G09G14G15G18G19G21G22G27      
  22019287.656 6    647341.903 6    523808.50047  22019279.95747
  22114200.234 7    969586.155 7    764306.82448  22114192.82848
  22749773.805 6  -2195079.298 6  -1694910.31347  22749767.16047
  21513639.938 7  -4015340.787 7  -3089778.96648  21513630.94948
  24129246.203 5   4620879.252 5   3586985.55147  24129240.32047
  20913322.008 7   1029367.648 7    809195.97848  20913312.25848
  23059953.625 6  -2861210.859 6  -2199327.31547  23059942.99647
  21593057.156 7   2636976.959 7   2054201.40648  21593048.10948
  20667656.711 7  -1138334.144 7   -865778.86749  20667645.02749
  23778520.859 6    398869.118 6    315817.87447  23778514.85947
 11  3 31 17  1 15.0000000  0 10G03G06G09G14G15G18G19G21G22G27      
  22021916.359 6    661154.423 6    534571.47947  22021908.13347
  22117334.766 7    986058.007 7    777142.00948  22117326.89148
  22746531.531 6  -2212118.578 6  -1708187.67447  22746524.59447
  21506413.695 7  -4053315.704 7  -3119369.79248  21506404.53148
  24138968.766 5   4671972.113 5   3626798.06847  24138963.46947
  20915882.305 7   1042820.830 7    819678.97048  20915872.08648
  23055283.547 6  -2885747.398 6  -2218446.68947  23055273.79747
  21599265.117 7   2669600.180 7   2079622.06148  21599255.89548
  20665941.281 7  -1147349.421 7   -872803.76249  20665929.48049
  23780441.805 6    408964.938 6    323684.73746  23780436.33246
 11  3 31 17  1 30.0000000  0 10G03G06G09G14G15G18G19G21G22G27      
  22024570.656 6    675103.763 6    545441.07347  22024562.72347
  22120492.359 6   1002653.002 6    790073.15148  22120484.89548
  22743316.523 6  -2229011.772 6  -1721351.18847  22743309.93847
  21499206.133 7  -4091190.902 7  -3148882.92048  21499197.32048
  24148698.586 5   4723099.279 5   3666637.32747  24148692.93847
  20918451.266 7   1056324.138 7    830201.01248  20918441.69148
  23050639.086 6  -2910158.637 6  -2237468.43447  23050628.34047
  21605491.250 7   2702318.260 7   2105116.63048  21605481.73448
  20664237.055 7  -1156304.096 7   -879781.43849  20664225.78149
  23782387.414 6    419186.906 6    331649.88047  23782381.18047
 11  3 31 17  1 45.0000000  0 10G03G06G09G14G15G18G19G21G22G27      
  22027251.523 6    689190.298 6    556417.57847  22027243.64847
  22123674.109 7   1019371.947 7    803100.87948  22123666.29348
  22740130.352 6  -2245757.900 6  -1734400.11347  22740123.35547
  21492017.438 7  -4128965.514 7  -3178317.67448  21492008.97748
  24158434.523 4   4774260.971 4   3706503.46546  24158428.28946
  20921030.945 7   1069878.231 7    840762.62548  20921021.25448
  23046018.000 6  -2934443.712 6  -2256391.86747  23046007.84047
  21611735.734 7   2735131.821 7   2130685.60248  21611726.27748
  20662544.625 7  -1165197.580 7   -886711.43049  20662532.88349
  23784356.492 6    429535.580 6    339713.77346  23784350.72746
 11  3 31 17  2  0.0000000  0 10G03G06G09G14G15G18G19G21G22G27      
  22029957.969 6    703412.852 6    567500.05947  22029949.97747
  22126879.039 7   1036213.422 7    816224.08748  22126871.22348
  22736971.477 6  -2262357.740 6  -1747335.03847  22736964.77347
  21484848.406 7  -4166640.290 7  -3207674.61948  21484839.65248
  24168175.922 5   4825455.914 5   3746395.54047  24168170.80147
  20923619.711 7   1083481.933 7    851362.90148  20923609.55148
  23041420.289 5  -2958603.248 5  -2275217.48047  23041409.83647
  21617997.609 7   2768040.084 7   2156328.35748  21617988.79748
  20660864.094 7  -1174030.810 7   -893594.47049  20660851.88349
  23786349.320 6    440010.052 6    347875.68047  23786343.49647
 11  3 31 17  2 15.0000000  0 10G03G06G09G14G15G18G19G21G22G27      
  22032691.063 6    717772.538 6    578689.41247  22032682.30947
  22130107.625 6   1053178.647 6    829443.71848  22130099.45748
  22733840.563 6  -2278809.681 6  -1760154.72747  22733833.91847
  21477698.281 7  -4204213.922 7  -3236952.76148  21477689.58648
  24177924.789 5   4876685.083 5   3786314.28546  24177919.60946
  20926218.242 7   1097136.658 7    862002.93048  20926208.08248
  23036847.234 6  -2982635.881 6  -2293944.20147  23036836.66447
  21624278.367 7   2801044.043 7   2182045.69348  21624269.20348
  20659194.773 7  -1182802.481 7   -900429.53949  20659183.09049
  23788366.766 6    450611.562 6    356136.57146  23788361.46946
 11  3 31 17  2 30.0000000  0 10G03G06G09G14G15G18G19G21G22G27      
  22035449.211 6    732267.785 6    589984.38847  22035440.80947
  22133359.359 6   1070266.132 6    842758.62048  22133351.30948
  22730737.617 6  -2295114.815 6  -1772860.02447  22730730.97347
  21470567.336 7  -4241687.172 7  -3266152.67948  21470558.34848
  24187680.094 5   4927946.931 5   3826258.47246  24187674.09446
  20928825.984 7   1110841.210 7    872681.78748  20928816.35248
  23032297.875 5  -3006542.677 5  -2312572.87347  23032287.01247
  21630576.680 7   2834142.437 7   2207836.60448  21630567.28148
  20657537.031 7  -1191513.998 7   -907217.74449  20657525.23049
  23790408.906 6    461338.765 6    364495.43146  23790402.61346
 11  3 31 17  2 45.0000000  0 10G03G06G09G14G15G18G19G21G22G27      
  22038233.117 6    746899.021 6    601385.33147  22038225.35947
  22136634.375 6   1087476.070 6    856168.93648  22136626.09048
  22727663.133 6  -2311272.474 6  -1785450.40247  22727656.13747
  21463455.789 7  -4279059.394 7  -3295273.88348  21463446.80148
  24197440.414 5   4979241.493 5   3866228.17846  24197434.88346
  20931442.961 7   1124595.503 7    883399.40948  20931433.32848
  23027772.625 6  -3030323.022 6  -2331103.00847  23027761.82047
  21636893.289 7   2867335.392 7   2233701.20448  21636884.12548
  20655890.648 7  -1200164.842 7   -913958.66449  20655878.96549
  23792474.039 6    472191.932 6    372952.43047  23792468.03947
 11  3 31 17  3  0.0000000  0 10G03G06G09G14G15G18G19G21G22G27      
  22041043.719 6    761666.257 6    612892.25147  22041035.08247
  22139932.273 6   1104808.492 6    869674.69948  22139924.28148
  22724616.266 6  -2327282.124 6  -1797925.44647  22724609.56347
  21456362.906 7  -4316330.249 7  -3324316.09348  21456354.21148
  24207207.422 4   5030568.787 4   3906223.35646  24207202.41846
  20934069.891 7   1138400.014 7    894156.16048  20934060.37548
  23023271.125 6  -3053976.521 6  -2349534.31147  23023260.67247
  21643227.719 7   2900623.283 7   2259639.78448  21643218.73048
  20654256.172 7  -1208755.000 7   -920652.29549  20654244.54749
  23794563.055 6    483171.342 6    381507.79246  23794557.34846
 11  3 31 17  3 15.0000000  0 10G03G06G09G14G15G18G19G21G22G27      
  22043879.266 6    776569.092 6    624504.82447  22043870.74647
  22143253.844 6   1122263.167 6    883275.72548  22143245.67648
  22721598.242 5  -2343143.544 5  -1810284.99347  22721591.77347
  21449290.141 7  -4353499.600 7  -3353279.20148  21449281.32848
  24216981.680 4   5081928.647 4   3946243.94946  24216976.32446
  20936706.703 6   1152254.709 6    904952.01848  20936696.95348
  23018794.617 6  -3077503.018 6  -2367866.64447  23018783.93047
  21649579.945 7   2934006.014 7   2285652.25948  21649570.95748
  20652633.188 7  -1217284.343 7   -927298.54249  20652621.21149
  23796676.586 6    494276.966 6    390161.51546  23796670.29346
 11  3 31 17  3 30.0000000  0 10G03G06G09G14G15G18G19G21G22G27      
  22046740.734 6    791607.469 6    636223.01847  22046732.91847
  22146598.234 6   1139840.136 6    896972.03748  22146590.47748
  22718608.133 6  -2358856.442 6  -1822528.80947  22718601.60547
  21442236.055 7  -4390567.152 7  -3382162.99548  21442227.59448
  24226761.328 5   5133320.755 5   3986289.65946  24226756.03146
  20939352.758 7   1166159.562 7    915786.95448  20939342.89148
  23014341.688 6  -3100902.078 6  -2386099.67647  23014331.46947
  21655950.516 7   2967483.481 7   2311738.55648  21655941.99648
  20651021.516 7  -1225752.788 7   -933897.33949  20651010.06649
  23798814.438 6    505508.951 6    398913.70347  23798807.67647
 11  3 31 17  3 45.0000000  0 10G03G06G09G14G15G18G19G21G22G27      
  22049628.523 6    806780.757 6    648046.33347  22049620.12147
  22149966.602 6   1157538.466 6    910762.92648  22149958.19948
  22715646.594 6  -2374421.094 6  -1834657.10647  22715639.36347
  21435202.203 7  -4427533.293 7  -3410967.77548  21435193.15648
  24236547.438 5   5184744.306 5   4026359.84646  24236541.67246
  20942008.234 7   1180113.979 7    926660.51148  20941998.19148
  23009913.203 6  -3124174.138 6  -2404233.74447  23009902.63347
  21662338.969 7   3001055.117 7   2337898.24148  21662329.92248
  20649421.602 7  -1234160.943 7   -940449.15249  20649409.80149
  23800975.516 6    516866.499 6    407763.71847  23800969.28147
 11  3 31 17  4  0.0000000  0 10G03G06G09G14G15G18G19G21G22G27      
  22052541.531 6    822088.877 6    659974.72847  22052533.59847
  22153357.547 6   1175358.272 6    924648.46948  22153349.55548
  22712713.008 6  -2389837.061 6  -1846669.54647  22712706.01247
  21428186.656 7  -4464397.566 7  -3439693.16148  21428177.78548
  24246339.203 4   5236199.181 4   4066454.46446  24246333.20346
  20944673.023 7   1194118.158 7    937572.84448  20944663.44948
  23005508.719 6  -3147318.854 6  -2422268.58347  23005498.44147
  21668745.375 7   3034721.018 7   2364131.36348  21668736.56348
  20647833.227 7  -1242508.715 7   -946953.90949  20647821.36749
  23803160.719 6    528349.767 6    416711.70846  23803154.54346
 11  3 31 17  4 15.0000000  0 10G03G06G09G14G15G18G19G21G22G27      
  22055479.883 6    837531.869 6    672008.20747  22055472.35947
  22156771.867 6   1193299.502 6    938628.62448  22156763.81648
  22709807.773 6  -2405103.919 6  -1858565.80047  22709801.12947
  21421191.547 7  -4501159.561 7  -3468338.85048  21421182.61748
  24256135.672 5   5287685.233 5   4106573.37446  24256130.25846
  20947347.680 7   1208172.197 7    948524.03048  20947337.10948
  23001129.039 6  -3170335.819 6  -2440203.88947  23001118.58647
  21675169.695 7   3068481.312 7   2390438.04648  21675161.17648
  20646256.000 7  -1250795.830 7   -953411.40949  20646244.43449
  23805369.945 6    539958.965 6    425757.82546  23805363.88746
 11  3 31 17  4 30.0000000  0 10G03G06G09G14G15G18G19G21G22G27      
  22058444.531 6    853109.429 6    684146.54147  22058437.00847
  22160209.016 6   1211361.901 6    952703.19348  22160201.19948
  22706931.188 6  -2420221.389 6  -1870345.61347  22706924.48447
  21414215.188 7  -4537819.065 7  -3496904.69148  21414206.31648
  24265939.688 4   5339202.319 4   4146716.46446  24265933.98046
  20950031.156 7   1222276.043 7    959514.02548  20950021.17248
  22996773.633 6  -3193224.821 6  -2458039.47247  22996762.71147
  21681612.281 7   3102335.794 7   2416818.12348  21681603.64548
  20644690.813 7  -1259022.493 7   -959821.80349  20644678.83649
  23807603.258 6    551694.079 6    434902.06347  23807596.55547
 11  3 31 17  4 45.0000000  0 10G03G06G09G14G15G18G19G21G22G27      
  22061434.531 6    868821.281 6    696389.52848  22061426.59848
  22163668.805 6   1229545.201 6    966871.97748  22163660.98848
  22704083.086 6  -2435189.311 6  -1882008.96147  22704076.03147
  21407258.703 7  -4574376.055 7  -3525390.65048  21407249.83248
  24275748.859 5   5390749.904 5   4186883.33546  24275742.97746
  20952724.797 7   1236429.615 7    970542.77148  20952714.57848
  22992442.375 6  -3215985.730 6  -2475775.25547  22992431.39547
  21688072.461 7   3136284.346 7   2443271.49648  21688063.94148
  20643136.938 7  -1267188.524 7   -966184.94449  20643124.90249
  23809859.336 6    563554.949 6    444144.28646  23809853.57046
 11  3 31 17  5  0.0000000  0 10G03G06G09G14G15G18G19G21G22G27      
  22064449.750 6    884667.116 6    708736.91447  22064441.75847
  22167152.258 6   1247849.316 6    981134.89048  22167143.97348
  22701263.031 6  -2450007.595 6  -1893555.67947  22701255.97747
  21400321.875 7  -4610830.379 7  -3553796.59548  21400312.71148
  24285563.664 4   5442327.616 4   4227073.67646  24285558.30946
  20955427.656 7   1250632.815 7    981610.18948  20955418.08248
  22988135.492 6  -3238618.504 6  -2493411.18147  22988124.51247
  21694551.086 7   3170326.791 7   2469798.03948  21694541.33648
  20641594.391 7  -1275294.182 7   -972501.04849  20641582.59049
  23812141.344 6    575541.447 6    453484.42747  23812134.81647
 11  3 31 17  5 15.0000000  0 10G03G06G09G14G15G18G19G21G22G27      
  22067490.813 6    900646.972 6    721188.72547  22067482.93847
  22170658.039 6   1266274.152 6    995491.88148  22170650.34048
  22698471.914 6  -2464675.643 6  -1904985.32847  22698465.15247
  21393404.375 7  -4647181.461 7  -3582122.09648  21393395.91448
  24295384.734 5   5493935.538 5   4267287.54046  24295378.79346
  20958139.867 7   1264885.951 7    992716.51348  20958129.82448
  22983852.914 6  -3261122.507 6  -2510946.76847  22983842.34447
  21701046.164 6   3204463.524 6   2496398.05448  21701037.70348
  20640063.188 7  -1283339.110 7   -978769.82449  20640051.73849
  23814446.078 6    587653.862 6    462922.66146  23814439.72746
 11  3 31 17  5 30.0000000  0 10G03G06G09G14G15G18G19G21G22G27      
  22070557.094 6    916760.587 6    733744.77048  22070549.27748
  22174187.930 6   1284819.407 6   1009942.71248  22174179.41048
  22695709.516 6  -2479193.331 6  -1916297.82047  22695702.10947
  21386506.250 7  -4683429.266 7  -3610367.12848  21386497.84848
  24305211.156 4   5545573.359 4   4307524.73246  24305205.80146
  20960861.719 7   1279188.751 7   1003861.54148  20960851.67648
  22979595.102 6  -3283497.864 6  -2528382.11747  22979584.59047
  21707560.609 6   3238694.230 6   2523071.28448  21707551.56348
  20638543.852 7  -1291323.315 7   -984991.28448  20638532.28548
  23816774.766 6    599892.042 6    472458.89647  23816768.76647
 11  3 31 17  5 45.0000000  0 10G03G06G09G14G15G18G19G21G22G27      
  22073648.891 6    933007.847 6    746404.95447  22073640.89847
  22177739.578 6   1303485.013 6   1024487.31848  22177731.76248
  22692975.234 6  -2493560.241 6  -1927492.81147  22692967.88747
  21379628.102 7  -4719573.445 7  -3638531.40448  21379619.58248
  24315042.305 4   5597240.775 4   4347784.98546  24315037.06646
  20963592.766 7   1293541.252 7   1015045.29748  20963582.95748
  22975361.984 6  -3305744.240 6  -2545716.95947  22975351.12147
  21714092.305 7   3273018.795 7   2549817.66448  21714083.19948
  20637035.961 7  -1299246.852 7   -991165.46849  20637024.45349
  23819127.344 6    612255.973 6    482093.12147  23819121.34447
 11  3 31 17  6  0.0000000  0 10G03G06G09G14G15G18G19G21G22G27      
  22076765.609 6    949388.141 6    759168.79947  22076758.02747
  22181314.563 6   1322270.319 6   1039125.19448  22181306.21948
  22690269.430 6  -2507776.742 6  -1938570.60947  22690263.02047
  21372769.969 7  -4755614.296 7  -3666615.17148  21372761.27348
  24324880.539 4   5648937.100 4   4388067.74046  24324875.12546
  20966333.273 7   1307942.998 7   1026267.41848  20966323.58248
  22971153.086 6  -3327861.953 6  -2562951.54347  22971142.57447
  21720641.977 6   3307436.700 6   2576636.76448  21720632.87148
  20635539.844 7  -1307110.345 7   -997292.87049  20635528.45349
  23821504.008 6    624745.098 6    491824.89747  23821498.24247
 11  3 31 17  6 15.0000000  0 10G03G06G09G14G15G18G19G21G22G27      
  22079907.773 6    965901.725 6    772036.50047  22079900.25047
  22184911.406 6   1341175.496 6   1053856.48248  22184904.00048
  22687593.094 6  -2521842.124 6  -1949530.65347  22687586.15647
  21365931.438 7  -4791551.197 7  -3694617.93448  21365922.97748
  24334723.625 5   5700662.478 5   4428373.15546  24334718.15246
  20969083.672 7   1322394.492 7   1037528.30948  20969073.68848
  22966968.813 6  -3349850.188 6  -2580085.23647  22966957.53947
  21727208.992 7   3341948.407 7   2603528.96248  21727200.70748
  20634054.906 7  -1314913.271 7  -1003373.08049  20634043.16449
  23823904.906 6    637359.952 6    501654.63947  23823898.55547
 11  3 31 17  6 30.0000000  0 10G03G06G09G14G15G18G19G21G22G27      
  22083075.977 6    982547.671 6    785007.35347  22083068.27747
  22188531.734 6   1360199.860 6   1068680.63648  22188524.32848
  22684945.461 6  -2535756.652 6  -1960373.13547  22684938.05547
  21359112.406 7  -4827384.568 7  -3722540.02948  21359103.77048
