     2.11           OBSERVATION DATA    GPS(GPS)            RINEX VERSION / TYPE
cnvtToRINEX 2.11.0  Stan Thomas         02-Apr-11 18:25 UTC PGM / RUN BY / DATE 
----------------------------------------------------------- COMMENT             
BR2                                                         MARKER NAME         
BR2                                                         MARKER NUMBER       
Stan Thomas         University of Utah                      OBSERVER / AGENCY   
4644124574          NetRS               1.12                REC # / TYPE / VERS 
12532422            TRM41249.00                             ANT # / TYPE        
 -1911676.5772 -4567248.7241  4009469.9359                  APPROX POSITION XYZ 
        1.2210        0.0000        0.0000                  ANTENNA: DELTA H/E/N
     1     1     0                                          WAVELENGTH FACT L1/2
     4    C1    L1    L2    P2                              # / TYPES OF OBSERV 
  2011     4     1     0     0    0.0000000     GPS         TIME OF FIRST OBS   
  2011     4     1     3     6    0.0000000     GPS         TIME OF LAST OBS    
     0                                                      RCV CLOCK OFFS APPL 
    15                                                      LEAP SECONDS        
    17                                                      # OF SATELLITES     
   G03   745   745   745   745                              PRN / # OF OBS      
   G04    68    68    57    57                              PRN / # OF OBS      
   G05   469   466   457   457                              PRN / # OF OBS      
   G06   745   745   745   745                              PRN / # OF OBS      
   G07   745   745   745   745                              PRN / # OF OBS      
   G08   698   696   647   647                              PRN / # OF OBS      
   G10   745   745   745   745                              PRN / # OF OBS      
   G11    52    52    20    20                              PRN / # OF OBS      
   G13   745   745   745   745                              PRN / # OF OBS      
   G16   603   602   598   598                              PRN / # OF OBS      
   G19   618   610   587   587                              PRN / # OF OBS      
   G20   433   431   417   417                              PRN / # OF OBS      
   G23   745   745   745   745                              PRN / # OF OBS      
   G26   103   102    89    89                              PRN / # OF OBS      
   G28   401   401   401   401                              PRN / # OF OBS      
   G30   342   342   342   342                              PRN / # OF OBS      
   G31    33    30    33    33                              PRN / # OF OBS      
CARRIER PHASE MEASUREMENTS: PHASE SHIFTS REMOVED            COMMENT             
                                                            END OF HEADER       
 11  4  1  0  0  0.0000000  0 11G03G04G06G07G10G13G16G20G23G30G31   
  23729663.273 4  -4169454.039 4  -3014148.83946  23729656.98046
  25206575.141 5 -19941489.352 5 -19638760.88045  25206569.37545
  24103182.383 3  -7072867.622 3  -5351047.31946  24103175.85546
  23395159.445 6 -13877956.253 6 -10756982.47147  23395151.39547
  24063152.469 5  -7915599.886 5  -6131229.34046  24063143.65646
  21271523.594 7 -21804570.401 7 -19791508.94948  21271513.31648
  21026139.617 7 -21549795.521 7 -20416561.81048  21026128.98848
  21694866.328 7 -19936820.371 7 -18743219.72548  21694857.04748
  20135166.055 7 -29571918.200 7 -24262431.83749  20135153.55149
  21699009.969 7 -22087573.254 7 -20192985.55448  21699001.03948
  25536894.781 3  -2268287.214 3  -1733550.46045  25536886.08645
 11  4  1  0  0 15.0000000  0 11G03G04G06G07G10G13G16G20G23G30G31   
  23721338.734 5  -4213202.041 5  -3048238.13846  23721331.97346
  25210900.852 4 -19918748.497 4 -19621040.77845  25210897.25445
  24096902.852 4  -7105866.134 4  -5376760.38846  24096896.38346
  23387843.086 6 -13916403.315 6 -10786941.16747  23387835.38747
  24054874.492 5  -7959105.630 5  -6165129.85346  24054865.38746
  21265373.633 7 -21836887.584 7 -19816691.14948  21265363.76648
  21029029.461 7 -21534607.912 7 -20404727.30648  21029019.12548
  21702609.953 7 -19896127.665 7 -18711511.14948  21702600.84848
  20134076.930 8 -29577642.962 8 -24266892.68549  20134064.30949
  21705593.328 7 -22052977.126 7 -20166027.54948  21705584.92648
  25545217.016 3  -2224552.334 3  -1699471.35645  25545208.37945
 11  4  1  0  0 30.0000000  0 11G03G04G06G07G10G13G16G20G23G30G31   
  23713019.906 5  -4256915.679 5  -3082300.65146  23713013.73046
  25215246.820 5 -19895921.106 5 -19603253.25345  25215241.75845
  24090633.875 4  -7138807.974 4  -5402429.29746  24090627.99246
  23380534.703 6 -13954808.572 6 -10816867.27647  23380527.00447
  24046611.039 5  -8002528.413 5  -6198965.78045  24046601.64145
  21259233.445 7 -21869154.019 7 -19841833.80948  21259223.93048
  21031947.852 7 -21519272.357 7 -20392777.51648  21031937.28148
  21710371.836 7 -19855341.431 7 -18679729.69748  21710362.26248
  20133005.086 7 -29583274.880 7 -24271281.19149  20132992.81649
  21712200.578 7 -22018258.986 7 -20138974.46048  21712191.23848
  25553535.445 1  -2180835.636 1  -1665406.39645  25553527.45345
 11  4  1  0  0 45.0000000  0 11G03G04G06G07G10G13G16G20G23G30G31   
  23704708.508 5  -4300594.209 5  -3116335.82446  23704701.80546
  25219610.211 6 -19873007.478 6 -19585398.47946  25219601.80946
  24084376.680 5  -7171692.636 5  -5428053.67846  24084370.27046
  23373233.977 6 -13993171.857 6 -10846760.68247  23373226.39547
  24038363.266 5  -8045867.763 5  -6232736.68045  24038354.57045
  21253103.039 7 -21901369.304 7 -19866936.61348  21253093.05548
  21034894.281 7 -21503788.780 7 -20380712.39548  21034883.65248
  21718150.828 7 -19814461.784 7 -18647875.44548  21718142.13348
  20131950.805 8 -29588813.651 8 -24275597.11249  20131938.47749
  21718830.000 7 -21983418.977 7 -20111826.41548  21718821.36348
  25561852.234 2  -2137136.974 2  -1631355.56145  25561843.07045
 11  4  1  0  1  0.0000000  0 11G03G04G06G07G10G13G16G20G23G30G31   
  23696403.367 4  -4344237.257 4  -3150343.31846  23696396.31346
  25223986.211 6 -19850007.751 6 -19567476.58745  25223978.33645
  24078130.039 4  -7204519.667 4  -5453633.10246  24078122.98446
  23365942.008 6 -14031493.054 6 -10876621.31047  23365934.07447
  24030131.938 4  -8089123.093 4  -6266442.03745  24030123.77045
  21246982.328 7 -21933533.215 7 -19891999.38648  21246972.46148
  21037868.711 7 -21488157.234 7 -20368531.96948  21037858.55148
  21725947.539 7 -19773488.918 7 -18615948.56448  21725938.55148
  20130914.727 8 -29594259.026 8 -24279840.26049  20130902.45749
  21725482.883 7 -21948457.365 7 -20084583.61248  21725474.30548
  25570162.336 1  -2093456.256 1  -1597318.64345  25570155.86745
 11  4  1  0  1 15.0000000  0 11G03G04G06G07G10G13G16G20G23G30G31   
  23688105.195 5  -4387844.016 5  -3184322.56446  23688098.66846
  25228373.789 4 -19826921.739 4 -19549487.50745  25228371.71545
  24071893.766 3  -7237288.113 3  -5479166.90746  24071887.47346
  23358657.945 6 -14069771.557 6 -10906448.64847  23358650.18847
  24021916.898 4  -8132293.634 4  -6300081.40546  24021908.14546
  21240871.727 7 -21965645.038 7 -19917021.57648  21240861.27348
  21040871.617 7 -21472377.517 7 -20356236.08548  21040861.28148
  21733762.203 7 -19732422.708 7 -18583948.94848  21733753.09848
  20129896.602 7 -29599610.465 7 -24284010.20849  20129884.21549
  21732158.953 7 -21913374.066 7 -20057245.98848  21732150.14148
  25578471.51611 -85547052.96811 -66626095.39955  25578464.69555
 11  4  1  0  1 30.0000000  0 11G03G04G06G07G10G13G16G20G23G30G31   
  23679815.359 5  -4431407.527 5  -3218268.10146  23679808.36346
  25232786.078 5 -19803743.264 5 -19531426.41745  25232782.07045
  24065670.297 3  -7269991.282 3  -5504649.83346  24065664.12146
  23351383.484 6 -14108000.928 6 -10936237.71947  23351375.14147
  24013718.914 4  -8175372.610 4  -6333649.38145  24013710.10245
  21234772.008 7 -21997697.975 7 -19941997.86948  21234762.19948
  21043903.852 7 -21456443.258 7 -20343819.77548  21043893.28148
  21741595.969 7 -19691257.007 7 -18551871.79948  21741586.39548
  20128897.492 7 -29604861.279 7 -24288101.75249  20128885.04749
  21738859.383 7 -21878162.894 7 -20029808.72248  21738850.92248
  25586779.81311                 -66592080.92055  25586771.46955
 11  4  1  0  1 45.0000000  0 11G03G04G06G07G10G13G16G20G23G30G31   
  23671529.484 5  -4474948.196 5  -3252195.82946  23671522.78146
  25237212.898 5 -19780493.519 5 -19513309.71445  25237206.37145
  24059456.156 3  -7302649.525 3  -5530097.76546  24059449.51246
  23344113.938 6 -14146201.939 6 -10966004.68447  23344105.77047
  24005536.008 4  -8218380.578 4  -6367162.08246  24005527.02046
  21228679.664 7 -22029712.551 7 -19966944.27948  21228669.85548
  21046961.102 7 -21440375.612 7 -20331299.53048  21046951.05948
  21749444.313 7 -19650013.068 7 -18519733.68548  21749434.85548
  20127913.313 7 -29610032.160 7 -24292131.00249  20127901.21949
  21745580.703 7 -21842845.041 7 -20002288.32748  21745571.65648
  25595079.242 1 -85459781.094 1 -66558091.33345  25595072.42245
 11  4  1  0  2  0.0000000  0 11G03G04G06G07G10G13G16G20G23G30G31   
  23663252.797 5  -4518445.508 5  -3286089.79346  23663245.91846
  25241655.594 5 -19757152.705 5 -19495122.07445  25241647.89545
  24053253.188 4  -7335242.730 4  -5555494.99546  24053247.24646
  23336853.367 6 -14184354.502 6 -10995733.90047  23336845.19947
  23997368.813 5  -8261297.102 5  -6400603.46146  23997359.76646
  21222598.883 7 -22061668.586 7 -19991845.05848  21222589.19148
  21050048.047 7 -21424154.624 7 -20318659.80648  21050037.82848
  21757311.648 7 -19608671.036 7 -18487519.13848  21757302.36748
  20126948.273 7 -29615102.835 7 -24296082.17149  20126935.88749
  21752325.383 7 -21807400.655 7 -19974669.33148  21752316.86348
  25603377.570 1 -85416173.001 1 -66524111.02545  25603370.28145
 11  4  1  0  2 15.0000000  0 11G03G04G06G07G10G13G16G20G23G30G31   
  23654982.242 5  -4561905.007 5  -3319954.26246  23654975.65646
  25246112.219 5 -19733727.227 5 -19476868.45246  25246105.69146
  24047062.359 4  -7367776.327 4  -5580845.79746  24047056.35946
  23329601.469 6 -14222464.663 6 -11025430.07047  23329592.94947
  23989218.539 5  -8304128.005 5  -6433978.13046  23989209.60946
  21216528.242 7 -22093572.149 7 -20016704.96748  21216518.25848
  21053163.164 7 -21407786.645 7 -20305905.53448  21053152.53548
  21765196.039 7 -19567237.262 7 -18455233.10548  21765187.22748
  20126001.086 8 -29620079.264 8 -24299959.90949  20125988.87549
  21759092.750 7 -21771836.156 7 -19946956.73648  21759083.93848
  25611673.117 1 -85372583.253 1 -66490145.05145  25611665.12545
 11  4  1  0  2 30.0000000  0 11G03G04G06G07G10G13G16G20G23G30G31   
  23646720.820 5  -4605318.710 5  -3353783.08046  23646714.11746
  25250584.609 4 -19710209.660 4 -19458543.15245  25250580.83645
  24040884.055 4  -7400242.076 4  -5606143.73546  24040878.64146
  23322358.672 6 -14260524.766 6 -11055087.23947  23322350.73847
  23981085.055 3  -8346865.136 3  -6467279.74346  23981076.88746
  21210468.461 7 -22125415.177 7 -20041517.69848  21210458.71148
  21056306.602 7 -21391264.003 7 -20293030.74548  21056296.61748
  21773099.563 7 -19525704.294 7 -18422869.78148  21773090.45748
  20125073.664 7 -29624953.573 7 -24303758.06749  20125061.57049
  21765884.633 7 -21736144.221 7 -19919144.84748  21765875.99648
  25619962.97711                 -66456187.15655  25619957.68055
 11  4  1  0  2 45.0000000  0 11G03G04G06G07G10G13G16G20G23G30G31   
  23638464.016 5  -4648708.545 5  -3387593.27046  23638457.37146
  25255075.781 5 -19686622.715 5 -19440163.74346  25255070.07446
  24034715.844 5  -7432662.415 5  -5631406.33646  24034708.96546
  23315121.211 6 -14298557.099 6 -11084722.76347  23315113.62947
  23972966.063 4  -8389530.743 4  -6500525.62646  23972957.13346
  21204416.117 7 -22157219.990 7 -20066300.64848  21204406.07448
  21059476.211 7 -21374609.435 7 -20280053.15448  21059466.05148
  21781017.164 7 -19484095.025 7 -18390446.99648  21781008.70348
  20124161.367 8 -29629748.007 8 -24307493.99049  20124149.27349
  21772696.938 7 -21700347.520 7 -19891251.32048  21772687.53948
  25628250.63311 -85285457.74711 -66422255.14055  25628244.10555
 11  4  1  0  3  0.0000000  0 11G03G04G06G07G10G13G16G20G23G30G31   
  23630215.906 5  -4692052.147 5  -3421367.44746  23630209.20346
  25259581.297 5 -19662944.734 5 -19421713.36945  25259575.82445
  24028558.828 5  -7465014.891 5  -5656615.96046  24028552.41846
  23307894.047 6 -14336539.705 6 -11114319.54947  23307885.58647
  23964864.750 4  -8432102.456 4  -6533698.34146  23964856.17246
  21198375.648 7 -22188964.265 7 -20091036.42648  21198365.37148
  21062674.758 7 -21357801.141 7 -20266955.78348  21062664.77348
  21788954.016 6 -19442387.812 6 -18357947.88648  21788945.14548
  20123268.406 8 -29634440.372 8 -24311150.36749  20123256.37149
  21779532.445 7 -21664424.378 7 -19863259.26348  21779524.10248
  25636534.66411 -85241922.50111 -66388331.61555  25636529.07455
 11  4  1  0  3 15.0000000  0 11G03G04G06G07G10G13G16G20G23G30G31   
  23621977.047 5  -4735349.987 5  -3455105.95946  23621970.10946
  25264104.023 5 -19639176.856 5 -19403193.00045  25264098.25845
  24022415.258 5  -7497299.790 5  -5681772.98146  24022408.73046
  23300675.109 6 -14374473.098 6 -11143877.98447  23300667.11747
  23956781.266 4  -8474580.837 4  -6566798.35446  23956773.44946
  21192345.984 7 -22220648.770 7 -20115725.63948  21192336.11748
  21065902.250 7 -21340840.098 7 -20253739.38748  21065892.32448
  21796908.992 6 -19400583.786 6 -18325373.35748  21796900.06348
  20122395.039 7 -29639031.401 7 -24314727.79249  20122382.41849
  21786392.695 7 -21628376.003 7 -19835169.63348  21786383.59048
  25644816.19511                 -66354417.30355  25644811.13355
 11  4  1  0  3 30.0000000  0 11G03G04G06G07G10G13G16G20G23G30G31   
  23613742.273 5  -4778621.771 5  -3488824.16446  23613735.74646
  25268641.398 5 -19615339.594 5 -19384618.54145  25268634.75445
  24016280.172 5  -7529537.137 5  -5706892.94646  24016274.28946
  23293461.930 6 -14412377.594 6 -11173413.90347  23293454.17247
  23948712.188 4  -8516985.757 4  -6599841.10046  23948704.48846
  21186324.461 7 -22252293.345 7 -20140383.72648  21186314.12548
  21069154.977 7 -21323746.618 7 -20240419.78648  21069144.75848
  21804878.789 7 -19358703.396 7 -18292739.31148  21804869.62548
  20121536.711 7 -29643541.050 7 -24318241.79849  20121524.14849
  21793271.953 7 -21592222.849 7 -19806998.34948  21793263.14148
  25653094.523 2 -85154907.764 2 -66320527.99746  25653087.46946
 11  4  1  0  3 45.0000000  0 11G03G04G06G07G10G13G16G20G23G30G31   
  23605516.570 5  -4821845.482 5  -3522504.93246  23605510.51246
  25273192.664 5 -19591411.676 5 -19365973.41045  25273187.66045
  24010159.156 5  -7561704.723 5  -5731958.53246  24010152.68846
  23286258.781 6 -14450231.697 6 -11202910.54447  23286250.61347
  23940660.828 4  -8559295.284 4  -6632809.53146  23940653.07046
  21180314.148 7 -22283876.280 7 -20164993.79848  21180304.39848
  21072437.109 7 -21306499.341 7 -20226980.35448  21072426.83248
  21812867.297 6 -19316725.504 6 -18260029.29248  21812858.07448
  20120698.344 7 -29647947.599 7 -24321675.47749  20120685.78149
  21800175.922 7 -21555943.787 7 -19778728.96147  21800166.64147
  25661367.883 2 -85111427.131 2 -66286646.99646  25661362.23446
 11  4  1  0  4  0.0000000  0 11G03G04G06G07G10G13G16G20G23G30G31   
  23597299.117 5  -4865029.741 5  -3556154.92746  23597292.76646
  25277760.188 4 -19567402.162 4 -19347264.72845  25277756.76645
  24004049.539 5  -7593811.434 5  -5756976.71646  24004043.24646
  23279062.836 6 -14488044.426 6 -11232374.95547  23279054.66847
  23932626.188 4  -8601518.073 4  -6665710.34846  23932618.19546
  21174314.188 7 -22315406.325 7 -20189562.64348  21174304.26248
  21075746.961 7 -21289107.472 7 -20213428.24748  21075736.09848
  21820871.977 7 -19274659.334 7 -18227250.48148  21820862.98848
  20119877.617 7 -29652260.004 7 -24325035.78849  20119865.64149
  21807101.828 7 -21519548.144 7 -19750368.71747  21807093.13347
  25669638.078 3 -85067966.146 3 -66252781.31846  25669632.07846
 11  4  1  0  4 15.0000000  0 11G03G04G06G07G10G13G16G20G23G30G31   
  23589089.336 5  -4908173.056 5  -3589773.05246  23589082.63346
  25282348.828 5 -19543310.705 5 -19328492.21645  25282341.36345
  23997950.750 4  -7625855.734 4  -5781946.23446  23997944.92646
  23271875.453 6 -14525814.664 6 -11261806.25947  23271867.22747
  23924608.563 5  -8643652.657 5  -6698542.46846  23924599.92646
  21168324.477 7 -22346882.212 7 -20214089.29548  21168314.72748
  21079083.734 7 -21271570.164 7 -20199762.80648  21079073.75048
  21828893.281 6 -19232504.238 6 -18194402.37948  21828884.41048
  20119075.359 7 -29656477.029 7 -24328321.77849  20119062.68049
  21814049.461 7 -21483035.167 7 -19721917.06247  21814041.00047
  25677905.391 4 -85024523.777 4 -66218930.15146  25677898.98046
 11  4  1  0  4 30.0000000  0 11G03G04G06G07G10G13G16G20G23G30G31   
  23580887.148 5  -4951275.932 5  -3623359.64246  23580880.68046
  25286947.391 5 -19519138.367 5 -19309656.64345  25286941.27345
  23991865.734 4  -7657838.177 4  -5806867.56946  23991859.32446
  23264696.023 6 -14563543.245 6 -11291205.10647  23264687.79747
  23916607.320 5  -8685699.701 5  -6731306.34346  23916599.09446
  21162345.078 7 -22378304.714 7 -20238574.34548  21162334.97748
  21082448.773 7 -21253888.527 7 -20185984.91648  21082438.37948
  21836932.102 7 -19190261.351 7 -18161485.86348  21836923.40648
  20118290.398 7 -29660599.411 7 -24331534.01849  20118278.48049
  21821020.188 7 -21446405.934 7 -19693374.81347  21821011.31647
  25686169.320 4 -84981101.015 4 -66185094.22146  25686162.03146
 11  4  1  0  4 45.0000000  0 11G03G04G06G07G10G13G16G20G23G30G31   
  23572692.797 6  -4994336.668 6  -3656913.40547  23572686.73847
  25291560.680 5 -19494883.972 5 -19290757.14345  25291557.19945
  23985791.430 4  -7689757.109 4  -5831739.41946  23985785.02046
  23257525.008 6 -14601228.756 6 -11320570.38247  23257516.43047
  23908623.398 4  -8727657.457 4  -6764000.65146  23908615.34846
  21156376.016 7 -22409672.190 7 -20263016.51248  21156365.73848
  21085840.914 7 -21236061.430 7 -20172093.67148  21085830.63748
  21844987.305 6 -19147929.582 6 -18128500.09748  21844979.19548
  20117524.383 7 -29664625.639 7 -24334671.33649  20117512.11349
  21828013.148 6 -21409659.477 6 -19664741.22148  21828003.98448
  25694428.320 5 -84937696.375 5 -66151272.47046  25694422.02746
 11  4  1  0  5  0.0000000  0 11G03G04G06G07G10G13G16G20G23G30G31   
  23564506.336 6  -5037355.627 6  -3690434.62146  23564499.75046
  25296192.664 5 -19470548.561 5 -19271794.51245  25296187.48445
  23979729.219 4  -7721612.791 4  -5856561.95446  23979722.75046
  23250361.883 6 -14638872.005 6 -11349902.73747  23250352.66047
  23900654.906 5  -8769526.420 5  -6796625.76946  23900647.55946
  21150417.391 7 -22440985.186 7 -20287416.23648  21150407.28948
  21089260.875 7 -21218089.842 7 -20158089.83448  21089250.83248
  21853060.578 6 -19105510.113 6 -18095445.99248  21853050.59448
  20116776.484 7 -29668556.195 7 -24337734.10849  20116764.33249
  21835027.281 7 -21372796.933 7 -19636017.16947  21835018.52747
  25702685.805 4 -84894310.746 4 -66117465.49446  25702677.87146
 11  4  1  0  5 15.0000000  0 11G03G04G06G07G10G13G16G20G23G30G31   
  23556328.469 5  -5080331.867 5  -3723922.55646  23556321.94146
  25300839.281 5 -19446132.299 5 -19252768.89645  25300834.16045
  23973679.813 5  -7753404.602 5  -5881334.74246  23973673.28546
  23243206.586 6 -14676472.552 6 -11379201.83147  23243197.71547
  23892705.164 5  -8811305.867 5  -6829181.15346  23892697.46546
  21144469.242 7 -22472243.142 7 -20311773.07648  21144459.14148
  21092708.438 7 -21199973.472 7 -20143973.18848  21092697.92648
  21861149.641 6 -19063003.099 6 -18062323.66948  21861140.41848
  20116047.172 7 -29672390.645 7 -24340721.98949  20116034.55149
  21842064.336 7 -21335818.160 7 -19607202.54747  21842055.64147
  25710937.977 4 -84850944.046 4 -66083673.27546  25710930.62946
 11  4  1  0  5 30.0000000  0 11G03G04G06G07G10G13G16G20G23G30G31   
  23548158.211 5  -5123265.317 5  -3757377.13346  23548151.85946
  25305502.461 5 -19421635.671 5 -19233680.62545  25305495.28945
  23967642.211 5  -7785132.535 5  -5906057.75446  23967635.50846
  23236059.258 6 -14714030.679 6 -11408467.85447  23236050.32847
  23884772.016 5  -8852995.893 5  -6861666.85946  23884763.90646
  21138531.125 7 -22503446.221 7 -20336087.15248  21138521.55148
  21096182.836 7 -21181713.018 7 -20129744.26548  21096172.91048
  21869253.875 6 -19020409.082 6 -18029133.54348  21869245.00448
  20115335.406 8 -29676129.175 8 -24343635.12849  20115323.25449
  21849122.797 7 -21298723.996 7 -19578298.02147  21849114.21947
  25719186.242 4 -84807596.493 4 -66049895.98346  25719179.07046
 11  4  1  0  5 45.0000000  0 11G03G04G06G07G10G13G16G20G23G30G31   
  23539996.383 5  -5166155.344 5  -3790797.88346  23539989.38746
  25310176.875 5 -19397058.768 5 -19214529.81546  25310172.28146
  23961616.852 4  -7816795.847 4  -5930730.40846  23961610.14846
  23228919.906 6 -14751545.950 6 -11437700.48947  23228911.56347
  23876856.055 5  -8894595.707 5  -6894082.25546  23876848.12146
  21132603.930 7 -22534594.253 7 -20360358.32648  21132594.18048
  21099685.664 7 -21163308.317 7 -20115402.93748  21099675.27048
  21877376.195 6 -18977728.067 6 -17995875.63147  21877366.44547
  20114642.383 8 -29679771.429 8 -24346473.24849  20114630.11349
  21856203.688 7 -21261514.561 7 -19549303.67547  21856194.93447
  25727431.016 4 -84764267.846 4 -66016133.41446  25727424.19546
 11  4  1  0  6  0.0000000  0 11G03G04G06G07G10G13G16G20G23G30G31   
  23531843.180 6  -5209001.312 6  -3824184.30346  23531836.71146
  25314867.727 4 -19372401.603 4 -19195316.51846  25314864.18846
  23955604.117 4  -7848393.947 4  -5955352.24346  23955597.41446
  23221789.547 6 -14789018.025 6 -11466899.45847  23221781.02747
  23868956.914 5  -8936105.010 5  -6926427.14946  23868948.98046
  21126687.719 7 -22565686.309 7 -20384585.88948  21126677.50048
  21103214.930 7 -21144759.366 7 -20100949.20648  21103205.06348
  21885514.359 6 -18934960.188 6 -17962550.02948  21885505.60548
  20113967.719 7 -29683316.902 7 -24349235.95249  20113955.50849
  21863306.516 7 -21224189.910 7 -19520219.54248  21863297.64548
  25735673.125 4 -84720957.877 4 -65982385.40946  25735666.36346
 11  4  1  0  6 15.0000000  0 11G03G04G06G07G10G13G16G20G23G30G31   
  23523697.852 6  -5251803.298 6  -3857536.41946  23523691.55946
  25319578.078 5 -19347665.022 5 -19176041.29345  25319572.02045
  23949602.922 4  -7879927.050 4  -5979923.42346  23949596.98046
  23214666.297 6 -14826447.755 6 -11496065.45247  23214658.01247
  23861074.930 5  -8977523.920 5  -6958701.59146  23861067.58246
  21120781.453 7 -22596722.678 7 -20408770.06648  21120771.35248
  21106772.656 7 -21126066.889 7 -20086383.64848  21106762.08648
  21893669.578 6 -18892106.174 6 -17929157.32648  21893660.18048
  20113311.383 7 -29686765.880 7 -24351923.46749  20113299.05549
  21870431.344 7 -21186750.730 7 -19491046.17347  21870422.35547
  25743911.156 4 -84677667.118 4 -65948652.36246  25743904.16046
 11  4  1  0  6 30.0000000  0 11G03G04G06G07G10G13G16G20G23G30G31   
  23515561.719 6  -5294560.811 6  -3890853.92946  23515555.25046
  25324299.844 5 -19322849.163 5 -19156704.25245  25324293.90245
  23943615.203 4  -7911394.594 4  -6004443.52946  23943608.32446
  23207552.008 6 -14863834.816 6 -11525198.17247  23207543.78147
  23853210.531 5  -9018851.970 5  -6990905.22846  23853202.59846
  21114886.234 7 -22627703.060 7 -20432910.60748  21114876.01648
  21110357.055 7 -21107231.011 7 -20071706.34448  21110346.48448
  21901840.766 6 -18849166.266 6 -17895697.68248  21901831.77748
  20112673.109 7 -29690118.176 7 -24354535.64149  20112660.95749
  21877577.070 7 -21149197.183 7 -19461783.68247  21877568.55147
  25752145.273 5 -84634395.400 5 -65914934.15447  25752138.45347
 11  4  1  0  6 45.0000000  0 11G03G04G06G07G10G13G16G20G23G30G31   
  23507433.805 6  -5337272.857 6  -3924135.99946  23507427.39546
  25329034.734 4 -19297953.853 4 -19137305.35946  25329031.54746
  23937639.195 5  -7942795.772 5  -6028911.92946  23937633.13746
  23200445.359 6 -14901178.699 6 -11554297.26347  23200437.01647
  23845362.820 5  -9060088.428 5  -7023037.49546  23845355.23846
  21109001.117 7 -22658626.821 7 -20457007.02348  21108991.30948
  21113968.742 7 -21088251.263 7 -20056916.92748  21113958.23048
  21910028.242 6 -18806140.163 6 -17862170.87548  21910018.96148
  20112054.242 7 -29693373.066 7 -24357071.91749  20112041.79749
  21884745.289 7 -21111529.157 7 -19432431.98547  21884736.71147
  25760375.844 5 -84591142.375 5 -65881230.49747  25760368.78947
 11  4  1  0  7  0.0000000  0 11G03G04G06G07G10G13G16G20G23G30G31   
  23499314.680 5  -5379939.538 5  -3957382.73046  23499307.50846
  25333788.297 4 -19272979.870 4 -19117845.16345  25333784.23045
  23931676.539 5  -7974130.769 5  -6053328.75946  23931670.30546
  23193347.172 6 -14938480.053 6 -11583363.20747  23193339.53147
  23837533.719 5  -9101233.261 5  -7055098.38047  23837526.07847
  21103127.219 7 -22689494.327 7 -20481059.61648  21103117.52748
  21117607.164 7 -21069128.546 7 -20042016.10548  21117597.47348
  21918231.930 6 -18763028.873 6 -17828577.68548  21918222.88348
  20111453.250 7 -29696531.014 7 -24359532.65949  20111440.57049
  21891934.766 7 -21073747.575 7 -19402991.81647  21891925.83647
  25768603.883 5 -84547908.567 5 -65847541.83346  25768596.35946
 11  4  1  0  7 15.0000000  0 11G03G04G06G07G10G13G16G20G23G30G31   
  23491204.125 5  -5422560.378 5  -3990593.72446  23491197.48046
  25338557.883 5 -19247927.632 5 -19098323.97645  25338551.70745
  23925726.383 5  -8005399.035 5  -6077693.56746  23925719.44546
  23186257.406 6 -14975738.285 6 -11612395.54747  23186249.12147
  23829721.414 5  -9142286.190 5  -7087087.65046  23829713.53946
  21097264.516 7 -22720305.172 7 -20505068.05848  21097254.18048
  21121273.523 7 -21049862.785 7 -20027003.82948  21121263.18848
  21926452.023 6 -18719832.593 6 -17794918.27548  21926443.32848
  20110870.695 7 -29699591.578 7 -24361917.51749  20110858.54349
  21899146.016 7 -21035852.516 7 -19373463.21247  21899137.49647
  25776826.867 5 -84504693.742 5 -65813867.95947  25776819.81347
 11  4  1  0  7 30.0000000  0 11G03G04G06G07G10G13G16G20G23G30G31   
  23483102.570 6  -5465135.486 6  -4023769.09146  23483095.51646
  25343338.891 4 -19222797.826 4 -19078742.30045  25343333.41845
  23919788.727 5  -8036600.791 5  -6102006.58146  23919782.14146
  23179175.555 6 -15012954.086 6 -11641394.84047  23179167.50447
  23821926.758 5  -9183247.477 5  -7119005.49346  23821919.17646
  21091412.234 7 -22751059.587 7 -20529032.52648  21091402.25048
  21124966.680 7 -21030454.960 7 -20011880.85248  21124956.28548
  21934688.008 6 -18676552.237 6 -17761193.34048  21934679.13748
  20110306.656 7 -29702555.302 7 -24364226.91649  20110294.85549
  21906379.227 7 -20997845.116 7 -19343847.07648  21906369.94548
  25785046.656 5 -84461498.661 5 -65780209.46346  25785039.60246
 11  4  1  0  7 45.0000000  0 11G03G04G06G07G10G13G16G20G23G30G31   
  23475009.781 6  -5507663.373 6  -4056907.65946  23475002.31646
  25348133.977 4 -19197589.787 4 -19059099.70745  25348130.90645
  23913863.750 4  -8067734.710 4  -6126266.76046  23913857.34046
  23172101.547 6 -15050126.443 6 -11670360.27347  23172093.61347
  23814150.547 5  -9224115.653 5  -7150850.80646  23814142.14546
  21085570.445 7 -22781756.612 7 -20552952.27648  21085560.57848
  21128687.164 7 -21010904.173 7 -19996646.47848  21128676.59448
  21942940.359 6 -18633187.180 6 -17727402.41848  21942931.37148
  20109761.203 8 -29705420.933 8 -24366459.87149  20109749.28549
  21913632.711 7 -20959724.640 7 -19314142.83048  21913623.60548
  25793263.203 5 -84418322.476 5 -65746565.68146  25793255.56346
 11  4  1  0  8  0.0000000  0 11G03G04G06G07G10G13G16G20G23G30G31   
  23466925.594 5  -5550144.259 5  -4090009.62746  23466918.12946
  25352946.633 4 -19172304.380 4 -19039396.85045  25352942.27345
  23907952.703 4  -8098800.998 4  -6150474.16046  23907946.17646
  23165035.844 6 -15087255.912 6 -11699292.27947  23165027.85247
  23806390.406 5  -9264890.925 5  -7182623.69546  23806383.23446
  21079739.922 7 -22812396.377 7 -20576827.40748  21079730.23048
  21132434.375 7 -20991211.080 7 -19981301.20848  21132424.21548
  21951208.406 6 -18589738.110 6 -17693546.02148  21951199.47748
  20109234.727 7 -29708188.755 7 -24368616.61749  20109222.75049
  21920908.281 7 -20921491.682 7 -19284350.92847  21920899.64547
  25801474.914 5 -84375165.664 5 -65712937.03147  25801468.38747
 11  4  1  0  8 15.0000000  0 10G03G04G06G07G10G13G16G20G23G30      
  23458851.742 5  -5592571.047 5  -4123069.40446  23458844.92246
  25357775.039 5 -19146935.353 5 -19019628.79846  25357770.21146
  23902055.359 5  -8129792.494 5  -6174623.34546  23902047.95346
  23157980.156 6 -15124335.827 6 -11728185.68347  23157971.63747
  23798650.172 5  -9305566.518 5  -7214318.93647  23798642.70747
  21073921.391 7 -22842972.167 7 -20600652.68348  21073911.64148
  21136210.094 7 -20971369.324 7 -19965840.09848  21136199.69948
  21959493.570 6 -18546198.768 6 -17659619.28548  21959484.58248
  20108728.273 7 -29710852.256 7 -24370692.07549  20108716.23849
  21928206.531 7 -20883140.088 7 -19254466.58748  21928197.54348
 11  4  1  0  8 30.0000000  0 10G03G04G06G07G10G13G16G20G23G30      
  23450786.047 5  -5634956.907 5  -4156097.29446  23450779.40246
  25362616.211 5 -19121496.690 5 -18999806.48446  25362611.20746
  23896169.195 5  -8160722.631 5  -6198724.69746  23896161.90646
  23150930.109 6 -15161379.829 6 -11757051.09047  23150922.00047
  23790926.469 5  -9346155.781 5  -7245946.91546  23790918.88746
  21068112.797 7 -22873497.345 7 -20624438.52548  21068102.46148
  21140011.672 7 -20951392.901 7 -19950274.05148  21140001.27748
  21967793.586 6 -18502583.313 6 -17625633.23948  21967784.71548
  20108238.242 7 -29713424.908 7 -24372696.73849  20108225.91449
  21935524.328 6 -20844683.976 6 -19224500.79848  21935515.39848
 11  4  1  0  8 45.0000000  0 10G03G04G06G07G10G13G16G20G23G30      
  23442729.227 6  -5677294.319 6  -4189087.42646  23442722.93446
  25367471.000 4 -19095981.333 4 -18979924.43545  25367466.34845
  23890296.453 5  -8191583.755 5  -6222772.27746  23890289.63346
  23143889.797 6 -15198380.621 6 -11785882.83847  23143881.39547
  23783220.531 5  -9386651.158 5  -7277501.71046  23783212.42246
  21062315.133 7 -22903964.657 7 -20648179.26948  21062305.14848
  21143840.422 7 -20931274.672 7 -19934597.50848  21143829.79348
  21976108.742 6 -18458884.766 6 -17591582.44848  21976099.98848
  20107767.383 7 -29715899.202 7 -24374624.75449  20107755.34849
  21942863.555 6 -20806116.214 6 -19194448.01247  21942854.68447
 11  4  1  0  9  0.0000000  0 10G03G04G06G07G10G13G16G20G23G30      
  23434682.523 5  -5719583.239 5  -4222039.81846  23434675.29346
  25372340.023 4 -19070390.000 4 -18959983.13245  25372335.48845
  23884437.117 5  -8222375.836 5  -6246766.05446  23884429.77046
  23136857.109 6 -15235338.531 6 -11814681.16647  23136848.64847
  23775532.461 6  -9427052.630 6  -7308983.35246  23775524.35246
  21056528.484 7 -22934374.024 7 -20671874.86748  21056518.44148
  21147695.211 7 -20911015.337 7 -19918811.01448  21147685.05148
  21984440.023 6 -18415103.789 6 -17557467.43347  21984431.27047
  20107315.234 7 -29718275.426 7 -24376476.35949  20107302.96549
  21950224.164 7 -20767437.650 7 -19164308.89047  21950214.64847
 11  4  1  0  9 15.0000000  0 10G03G04G06G07G10G13G16G20G23G30      
  23426644.875 5  -5761822.879 5  -4254953.76746  23426637.29346
  25377224.273 4 -19044722.593 4 -18939982.65945  25377219.21145
  23878591.070 5  -8253098.253 5  -6270705.51746  23878583.84046
  23129832.461 6 -15272253.234 6 -11843445.81747  23129823.94147
  23767862.367 5  -9467359.470 5  -7340391.25846  23767854.25846
  21050752.969 7 -22964724.849 7 -20695524.85548  21050742.92648
  21151577.313 7 -20890614.606 7 -19902914.34448  21151567.15248
  21992787.023 6 -18371240.353 6 -17523288.15048  21992778.03548
  20106881.734 7 -29720553.198 7 -24378251.24349  20106869.52349
  21957605.406 7 -20728648.221 7 -19134083.36747  21957596.35947
 11  4  1  0  9 30.0000000  0 10G03G04G06G07G10G13G16G20G23G30      
  23418615.977 5  -5804012.962 5  -4287829.10746  23418608.92246
  25382124.727 5 -19018979.943 5 -18919923.43145  25382118.72745
  23872757.781 4  -8283751.013 4  -6294590.79346  23872750.60946
  23122815.672 6 -15309124.975 6 -11872177.00647  23122807.62147
  23760210.805 5  -9507571.886 5  -7371725.57446  23760201.58246
  21044988.516 7 -22995017.344 7 -20719129.37748  21044978.59048
  21155486.281 7 -20870073.139 7 -19886907.99348  21155475.82848
  22001149.484 6 -18327295.172 6 -17489045.18048  22001140.26248
  20106466.984 7 -29722732.527 7 -24379949.42449  20106454.77349
  21965007.883 7 -20689748.634 7 -19103772.02047  21964998.83647
 11  4  1  0  9 45.0000000  0 10G03G04G06G07G10G13G16G20G23G30      
  23410596.164 5  -5846153.413 5  -4320665.77646  23410589.63746
  25387036.492 4 -18993162.402 4 -18899805.92845  25387031.89845
  23866937.938 4  -8314333.824 4  -6318421.51946  23866930.88346
  23115807.297 6 -15345953.868 6 -11900874.81047  23115799.12947
  23752575.906 5  -9547689.514 5  -7402986.01346  23752567.68046
  21039234.766 7 -23025251.331 7 -20742688.32248  21039225.25048
  21159421.828 7 -20849391.336 7 -19870792.30948  21159411.25848
  22009527.844 6 -18283268.660 6 -17454738.83248  22009518.62148
  20106071.484 7 -29724813.403 7 -24381570.88049  20106058.80549
  21972430.523 6 -20650739.270 6 -19073375.12847  21972421.82847
 11  4  1  0 10  0.0000000  0 10G03G04G06G07G10G13G16G20G23G30      
  23402587.234 5  -5888242.959 5  -4353462.77446  23402580.29746
  25391964.156 5 -18967269.559 5 -18879629.73045  25391959.50445
  23861131.617 4  -8344845.621 4  -6342196.90646  23861125.09046
  23108807.281 6 -15382739.165 6 -11929538.62747  23108799.11347
  23744959.969 6  -9587711.409 6  -7434171.87946  23744952.21146
  21033492.586 7 -23055425.848 7 -20766200.90948  21033482.83648
  21163384.391 7 -20828568.602 7 -19854566.79448  21163373.93848
  22017921.297 6 -18239160.404 6 -17420368.78648  22017912.19148
  20105693.945 7 -29726794.871 7 -24383114.88049  20105681.61749
  21979875.188 6 -20611619.764 6 -19042892.40947  21979866.43447
 11  4  1  0 10 15.0000000  0 10G03G04G06G07G10G13G16G20G23G30      
  23394587.586 6  -5930281.856 6  -4386220.29546  23394580.59046
  25396904.617 3 -18941302.241 3 -18859395.49345  25396900.78545
  23855339.203 4  -8375286.495 4  -6365917.03946  23855331.73846
  23101815.086 6 -15419481.364 6 -11958168.85747  23101807.27047
  23737361.484 5  -9627637.761 5  -7465283.27946  23737354.02046
  21027762.234 7 -23085541.312 7 -20789667.49648  21027752.66048
  21167373.500 7 -20807605.715 7 -19838232.07148  21167363.16448
  22026330.063 6 -18194971.302 6 -17385935.74348  22026321.25048
  20105336.031 7 -29728677.499 7 -24384581.86049  20105323.46949
  21987340.094 6 -20572391.159 6 -19012324.67847  21987331.57447
 11  4  1  0 10 30.0000000  0 11G03G04G06G07G08G10G13G16G20G23G30   
  23386598.055 6  -5972269.238 6  -4418937.68046  23386590.94146
  25401862.234 4 -18915260.527 4 -18839103.29545  25401855.70745
  23849559.617 4  -8405656.024 4  -6389581.57146  23849552.56346
  23094831.867 6 -15456180.263 6 -11986765.34147  23094823.81647
  25832561.33611                                
  23729782.508 5  -9667467.950 5  -7496319.75146  23729774.39846
  21022042.836 7 -23115596.990 7 -20813087.48548  21022032.79348
  21171389.133 7 -20786502.595 7 -19821788.08048  21171378.62148
  22034754.672 6 -18150701.445 6 -17351439.77648  22034745.44948
  20104996.344 7 -29730460.800 7 -24385971.45049  20104984.07449
  21994825.930 7 -20533053.462 7 -18981671.94347  21994817.23447
 11  4  1  0 10 45.0000000  0 11G03G04G06G07G08G10G13G16G20G23G30   
  23378617.578 6  -6014205.485 6  -4451615.22346  23378610.23046
  25406831.414 4 -18889145.650 4 -18818754.01845  25406825.29745
  23843794.109 4  -8435954.404 4  -6413190.66446  23843787.23046
  23087856.773 6 -15492836.452 6 -12015328.55447  23087848.25447
  25824564.01611                                
  23722221.203 5  -9707202.250 5  -7527281.50146  23722213.38746
  21016334.352 7 -23145593.808 7 -20836461.61748  21016324.60248
  21175431.867 7 -20765260.242 7 -19805235.59548  21175421.47348
  22043194.180 6 -18106352.022 6 -17316881.81048  22043184.95748
  20104676.008 7 -29732145.254 7 -24387284.00749  20104663.50449
  22002332.180 7 -20493607.664 7 -18950934.97247  22002323.48447
 11  4  1  0 11  0.0000000  0 10G03G04G06G07G10G13G16G20G23G30      
  23370647.000 5  -6056089.216 5  -4484251.83346  23370640.00446
  25411813.703 3 -18862956.636 3 -18798347.05845  25411809.40245
  23838041.969 4  -8466180.383 4  -6436743.34846  23838035.26646
  23080888.984 6 -15529449.008 6 -12043857.76547  23080880.75847
  23714678.695 6  -9746839.679 6  -7558167.77046  23714670.11746
  21010637.469 7 -23175530.471 7 -20859788.87648  21010627.42648
  21179500.242 7 -20743877.972 7 -19788574.07648  21179490.19948
  22051648.641 6 -18061922.302 6 -17282261.27148  22051639.41848
  20104374.430 7 -29733729.908 7 -24388518.79649  20104362.16049
  22009859.016 7 -20454053.214 7 -18920113.33547  22009850.55547
 11  4  1  0 11 15.0000000  0 10G03G04G06G07G10G13G16G20G23G30      
  23362686.219 6  -6097920.630 6  -4516847.67346  23362679.80946
  25416812.719 4 -18836694.461 4 -18777883.08845  25416807.07045
  23832303.688 4  -8496333.939 4  -6460239.58846  23832297.16046
  23073930.016 6 -15566018.349 6 -12072353.29747  23073921.73047
  23707153.953 5  -9786380.330 5  -7588978.64146  23707145.72746
  21004951.961 7 -23205407.250 7 -20883069.46048  21004942.21148
  21183595.906 7 -20722356.537 7 -19771804.12248  21183585.39548
  22060118.898 6 -18017412.965 6 -17247578.69948  22060109.61748
  20104091.531 7 -29735214.983 7 -24389676.00149  20104079.55549
  22017406.289 7 -20414390.873 7 -18889207.63047  22017397.59447
 11  4  1  0 11 30.0000000  0 10G03G04G06G07G10G13G16G20G23G30      
  23354736.711 5  -6139699.591 5  -4549402.65446  23354729.01246
  25421823.109 3 -18810359.813 3 -18757362.58945  25421817.87145
  23826580.055 4  -8526415.385 4  -6483679.62346  23826572.76646
  23066979.570 6 -15602544.849 6 -12100815.45647  23066971.22747
  23699648.281 5  -9825824.254 5  -7619714.11646  23699640.05546
  20999278.242 7 -23235224.298 7 -20906303.50348  20999268.49248
  21187717.602 7 -20700696.543 7 -19754926.20148  21187707.20748
  22068603.492 6 -17972825.017 6 -17212834.86748  22068594.68048
  20103827.820 7 -29736600.866 7 -24390755.90749  20103815.60949
  22024974.406 7 -20374621.466 7 -18858218.49947  22024965.77047
 11  4  1  0 11 45.0000000  0 10G03G04G06G07G10G13G16G20G23G30      
  23346796.664 6  -6181424.951 6  -4581915.87246  23346788.96546
  25426847.531 3 -18783952.280 3 -18736785.33845  25426842.46945
  23820869.383 4  -8556423.255 4  -6507062.35246  23820862.56346
  23060036.695 6 -15639027.679 6 -12129243.57847  23060028.82047
  23692160.703 5  -9865170.243 5  -7650373.29246  23692152.06646
  20993616.086 7 -23264980.430 7 -20929490.08048  20993605.63348
  21191865.703 7 -20678897.275 7 -19737939.74848  21191855.36748
  22077103.258 6 -17928157.876 6 -17178029.32248  22077094.44548
  20103583.328 7 -29737886.462 7 -24391757.66349  20103571.29349
  22032562.977 7 -20334744.525 7 -18827145.56747  22032553.87147
 11  4  1  0 12  0.0000000  0 10G03G04G06G07G10G13G16G20G23G30      
  23338866.266 6  -6223096.524 6  -4614387.16746  23338858.91846
  25431887.172 3 -18757472.401 3 -18716151.68345  25431881.69945
  23815172.875 4  -8586357.603 4  -6530387.78246  23815166.05546
  23053102.203 6 -15675466.987 6 -12157637.77047  23053094.79747
  23684692.125 5  -9904418.287 5  -7680956.14846  23684684.01646
  20987964.930 7 -23294675.708 7 -20952629.24948  20987955.18048
  21196040.570 7 -20656959.168 7 -19720845.11748  21196030.05948
  22085617.977 6 -17883412.022 6 -17143162.46048  22085609.69148
  20103357.766 7 -29739071.970 7 -24392681.44249  20103345.55549
  22040171.539 6 -20294760.636 6 -18795989.30647  22040162.84447
 11  4  1  0 12 15.0000000  0 11G03G04G06G07G08G10G13G16G20G23G30   
  23330945.875 6  -6264716.644 6  -4646818.34146  23330939.17246
  25436939.906 3 -18730923.487 3 -18695464.23645  25436934.55145
  23809490.133 4  -8616221.248 4  -6553658.12346  23809483.72346
  23046176.766 6 -15711865.893 6 -12186000.50447  23046168.12947
  25776628.40611    715116.31211                
  23677240.977 5  -9943571.181 5  -7711464.85846  23677233.04346
  20982325.109 7 -23324313.060 7 -20975723.26648  20982314.77348
  21200240.688 7 -20634885.784 7 -19703645.07748  21200230.70348
  22094147.172 6 -17838590.855 6 -17108236.89948  22094138.71148
  20103150.820 7 -29740160.174 7 -24393529.39249  20103138.49249
  22047799.461 7 -20254673.073 7 -18764752.26447  22047791.17647
 11  4  1  0 12 30.0000000  0 11G03G04G06G07G08G10G13G16G20G23G30   
  23323037.094 6  -6306279.454 6  -4679204.88146  23323030.09846
  25442006.102 3 -18704300.197 3 -18674718.87045  25442000.33645
  23803821.180 4  -8646008.102 4  -6576868.61746  23803815.35546
  23039258.586 6 -15748218.766 6 -12214327.35747  23039250.06647
  25768649.625 1    673189.718 1                
  23669810.063 5  -9982622.926 5  -7741894.75346  23669801.95346
  20976697.641 7 -23353886.849 7 -20998767.76048  20976687.89148
  21204467.984 7 -20612671.672 7 -19686335.37748  21204457.76648
  22102691.984 6 -17793689.234 6 -17073248.65347  22102682.87947
  20102963.430 7 -29741145.396 7 -24394297.09649  20102950.75049
  22055448.977 7 -20214476.555 7 -18733430.30547  22055440.57447
 11  4  1  0 12 45.0000000  0 11G03G04G06G07G08G10G13G16G20G23G30   
  23315138.359 6  -6347787.901 6  -4711549.05346  23315131.18846
  25447086.461 3 -18677606.183 3 -18653918.32245  25447080.52045
  23798167.359 4  -8675720.971 4  -6600021.46346  23798161.00846
  23032349.023 6 -15784528.741 6 -12242620.78947  23032340.27047
  25760676.555 2    631278.954 2                
  23662397.625 5 -10021576.449 5  -7772248.09746  23662389.34046
  20971081.070 7 -23383399.872 7 -21021764.90048  20971071.49648
  21208721.484 7 -20590320.184 7 -19668918.62848  21208711.09048
  22111250.781 6 -17748710.678 6 -17038200.45248  22111242.08648
  20102794.938 7 -29742030.690 7 -24394986.93749  20102782.49249
  22063118.180 7 -20174174.682 7 -18702026.25847  22063109.54347
 11  4  1  0 13  0.0000000  0 11G03G04G06G07G08G10G13G16G20G23G30   
  23307250.117 6  -6389240.951 6  -4743850.06946  23307243.12146
  25452177.648 2 -18650841.057 2 -18633062.48645  25452174.16845
  23792527.516 5  -8705359.081 5  -6623116.04446  23792520.81346
  23025447.430 6 -15820795.340 6 -12270880.42547  23025438.85247
  25752700.906 1    589384.377 1                
  23655003.852 5 -10060431.035 5  -7802524.37246  23654995.39146
  20965476.852 7 -23412851.263 7 -21044714.02148  20965466.92648
  21213001.172 7 -20567831.023 7 -19651394.60748  21212990.71948
  22119824.727 6 -17703654.979 6 -17003092.14647  22119816.03147
  20102645.109 7 -29742815.364 7 -24395598.36149  20102633.36749
  22070807.656 6 -20133767.248 6 -18670539.95947  22070798.60947
 11  4  1  0 13 15.0000000  0 11G03G04G06G07G08G10G13G16G20G23G30   
  23299372.234 6  -6430637.824 6  -4776107.29346  23299365.35546
  25457286.938 3 -18624005.028 3 -18612151.29445  25457280.64545
  23786902.016 5  -8734921.696 5  -6646151.80546  23786894.90246
  23018554.711 6 -15857017.995 6 -12299105.81547  23018546.01647
  25744734.453 2    547506.719 2                
  23647629.320 5 -10099185.776 5  -7832722.81846  23647620.80146
  20959884.406 7 -23442240.403 7 -21067614.63848  20959874.24648
  21217306.977 7 -20545204.095 7 -19633763.23048  21217296.87548
  22128413.180 6 -17658522.173 6 -16967923.75447  22128404.25047
  20102515.445 7 -29743498.943 7 -24396131.02349  20102503.17649
  22078516.883 7 -20093254.235 7 -18638971.40147  22078508.07047
 11  4  1  0 13 30.0000000  0 11G03G04G06G07G08G10G13G16G20G23G30   
  23291505.555 6  -6471979.122 6  -4808321.21346  23291497.91446
  25462405.141 3 -18597099.381 3 -18591185.87445  25462400.72345
  23781290.742 4  -8764409.199 4  -6669129.02546  23781283.86346
  23011669.992 6 -15893197.884 6 -12327297.88647  23011661.41447
  25736765.789 2    505644.940 2                
  23640273.047 6 -10137841.635 6  -7862844.24746  23640264.52746
  20954303.688 7 -23471568.195 7 -21090467.44848  20954293.58648
  21221638.508 7 -20522440.745 7 -19616025.55548  21221628.05548
  22137016.422 6 -17613313.637 6 -16932696.34448  22137007.55148
  20102404.188 7 -29744082.331 7 -24396585.60949  20102392.27049
  22086246.266 7 -20052637.078 7 -18607321.67847  22086237.27747
 11  4  1  0 13 45.0000000  0 11G03G04G06G07G08G10G13G16G20G23G30   
  23283649.047 6  -6513263.372 6  -4840490.70346  23283641.75846
  25467538.984 3 -18570123.415 3 -18570165.70745  25467533.92245
  23775693.906 4  -8793820.703 4  -6692047.02946  23775686.67646
  23004792.891 6 -15929333.904 6 -12355455.77347  23004784.60547
  25728802.695 2    463800.118 2                
  23632936.359 5 -10176397.066 5  -7892887.39746  23632927.19546
  20948734.320 7 -23500833.321 7 -21113271.43348  20948724.39548
  21225996.031 7 -20499540.085 7 -19598180.88748  21225985.69548
  22145633.695 6 -17568028.438 6 -16897409.21947  22145625.11747
  20102312.984 7 -29744564.271 7 -24396961.14849  20102300.59849
  22093995.109 6 -20011915.012 6 -18575590.21647  22093986.47347
 11  4  1  0 14  0.0000000  0 11G03G04G06G07G08G10G13G16G20G23G30   
  23275803.961 6  -6554490.635 6  -4872615.77546  23275796.55546
  25472683.703 1 -18543077.663 1 -18549091.08245  25472680.51645
  23770111.461 4  -8823155.959 4  -6714905.63546  23770103.99646
  22997924.734 6 -15965426.496 6 -12383579.81547  22997916.50847
  25720843.281 1    421971.761 1                
  23625617.563 5 -10214852.370 5  -7922852.52146  23625609.16046
  20943177.281 7 -23530036.113 7 -21136026.84048  20943167.29748
  21230380.102 7 -20476502.908 7 -19580229.83648  21230370.05948
  22154265.430 6 -17522667.503 6 -16862063.06347  22154256.79347
  20102240.242 7 -29744945.085 7 -24397257.88249  20102227.97349
  22101764.453 7 -19971088.847 7 -18543777.64047  22101755.40647
 11  4  1  0 14 15.0000000  0 11G03G04G06G07G08G10G13G16G20G23G30   
  23267969.633 6  -6595660.469 6  -4904696.11846  23267961.87546
  25477848.078 4 -18515962.896 4                
  23764543.977 4  -8852414.959 4  -6737704.80146  23764536.57046
  22991064.570 6 -16001475.925 6 -12411670.21547  22991056.40247
  25712887.69511  -1195260.55311                
  23618318.992 5 -10253207.223 5  -7952739.40446  23618310.53146
  20937632.180 7 -23559176.457 7 -21158733.58848  20937622.54748
  21234789.805 7 -20453329.471 7 -19562172.61548  21234779.70348
  22162911.883 6 -17477231.355 6 -16826658.29848  22162902.60248
  20102187.172 7 -29745224.830 7 -24397475.85949  20102174.66849
  22109552.594 6 -19930159.035 6 -18511884.30047  22109544.25047
 11  4  1  0 14 30.0000000  0 11G03G04G06G07G08G10G13G16G20G23G30   
  23260145.859 6  -6636773.038 6  -4936731.82346  23260139.27346
  25483019.055 3 -18488779.617 3                
  23758990.633 4  -8881597.525 4  -6760444.41446  23758983.57846
  22984212.813 6 -16037482.100 6 -12439726.93747  22984204.41047
  25704931.844 1  -1237056.456 1                
  23611039.273 5 -10291461.692 5  -7982548.07846  23611030.69546
  20932099.094 7 -23588254.441 7 -21181391.74248  20932088.81648
  21239225.367 7 -20430020.471 7 -19544009.76448  21239215.50048
  22171572.633 6 -17431720.694 6 -16791195.47447  22171563.87947
  20102152.875 7 -29745403.587 7 -24397615.15249  20102140.25449
  22117361.180 6 -19889126.312 6 -18479910.76847  22117352.66047
 11  4  1  0 14 45.0000000  0 11G03G04G06G07G08G10G13G16G20G23G30   
  23252333.602 6  -6677826.627 6  -4968721.56746  23252326.31346
  25488202.867 2 -18461527.019 2                
  23753451.453 4  -8910702.178 4  -6783123.30246  23753444.80946
  22977369.336 6 -16073443.831 6 -12467748.99947  22977361.16847
  25696982.852 2  -1278835.431 2                
  23603779.281 5 -10329614.405 5  -8012277.41746  23603770.76246
  20926577.711 7 -23617268.661 7 -21204000.20748  20926567.60948
  21243686.859 7 -20406574.757 7 -19525740.37548  21243676.64148
  22180247.195 6 -17386134.487 6 -16755673.79147  22180237.85547
  20102138.227 7 -29745480.075 7 -24397674.75049  20102126.19149
  22125189.391 7 -19847989.802 7 -18447856.36147  22125180.63747
 11  4  1  0 15  0.0000000  0 11G03G04G06G07G08G10G13G16G20G23G30   
  23244531.969 6  -6718821.737 6  -5000665.75146  23244525.38346
  25493403.875 2 -18434206.172 2                
  23747927.773 4  -8939729.374 4  -6805741.83646  23747921.12946
  22970534.750 6 -16109362.159 6 -12495737.26347  22970526.11347
  25689035.789 1  -1320597.582 1                
  23596538.734 5 -10367665.865 5  -8041927.88046  23596529.98046
  20921068.531 7 -23646219.706 7 -21226559.45348  20921058.25448
  21248174.492 7 -20382993.498 7 -19507365.36648  21248164.21548
  22188935.758 6 -17340474.086 6 -16720094.28147  22188926.77047
  20102142.891 7 -29745455.021 7 -24397655.22949  20102130.97349
  22133036.719 7 -19806750.640 7 -18415721.97647  22133028.19947
 11  4  1  0 15 15.0000000  0 11G03G04G06G07G08G10G13G16G20G23G30   
  23236742.289 6  -6759757.572 6  -5032563.75746  23236735.29346
  25498615.875 2 -18406817.339 2                
  23742418.984 4  -8968678.613 4  -6828299.62646  23742411.75446
  22963707.727 6 -16145236.858 6 -12523691.52547  22963699.38347
  25681090.117 1  -1362343.255 1                
  23589316.602 5 -10405615.586 5  -8071499.06746  23589308.14146
  20915571.195 7 -23675107.304 7 -21249069.25548  20915561.03548
  21252687.531 7 -20359276.733 7 -19488884.77148  21252676.96148
  22197638.977 6 -17294739.653 6 -16684457.09048  22197630.39848
  20102167.234 7 -29745328.106 7 -24397556.33649  20102155.19949
  22140903.672 7 -19765408.996 7 -18383507.72647  22140895.56347
 11  4  1  0 15 30.0000000  0 11G03G04G06G07G08G10G13G16G20G23G30   
  23228963.727 6  -6800634.610 6  -5064415.94146  23228956.84846
  25503842.078 2 -18379361.646 2                
  23736925.273 4  -8997550.246 4  -6850796.95746  23736917.86746
  22956889.211 6 -16181068.654 6 -12551612.35147  22956880.98447
  25673151.516 1  -1404072.861 1                
  23582113.602 5 -10443463.951 5  -8100991.28046  23582106.02046
  20910086.063 7 -23703931.930 7 -21271529.98948  20910076.07848
  21257226.547 7 -20335425.591 7 -19470299.47048  21257215.97748
  22206356.125 6 -17248932.262 6 -16648763.05347  22206346.96147
  20102210.617 7 -29745100.052 7 -24397378.62749  20102198.46549
  22148790.258 6 -19723966.068 6 -18351214.56047  22148782.03147
 11  4  1  0 15 45.0000000  0 11G03G04G06G07G08G10G13G16G20G23G30   
  23221196.461 6  -6841451.633 6  -5096221.37146  23221189.87546
  25509078.469 1 -18351838.443 1                
  23731445.539 4  -9026343.115 4  -6873232.91446  23731438.89546
  22950079.023 6 -16216856.561 6 -12579498.97847  22950070.85547
  25665210.039 1  -1445785.649 1                
  23574931.633 6 -10481209.850 6  -8130403.62646  23574922.99646
  20904612.969 7 -23732692.486 7 -21293940.80448  20904602.63348
  21261790.578 7 -20311439.524 7 -19451609.03348  21261780.71148
  22215086.477 6 -17203051.432 6 -16613011.78247  22215077.66447
  20102273.703 7 -29744769.721 7 -24397121.22849  20102261.43449
  22156695.656 6 -19682421.457 6 -18318842.15647  22156687.48847
 11  4  1  0 16  0.0000000  0 11G03G04G06G07G08G10G13G16G20G23G30   
  23213441.625 6  -6882208.001 6  -5127979.54446  23213433.98446
  25514328.64811 -26201347.64711                
  23725981.984 4  -9055056.762 4  -6895607.13746  23725974.87146
  22943277.195 6 -16252600.461 6 -12607351.32947  22943268.96947
  25657276.844 1  -1487481.147 1                
  23567768.641 6 -10518852.658 6  -8159735.65646  23567760.18046
  20899152.555 7 -23761388.512 7 -21316301.33248  20899142.27748
  21266380.852 7 -20287318.462 7 -19432813.40248  21266370.34048
  22223831.813 6 -17157097.148 6 -16577203.27847  22223822.41447
  20102355.750 7 -29744336.715 7 -24396783.82249  20102343.65649
  22164620.539 6 -19640775.132 6 -18286390.49547  22164612.25447
 11  4  1  0 16 15.0000000  0 11G03G04G06G07G08G10G13G16G20G23G30   
  23205696.695 6  -6922904.025 6  -5159690.68447  23205689.46547
  25519597.508 3 -26173690.866 3                
  23720533.023 5  -9083691.576 5  -6917919.91346  23720525.55946
  22936483.641 6 -16288301.242 6 -12635170.07148  22936475.12148
  25649346.297 1  -1529160.312 1                
  23560624.945 6 -10556393.018 6  -8188987.87646  23560616.13346
  20893703.719 7 -23790020.631 7 -21338612.06948  20893694.02748
  21270996.477 7 -20263063.485 7 -19413913.42948  21270986.25848
  22232590.086 6 -17111070.747 6 -16541338.58347  22232580.86347
  20102457.609 7 -29743801.963 7 -24396367.12549  20102445.51649
  22172565.102 6 -19599028.338 6 -18253860.54347  22172556.34847
 11  4  1  0 16 30.0000000  0 11G03G04G06G07G08G10G13G16G20G23G30   
  23197964.109 6  -6963539.505 6  -5191354.65246  23197956.93846
  25524867.578 1 -26145968.440 1                
  23715099.352 4  -9112247.464 4  -6940171.18446  23715091.59446
  22929697.922 6 -16323958.992 6 -12662955.28347  22929689.87147
  25641416.617 1  -1570823.438 1                
  23553500.688 6 -10593830.889 6  -8218160.20246  23553492.34446
  20888267.648 7 -23818588.839 7 -21360872.99748  20888257.60548
  21275637.188 7 -20238675.106 7 -19394909.50348  21275626.79348
  22241362.391 6 -17064972.818 6 -16505418.14347  22241353.40247
  20102578.703 7 -29743165.448 7 -24395871.14349  20102566.08249
  22180528.398 6 -19557181.668 6 -18221252.77047  22180519.46947
 11  4  1  0 16 45.0000000  0 11G03G04G06G07G08G10G13G16G20G23G30   
  23190243.477 6  -7004112.129 6  -5222969.64046  23190236.36346
  25530152.15611 -26118178.67311                
  23709680.250 5  -9140722.230 5  -6962359.25446  23709672.96146
  22922921.234 6 -16359571.671 6 -12690705.37447  22922912.53947
  25633490.547 1  -1612468.559 1                
  23546396.273 6 -10631163.915 6  -8247250.85646  23546387.57846
  20882843.719 7 -23847090.945 7 -21383082.41748  20882833.73448
  21280304.016 7 -20214151.683 7 -19375800.34348  21280293.91448
  22250148.641 6 -17018801.751 6 -16469440.72347  22250139.35947
  20102719.398 7 -29742425.008 7 -24395294.16949  20102707.42249
  22188511.266 6 -19515233.436 6 -18188565.86247  22188502.21947
 11  4  1  0 17  0.0000000  0 10G03G06G07G08G10G13G16G20G23G30      
  23182534.078 6  -7044622.441 6  -5254536.07347  23182527.72747
  23704276.758 5  -9169116.236 5  -6984484.41346  23704269.46946
  22916152.672 6 -16395140.350 6 -12718421.18447  22916144.03547
  25625571.250 1  -1654096.349 1                
  23539311.688 6 -10668392.697 6  -8276260.25846  23539303.63746
  20877432.516 7 -23875527.591 7 -21405240.83948  20877422.53148
  21284995.898 7 -20189494.321 7 -19356586.81348  21284985.85548
  22258948.031 6 -16972558.631 6 -16433407.15147  22258939.51247
  20102880.086 7 -29741581.400 7 -24394636.81349  20102868.05149
  22196512.266 6 -19473184.958 6 -18155800.83747  22196503.45347
 11  4  1  0 17 15.0000000  0 10G03G06G07G08G10G13G16G20G23G30      
  23174836.820 6  -7085071.368 6  -5286054.68747  23174830.46947
  23698888.422 4  -9197430.754 4  -7006547.62446  23698881.89546
  22909392.688 6 -16430666.397 6 -12746103.78247  22909383.52347
  25617651.117 1  -1695708.428 1                
  23532247.797 6 -10705518.562 6  -8305189.47546  23532238.28146
  20872032.969 7 -23903900.042 7 -21427349.23248  20872023.39548
  21289713.875 7 -20164704.600 7 -19337270.15948  21289702.83648
  22267761.383 6 -16926245.426 6 -16397318.97347  22267752.33647
  20103060.094 7 -29740635.910 7 -24393900.06749  20103048.05949
  22204532.742 6 -19431038.001 6 -18122959.07347  22204523.87147
 11  4  1  0 17 30.0000000  0 10G03G06G07G08G10G13G16G20G23G30      
  23167151.977 6  -7125457.343 6  -5317524.24847  23167144.68847
  23693515.914 5  -9225664.103 5  -7028547.56746  23693508.74246
  22902640.086 6 -16466148.419 6 -12773752.07147  22902631.50847
  25609735.695 1  -1737303.463 1                
  23525202.563 6 -10742539.968 6  -8334037.30546  23525193.75046
  20866646.781 7 -23932206.930 7 -21449406.53448  20866636.56348
  21294456.297 7 -20139781.639 7 -19317849.67448  21294445.84448
  22276588.000 6 -16879861.195 6 -16361175.45047  22276579.01247
  20103259.609 7 -29739587.236 7 -24393082.92049  20103247.34049
  22212571.938 6 -19388791.608 6 -18090039.83247  22212563.41847
 11  4  1  0 17 45.0000000  0 10G03G06G07G08G10G13G16G20G23G30      
  23159478.680 6  -7165780.331 6  -5348944.71647  23159471.91847
  23688158.867 5  -9253816.374 5  -7050484.36346  23688151.34446
  22895896.852 6 -16501586.829 6 -12801366.37247  22895888.03947
  25601824.891 1  -1778881.818 1                
  23518177.250 6 -10779456.863 6  -8362803.67846  23518167.91046
  20861272.227 7 -23960448.427 7 -21471412.88148  20861262.53548
  21299223.508 7 -20114726.175 7 -19298325.94148  21299213.52348
  22285427.891 6 -16833406.676 6 -16324977.14647  22285419.48847
  20103478.828 7 -29738435.652 7 -24392185.58449  20103466.55949
  22220629.953 6 -19346446.545 6 -18057043.68547  22220621.37547
 11  4  1  0 18  0.0000000  0 10G03G06G07G08G10G13G16G20G23G30      
  23151817.531 6  -7206039.622 6  -5380315.56247  23151811.00447
  23682817.180 5  -9281886.792 5  -7072357.37346  23682809.83246
  22889161.609 6 -16536981.267 6 -12828946.41147  22889152.15247
  25593914.789 1  -1820443.093 1                
  23511172.445 6 -10816268.671 6  -8391488.18846  23511163.16446
  20855910.852 7 -23988623.758 7 -21493367.67248  20855900.86748
  21304017.148 7 -20089538.143 7 -19278698.90748  21304006.69548
  22294280.719 6 -16786881.834 6 -16288724.05347  22294272.60947
  20103717.578 7 -29737180.750 7 -24391207.73549  20103705.66049
  22228706.555 6 -19304002.882 6 -18023970.73047  22228698.44547
 11  4  1  0 18 15.0000000  0 10G03G06G07G08G10G13G16G20G23G30      
  23144168.531 6  -7246235.203 6  -5411636.75047  23144161.06647
  23677491.414 5  -9309875.641 5  -7094166.80646  23677484.35946
  22882434.063 6 -16572332.329 6 -12856492.66247  22882425.60247
  25586010.086 2  -1861987.791 2                
  23504186.836 6 -10852975.652 6  -8420090.98846  23504178.19946
  20850561.867 7 -24016733.330 7 -21515271.22548  20850551.94148
  21308835.203 7 -20064218.219 7 -19258969.10048  21308824.86748
  22303147.695 6 -16740287.534 6 -16252416.84047  22303139.23447
  20103976.023 7 -29735822.775 7 -24390149.57449  20103963.93049
  22236802.055 6 -19261461.455 6 -17990821.58747  22236793.41847
 11  4  1  0 18 30.0000000  0 10G03G06G07G08G10G13G16G20G23G30      
