     2.11           OBSERVATION DATA    GPS(GPS)            RINEX VERSION / TYPE
cnvtToRINEX 2.11.0  Stan Thomas         26-Mar-11 14:09 UTC PGM / RUN BY / DATE 
----------------------------------------------------------- COMMENT             
LR1                                                         MARKER NAME         
LR1                                                         MARKER NUMBER       
Stan Thomas         University of Utah                      OBSERVER / AGENCY   
4644124574          NetRS               1.12                REC # / TYPE / VERS 
12532422            TRM41249.00                             ANT # / TYPE        
 -1943694.8969 -4552384.2017  4011197.9967                  APPROX POSITION XYZ 
        1.2740        0.0000        0.0000                  ANTENNA: DELTA H/E/N
     1     1     0                                          WAVELENGTH FACT L1/2
     7    C1    D1    L1    L2    P2    S1    S2            # / TYPES OF OBSERV 
  2011     3    24     0     0    0.0000000     GPS         TIME OF FIRST OBS   
  2011     3    24     0    18   15.0000000     GPS         TIME OF LAST OBS    
     0                                                      RCV CLOCK OFFS APPL 
    15                                                      LEAP SECONDS        
    11                                                      # OF SATELLITES     
   G03    74    74    71    74    74    74    74            PRN / # OF OBS      
   G04    74    74    74    74    74    74    74            PRN / # OF OBS      
   G06    73    73    71    71    71    73    71            PRN / # OF OBS      
   G07    74    74    74    74    74    74    74            PRN / # OF OBS      
   G10    66    66    64    52    52    66    52            PRN / # OF OBS      
   G13    74    74    74    74    74    74    74            PRN / # OF OBS      
   G16    74    74    74    74    74    74    74            PRN / # OF OBS      
   G20    74    74    74    74    74    74    74            PRN / # OF OBS      
   G23    74    74    74    74    74    74    74            PRN / # OF OBS      
   G30    74    74    74    74    74    74    74            PRN / # OF OBS      
   G31    74    74    74    74    74    74    74            PRN / # OF OBS      
CARRIER PHASE MEASUREMENTS: PHASE SHIFTS REMOVED            COMMENT             
                                                            END OF HEADER       
 11  3 24  0  0  0.0000000  0 11G03G04G06G07G10G13G16G20G23G30G31   
  24877780.500 3      2981.141 3  -4255700.217 3  -3709128.46846  24877775.84846
        37.250          20.000  
  24778108.570 4      -583.328 4  -1953402.292 4  -4500692.28846  24778101.69146
        39.000          22.000  
  25001342.477 3      2478.141 3     30869.337 3                
        37.250  
  24388015.148 5      2909.672 5  -1504650.028 5  -7802215.90046  24388007.62546
        40.750          21.500  
  25268173.945 4      3448.031 4    -78839.985 4    -41075.08846  25268165.48446
        38.250          20.000  
  22133982.563 6      2484.984 6 -12017188.271 6  -9335666.51247  22133973.51647
        47.500          32.250  
  20925485.844 7       322.734 7 -24020425.057 7 -18683798.84948  20925475.80148
        48.250          40.000  
  20850631.367 6     -1731.906 6 -22607475.399 6 -20273532.18148  20850621.91048
        47.500          40.250  
  20421762.672 7      1096.656 7 -21610289.734 7 -23018484.25848  20421750.75448
        50.000          41.000  
  21078655.883 7     -1067.906 7 -25488481.696 7 -19836824.27948  21078647.65648
        48.750          38.250  
  24437202.867 5     -3035.625 5  -5791626.326 5  -4497103.09446  24437194.28946
        40.000          26.000  
 11  3 24  0  0 15.0000000  0 11G03G04G06G07G10G13G16G20G23G30G31   
  24869270.586 4      2981.636 4  -4300424.764 4  -3743978.67446  24869265.17246
        38.250          19.250  
  24779784.945 4      -587.371 4  -1944591.728 4  -4493826.92046  24779778.18446
        39.000          21.500  
  24994260.859 1      2477.833 1     -6298.153 1  -4597937.28955  24994258.78555
        31.750          17.250  
  24379712.813 5      2908.377 5  -1548275.679 5  -7836209.84746  24379705.93446
        40.750          21.000  
  25258335.836 4      3446.613 4   -130539.181 4    -81360.11046  25258328.25446
        37.500          19.250  
  22126892.531 7      2483.913 7 -12054446.964 7  -9364699.25347  22126883.36747
        48.000          32.500  
  20924580.078 7       317.386 7 -24025185.852 7 -18687508.54948  20924569.85948
        48.000          39.750  
  20855586.914 7     -1736.248 7 -22581431.686 7 -20253238.38848  20855577.80948
        48.000          40.000  
  20418638.977 7      1094.218 7 -21626702.999 7 -23031273.82549  20418627.70349
        51.000          41.500  
  21081719.414 7     -1073.203 7 -25472383.644 7 -19824280.33648  21081711.01248
        49.000          38.750  
  24445868.016 5     -3035.498 5  -5746093.851 5  -4461623.29247  24445859.02747
        40.500          27.500  
 11  3 24  0  0 30.0000000  0 10G03G04G07G10G13G16G20G23G30G31      
  24860757.398 5      2982.647 5  -4345164.462 5  -3778840.76146  24860750.81346
        39.500          20.000  
  24781484.680 4      -595.402 4  -1935660.698 4  -4486867.70746  24781478.56346
        39.000          22.000  
  24371418.359 5      2905.892 5  -1591864.055 5  -7870174.73346  24371411.01246
        40.000          22.000  
  25248505.695 4      3443.872 4   -182197.262 4   -121613.15646  25248497.46946
        38.500          21.250  
  22119808.008 7      2481.905 7 -12091675.543 7  -9393708.51847  22119798.90247
        48.000          32.000  
  20923704.320 7       306.745 7 -24029787.025 7 -18691093.87248  20923694.57048
        48.000          40.000  
  20860568.203 7     -1744.928 7 -22555257.764 7 -20232843.13248  20860558.51248
        47.750          40.250  
  20415529.586 7      1089.434 7 -21643044.510 7 -23044007.46348  20415517.90248
        50.250          41.000  
  21084812.805 7     -1083.666 7 -25456128.655 7 -19811614.11048  21084804.05148
        49.000          39.000  
  24454529.281 4     -3035.162 4  -5700566.427 4  -4426147.37646  24454522.05146
        38.500          25.500  
 11  3 24  0  0 45.0000000  0 11G03G04G06G07G10G13G16G20G23G30G31   
  24852240.516 4      2983.885 4  -4389922.735 4  -3813717.28046  24852234.16446
        38.500          20.000  
  24783206.836 4      -603.178 4  -1926613.025 4  -4479817.58646  24783200.01646
        38.750          22.250  
  24980126.64814      2476.26614                                
        38.000  
  24363130.406 5      2903.638 5  -1635418.633 5  -7904113.29446  24363123.11746
        39.250          22.500  
  25238682.594 4      3441.360 4   -233817.669 4   -161836.85546  25238674.30946
        37.750          21.500  
  22112728.617 7      2480.129 7 -12128877.475 7  -9422697.02947  22112719.39547
        48.000          32.750  
  20922858.492 6       296.343 6 -24034232.177 6 -18694557.62148  20922849.03548
        47.500          39.750  
  20865572.039 6     -1753.352 6 -22528957.477 6 -20212349.40748  20865562.75848
        47.000          40.250  
  20412432.625 7      1084.889 7 -21659317.843 7 -23056687.97948  20412421.35248
        50.000          41.000  
  21087934.883 7     -1093.868 7 -25439720.628 7 -19798828.62948  21087926.53948
        50.250          38.750  
  24463193.086 5     -3034.569 5  -5655047.890 5  -4390678.39846  24463184.33246
        41.250          26.000  
 11  3 24  0  1  0.0000000  0 11G03G04G06G07G10G13G16G20G23G30G31   
  24843719.352 4      2984.894 4  -4434696.145 4  -3848605.57746  24843713.58646
        38.500          20.250  
  24784950.867 4      -611.146 4  -1917445.836 4  -4472674.31146  24784944.34046
        38.500          21.000  
  24973055.805 3      2475.750 3    377059.534 3  -4592544.94356  24973050.33256
        37.250          20.000  
  24354849.211 4      2901.181 4  -1678936.346 4  -7938023.10946  24354841.62946
        38.500          22.750  
  25228867.469 5      3438.629 5   -285397.099 5   -202028.61246  25228859.12546
        39.750          22.500  
  22105655.203 7      2478.136 7 -12166049.508 7  -9451662.22747  22105646.33247
        48.750          33.000  
  20922042.992 7       285.737 7 -24038518.235 7 -18697897.39448  20922033.24248
        48.250          39.750  
  20870601.813 7     -1761.973 7 -22502527.877 7 -20191754.92448  20870592.47348
        48.500          39.750  
  20409349.680 7      1080.129 7 -21675519.777 7 -23069312.86448  20409337.82048
        50.250          40.750  
  21091087.297 7     -1104.264 7 -25423156.668 7 -19785921.64148  21091078.19148
        50.500          39.000  
  24471854.219 5     -3034.186 5  -5609535.106 5  -4355213.96347  24471846.87147
        42.250          28.500  
 11  3 24  0  1 15.0000000  0 11G03G04G06G07G10G13G16G20G23G30G31   
  24835197.016 4      2985.963 4  -4479485.594 4  -3883506.42246  24835190.13746
        38.000          19.250  
  24786717.555 3      -619.024 3  -1908160.473 3  -4465439.00246  24786711.02746
        37.250          21.500  
  24965987.367 3      2475.623 3    339925.188 3  -4621480.84246  24965984.41446
        36.750          19.750  
  24346574.789 4      2898.797 4  -1722418.307 4  -7971905.08246  24346567.67646
        38.000          22.500  
  25219059.695 5      3435.941 5   -336936.209 5   -242188.96846  25219051.64546
        39.500          22.000  
  22098587.266 7      2476.219 7 -12203192.796 7  -9480605.02547  22098578.33647
        48.000          33.000  
  20921257.648 7       275.216 7 -24042646.478 7 -18701114.20448  20921247.60548
        47.750          40.250  
  20875656.039 7     -1770.502 7 -22475970.353 7 -20171060.76448  20875646.40648
        47.750          40.000  
  20406280.039 7      1075.430 7 -21691651.219 7 -23081882.81248  20406268.35548
        50.500          40.750  
  21094268.336 7     -1114.570 7 -25406438.116 7 -19772894.19848  21094259.58248
        50.250          38.000  
  24480512.047 5     -3033.704 5  -5564029.546 5  -4319755.05347  24480503.93847
        39.750          27.250  
 11  3 24  0  1 30.0000000  0 11G03G04G06G07G10G13G16G20G23G30G31   
  24826666.961 2      2986.972 2  -4524290.169 2  -3918419.05146  24826664.06646
        34.750          19.500  
  24788507.375 3      -626.937 3  -1898756.424 3  -4458111.20346  24788500.61346
        36.750          20.250  
  24958924.852 4      2474.969 4    302800.653 4  -4650409.02846  24958919.32046
        38.500          20.250  
  24338306.844 4      2896.359 4  -1765863.694 4  -8005758.52646  24338299.67246
        38.250          23.000  
  25209259.719 5      3433.194 5   -388434.126 5   -282317.21046  25209251.90246
        41.000          22.250  
  22091524.867 7      2474.238 7 -12240306.367 7  -9509524.68147  22091515.41047
        48.500          32.750  
  20920501.852 6       264.645 6 -24046616.156 6 -18704207.45448  20920492.10248
        47.250          39.000  
  20880734.305 6     -1779.059 6 -22449284.463 6 -20150266.57148  20880724.90648
        47.000          39.750  
  20403223.789 7      1070.670 7 -21707711.273 7 -23094397.14948  20403212.10548
        49.750          41.250  
  21097479.484 7     -1124.916 7 -25389564.377 7 -19759745.83648  21097470.78948
        50.500          38.250  
  24489170.961 5     -3033.258 5  -5518530.682 5  -4284301.48947  24489163.67247
        42.250          26.500  
 11  3 24  0  1 45.0000000  0 11G03G04G06G07G10G13G16G20G23G30G31   
  24818142.281 4      2987.939 4  -4569109.261 4  -3953342.86446  24818136.45746
        38.250          20.000  
  24790319.820 3      -634.821 3  -1889234.105 3  -4450691.25346  24790312.82446
        36.500          21.000  
  24951862.406 4      2474.316 4    265685.907 4  -4679329.57546  24951856.28946
        38.250          20.750  
  24330046.531 4      2893.933 4  -1809272.688 4  -8039583.65446  24330039.35946
        38.250          24.750  
  25199467.719 5      3430.422 5   -439890.449 5   -322413.05846  25199460.43046
        40.250          22.250  
  22084467.875 7      2472.261 7 -12277390.289 7  -9538421.22447  22084458.77047
        48.750          33.500  
  20919776.617 6       254.078 6 -24050427.331 6 -18707177.20148  20919766.63348
        47.250          39.500  
  20885836.547 6     -1787.596 6 -22422470.519 6 -20129372.59848  20885827.14848
        47.000          39.500  
  20400181.578 7      1065.916 7 -21723700.007 7 -23106855.89448  20400169.95348
        51.000          41.000  
  21100719.750 7     -1135.239 7 -25372535.796 7 -19746476.80348  21100711.40648
        50.500          38.000  
  24497828.047 6     -3032.803 6  -5473038.631 6  -4248853.11747  24497820.99247
        42.500          28.500  
 11  3 24  0  2  0.0000000  0 11G03G04G06G07G10G13G16G20G23G30G31   
  24809608.852 3      2988.937 3  -4613943.322 3  -3988278.44646  24809604.19946
        36.000          19.500  
  24792153.813 4      -642.655 4  -1879594.277 4  -4443179.70446  24792146.64146
        37.500          20.500  
  24944802.422 4      2473.684 4    228580.641 4  -4708242.79646  24944795.77746
        38.250          20.250  
  24321792.906 4      2891.560 4  -1852646.092 4  -8073381.02446  24321786.26246
        39.000          24.250  
  25189684.242 5      3427.684 5   -491305.715 5   -362476.91346  25189676.48446
        40.750          22.750  
  22077416.375 7      2470.330 7 -12314445.232 7  -9567295.18847  22077407.44547
        48.250          33.500  
  20919081.344 7       243.568 7 -24054080.852 7 -18710024.08948  20919071.88748
        48.500          39.500  
  20890963.578 7     -1796.062 7 -22395529.589 7 -20108379.67448  20890953.94548
        48.000          40.500  
  20397152.336 7      1061.203 7 -21739618.046 7 -23119259.56449  20397140.65249
        50.500          41.750  
  21103989.336 7     -1145.486 7 -25355353.501 7 -19733088.00448  21103980.64148
        49.500          38.500  
  24506483.719 5     -3032.279 5  -5427554.444 5  -4213410.92346  24506474.37946
        41.500          25.500  
 11  3 24  0  2 15.0000000  0 11G03G04G06G07G10G13G16G20G23G30G31   
  24801077.703 4      2989.832 4  -4658790.798 4  -4023224.43846  24801070.64846
        39.000          19.250  
  24794011.406 3      -650.555 3  -1869835.954 3  -4435575.83746  24794003.88346
        36.750          20.250  
  24937738.953 3      2472.953 3    191486.345 3  -4737147.38646  24937736.87946
        36.250          19.500  
  24313546.836 4      2889.089 4  -1895982.428 4  -8107149.52346  24313539.07846
        38.250          24.500  
  25179907.867 5      3424.844 5   -542678.377 5   -402507.57046  25179900.16846
        40.750          23.500  
  22070370.875 7      2468.295 7 -12351469.653 7  -9596145.37648  22070361.88748
        48.500          33.750  
  20918416.734 6       232.962 6 -24057575.280 6 -18712747.01648  20918406.98448
        47.250          40.250  
  20896114.344 6     -1804.606 6 -22368460.504 6 -20087286.89748  20896105.12148
        47.000          40.000  
  20394136.914 7      1056.386 7 -21755463.842 7 -23131606.93748  20394125.23048
        50.750          41.000  
  21107288.570 7     -1155.812 7 -25338016.326 7 -19719578.52748  21107279.69948
        50.500          37.750  
  24515137.695 6     -3031.843 6  -5382076.801 6  -4177973.84047  24515130.05547
        42.500          28.000  
 11  3 24  0  2 30.0000000  0 11G03G04G06G07G10G13G16G20G23G30G31   
  24792539.586 2      2990.739 2  -4703651.886 2  -4058181.14846  24792533.70346
        34.000          19.750  
  24795890.125 4      -658.397 4  -1859960.002 4  -4427880.31146  24795883.53946
        38.250          20.500  
  24930686.203 5      2472.226 5    154402.958 5  -4766043.48946  24930678.91446
        40.750          19.000  
  24305306.508 5      2886.638 5  -1939281.993 5  -8140889.38146  24305299.62946
        39.750          25.250  
  25170140.578 5      3422.020 5   -594008.670 5   -442505.18646  25170132.35246
        39.250          23.000  
  22063330.945 6      2466.302 6 -12388464.182 6  -9624972.26547  22063321.54747
        47.250          33.250  
  20917781.586 6       222.402 6 -24060911.306 6 -18715346.51348  20917771.95348
        47.250          39.750  
  20901289.961 6     -1813.082 6 -22341264.277 6 -20066095.04848  20901280.27048
        47.500          39.750  
  20391135.156 7      1051.607 7 -21771237.952 7 -23143898.45048  20391123.35548
        49.500          41.250  
  21110617.180 7     -1166.084 7 -25320525.067 7 -19705948.96948  21110608.25048
        49.750          38.000  
  24523789.469 5     -3031.355 5  -5336606.470 5  -4142542.43447  24523781.94547
        40.500          26.750  
 11  3 24  0  2 45.0000000  0 11G03G04G06G07G10G13G16G20G23G30G31   
  24783997.367 2      2991.627 2  -4748526.286 2  -4093148.09345  24783993.00845
        34.750          18.500  
  24797791.320 4      -666.247 4  -1849966.298 4  -4420093.03846  24797784.85246
        37.750          21.000  
  24923632.281 5      2471.471 5    117330.895 5  -4794930.79346  24923624.81646
        40.500          19.250  
  24297074.109 5      2884.178 5  -1982544.667 5  -8174600.48246  24297066.87946
        40.250          26.000  
  25160380.703 5      3419.171 5   -645296.236 5   -482469.51846  25160372.35946
        40.000          22.500  
  22056297.570 7      2464.287 7 -12425428.480 7  -9653775.60147  22056287.87947
        48.750          32.750  
  20917177.070 7       211.825 7 -24064088.682 7 -18717822.38648  20917167.37948
        48.750          39.750  
  20906489.172 6     -1821.565 6 -22313940.807 6 -20044804.04048  20906479.65648
        47.500          40.000  
  20388147.227 7      1046.797 7 -21786939.905 7 -23156133.73848  20388135.48448
        49.750          41.250  
  21113974.805 7     -1176.357 7 -25302879.706 7 -19692199.34448  21113965.99248
        50.500          38.000  
  24532440.070 5     -3030.861 5  -5291143.551 5  -4107116.80047  24532433.07447
        40.500          26.750  
 11  3 24  0  3  0.0000000  0 11G03G04G06G07G10G13G16G20G23G30G31   
  24775458.820 2      2992.497 2  -4793413.742 2  -4128125.29146  24775451.82446
        35.250          19.250  
  24799716.391 3      -674.073 3  -1839855.199 3  -4412214.27046  24799708.92646
        37.000          21.500  
  24916577.672 5      2470.696 5     80270.452 5  -4823809.02946  24916572.37546
        39.500          19.000  
  24288847.930 5      2881.748 5  -2025770.882 5  -8208283.18247  24288841.34447
        41.000          26.500  
  25150628.547 5      3416.318 5   -696541.011 5   -522400.49146  25150621.02346
        39.500          22.500  
  22049268.781 7      2462.274 7 -12462362.591 7  -9682555.41247  22049260.02747
        48.250          33.500  
  20916602.563 6       201.255 6 -24067107.502 6 -18720174.71348  20916592.63748
        47.500          40.250  
  20911712.750 7     -1830.025 7 -22286490.434 7 -20023414.15348  20911703.35248
        48.000          40.000  
  20385173.031 7      1041.994 7 -21802569.817 7 -23168312.88649  20385161.11349
        50.000          41.750  
  21117362.195 7     -1186.606 7 -25285080.612 7 -19678329.92648  21117353.09048
        50.750          37.500  
  24541092.063 5     -3030.365 5  -5245688.083 5  -4071696.99047  24541083.42647
        41.000          28.000  
 11  3 24  0  3 15.0000000  0 11G03G04G06G07G10G13G16G20G23G30G31   
  24766910.281 1      2993.320 1  -4838313.540 1  -4163112.15246  24766906.80146
        30.500          19.250  
  24801661.977 4      -681.907 4  -1829626.593 4  -4404243.94546  24801655.62546
        38.250          20.500  
  24909526.852 4      2469.878 4     43222.285 4  -4852677.71746  24909522.49246
        39.000          19.250  
  24280629.570 5      2879.264 5  -2068959.838 5  -8241936.85747  24280622.28147
        42.250          28.000  
  25140885.336 4      3413.404 4   -747742.069 4   -562297.41346  25140878.28146
        37.500          22.250  
  22042246.086 7      2460.220 7 -12499265.886 7  -9711311.20548  22042237.09848
        48.500          33.750  
  20916058.203 7       190.658 7 -24069967.368 7 -18722403.17048  20916048.57048
        48.750          40.000  
  20916960.750 7     -1838.493 7 -22258913.038 7 -20001925.28648  20916951.29348
        48.250          40.000  
  20382212.445 7      1037.142 7 -21818126.953 7 -23180435.33249  20382200.70349
        50.000          41.500  
  21120778.305 7     -1196.885 7 -25267127.339 7 -19664340.36148  21120769.55148
        50.750          38.000  
  24549740.867 5     -3029.877 5  -5200239.934 5  -4036282.88947  24549731.82047
        40.250          27.750  
 11  3 24  0  3 30.0000000  0 11G03G04G06G07G10G13G16G20G23G30G31   
  24758368.031 2      2994.130 2  -4883225.487 2  -4198108.38646  24758360.74246
        35.500          19.250  
  24803631.656 5      -689.715 5  -1819280.864 5  -4396182.36546  24803624.13346
        39.750          21.250  
  24902479.289 5      2469.044 5      6186.622 5  -4881536.63746  24902474.69546
        40.000          19.000  
  24272418.094 5      2876.809 5  -2112111.966 5  -8275561.83047  24272411.50847
        42.000          28.000  
  25131150.727 4      3410.488 4   -798899.387 4   -602160.25446  25131142.85246
        38.250          21.500  
  22035229.133 7      2458.170 7 -12536138.432 7  -9740043.03547  22035220.20347
        48.750          33.250  
  20915544.242 7       180.085 7 -24072668.642 7 -18724508.05948  20915534.31648
        47.750          39.750  
  20922232.531 6     -1846.930 6 -22231209.093 6 -19980337.81548  20922223.19148
        47.250          39.750  
  20379265.883 7      1032.303 7 -21833611.496 7 -23192501.21048  20379253.84848
        49.500          40.750  
  21124224.203 7     -1207.123 7 -25249020.497 7 -19650231.14248  21124215.44948
        50.000          38.250  
  24558386.641 5     -3029.361 5  -5154799.516 5  -4000874.78547  24558378.29747
        40.000          27.250  
 11  3 24  0  3 45.0000000  0 11G03G04G06G07G10G13G16G20G23G30G31   
  24749818.914 1      2994.955 1  -4928149.818 1  -4233114.31745  24749812.85545
        33.750          16.750  
  24805622.703 4      -697.460 4  -1808818.965 4  -4388030.26346  24805615.00446
        38.500          21.250  
  24895435.789 5      2468.251 5    -30837.149 5  -4910386.31245  24895428.61745
        41.250          16.750  
  24264213.367 6      2874.391 6  -2155227.827 6  -8309158.54847  24264206.07847
        42.750          28.000  
  25121423.211 4      3407.595 4   -850013.319 4   -641989.28146  25121416.27346
        38.000          19.250  
  22028218.773 7      2456.161 7 -12572980.847 7  -9768751.39447  22028209.55147
        49.000          33.500  
  20915060.477 7       169.561 7 -24075212.058 7 -18726489.93548  20915050.72748
        48.750          40.250  
  20927528.070 7     -1855.305 7 -22203379.524 7 -19958652.44748  20927519.02348
        48.250          39.000  
  20376333.133 7      1027.508 7 -21849024.115 7 -23204511.05449  20376321.50849
        50.000          41.750  
  21127698.734 7     -1217.296 7 -25230761.063 7 -19636003.01848  21127690.03948
        51.000          38.000  
  24567032.172 5     -3028.790 5  -5109367.661 5  -3965473.38247  24567024.94147
        40.500          27.500  
 11  3 24  0  4  0.0000000  0 11G03G04G06G07G10G13G16G20G23G30G31   
  24741268.383 1      2995.709 1  -4973085.454 1  -4268129.06946  24741260.68446
        32.250          19.000  
  24807636.195 4      -705.253 4  -1798240.174 4  -4379787.06046  24807628.37946
        39.000          22.250  
  24888389.906 5      2467.362 5    -67847.578 5  -4939225.55146  24888385.89846
        39.250          19.000  
  24256015.734 6      2871.902 6  -2198306.355 6  -8342726.18047  24256008.50447
        43.500          27.500  
  25111706.063 3      3404.632 3   -901082.802 3   -681783.69946  25111698.01246
        36.500          20.500  
  22021213.984 7      2454.088 7 -12609792.171 7  -9797435.52748  22021204.87948
        49.500          34.000  
  20914606.617 7       158.976 7 -24077596.701 7 -18728348.08948  20914596.75048
        48.000          39.500  
  20932848.219 6     -1863.717 6 -22175423.771 6 -19936868.75648  20932838.52748
        47.500          39.500  
  20373414.070 7      1022.633 7 -21864363.616 7 -23216463.91148  20373402.62148
        49.000          41.000  
  21131202.594 7     -1227.517 7 -25212348.305 7 -19621655.41948  21131193.72348
        51.250          37.750  
  24575675.492 4     -3028.265 4  -5063943.693 4  -3930078.06546  24575667.79346
        39.000          25.500  
 11  3 24  0  4 15.0000000  0 11G03G04G06G07G10G13G16G20G23G30G31   
  24732712.07011      2996.51611                  -6758352.15856  24732707.24256
        30.750          19.500  
  24809671.094 5      -713.203 5  -1787542.133 5  -4371450.93846  24809663.86346
        40.000          22.250  
  24881350.734 5      2466.275 5   -104841.711 5  -4968052.04145  24881346.08245
        40.000          18.250  
  24247825.711 6      2869.234 6  -2241344.863 6  -8376262.63847  24247818.24647
        43.000          27.750  
  25101996.875 2      3401.470 2   -952104.846 2   -721541.09946  25101988.29746
        34.250          19.500  
  22014215.273 7      2451.824 7 -12646569.530 7  -9826093.18948  22014206.40248
        48.750          34.000  
  20914183.563 7       148.210 7 -24079819.848 7 -18730080.40148  20914173.81348
        49.250          39.750  
  20938192.367 7     -1872.306 7 -22147339.187 7 -19914984.66948  20938183.32048
        48.750          40.000  
  20370509.531 7      1017.567 7 -21879627.121 7 -23228357.54249  20370497.55549
        49.750          41.750  
  21134736.063 7     -1237.908 7 -25193779.679 7 -19607186.36148  21134727.30948
        50.500          37.500  
  24584320.602 5     -3027.923 5  -5018524.845 5  -3894686.81347  24584311.49647
        40.750          26.500  
 11  3 24  0  4 30.0000000  0 11G03G04G06G07G10G13G16G20G23G30G31   
  24724157.664 1      2997.578 1  -8213830.493 1  -6793385.26045  24724152.25045
        31.750          17.250  
  24811727.914 5      -720.677 5  -1776731.980 5  -4363027.45746  24811721.27046
        39.750          22.000  
  24874314.414 5      2465.649 5   -141826.445 5  -4996871.34146  24874308.23846
        42.000          19.250  
  24239642.266 6      2867.049 6  -2284350.601 6  -8409773.55847  24239634.62547
        43.250          27.250  
  25092294.852 1      3398.766 1  -1003086.336 1   -761266.94145  25092286.27345
        33.500          18.250  
  22007222.008 7      2450.040 7 -12683320.123 7  -9854730.00148  22007212.43448
        48.500          34.000  
  20913789.578 7       137.924 7 -24081888.702 7 -18731692.49948  20913779.94548
        49.500          39.500  
  20943559.914 7     -1880.389 7 -22119133.353 7 -19893006.11848  20943550.80948
        48.750          40.250  
  20367617.969 7      1012.983 7 -21894821.868 7 -23240197.60548  20367606.22748
        49.500          41.250  
  21138297.641 7     -1247.807 7 -25175062.570 7 -19592601.60548  21138289.06348
        50.750          37.500  
  24592960.430 5     -3027.084 5  -4973118.587 5  -3859305.34247  24592952.49647
        40.000          27.000  
 11  3 24  0  4 45.0000000  0 11G03G04G06G07G10G13G16G20G23G30G31   
  24715605.625 3      2997.904 3  -8258799.047 3  -6828425.57145  24715595.11345
        35.750          17.750  
  24813807.859 5      -728.463 5  -1765805.039 5  -4354512.96746  24813800.62946
        39.250          21.500  
  24867280.625 5      2464.644 5   -178796.110 5  -5025678.88145  24867273.45345
        42.000          18.250  
  24231465.805 5      2864.518 5  -2327318.373 5  -8443254.89046  24231458.16446
        42.250          24.250  
  25082602.719 1      3395.695 1  -1054021.761 1   -800956.87245  25082592.79345
        31.250          16.750  
  22000234.344 7      2447.901 7 -12720038.644 7  -9883341.81848  22000225.29748
        49.000          34.250  
  20913426.313 7       127.299 7 -24083798.191 7 -18733180.40148  20913416.68048
        49.250          40.000  
  20948951.391 7     -1888.797 7 -22090801.403 7 -19870929.28048  20948942.16848
        49.000          40.500  
  20364740.391 7      1008.045 7 -21909942.539 7 -23251979.94448  20364729.05948
        49.750          41.000  
  21141888.609 7     -1258.026 7 -25156192.173 7 -19577897.40348  21141880.03148
        51.000          38.000  
  24601598.305 4     -3026.575 4  -4927719.955 4  -3823929.80746  24601589.90246
        39.000          24.500  
 11  3 24  0  5  0.0000000  0 11G03G04G06G07G10G13G16G20G23G30G31   
  24707042.17211      2998.84411                  -6863467.54855  24707037.63755
        32.000          17.250  
  24815910.539 5      -736.745 5  -1754753.857 5  -4345901.67546  24815903.77746
        40.250          21.500  
  24860251.406 6      2463.135 6   -215743.135 6  -5054468.74745  24860243.18045
        44.500          18.500  
  24223297.594 6      2861.480 6  -2370240.566 6  -8476700.72146  24223290.12946
        42.500          25.250  
  25072919.35911      3390.45311                  -2068204.86055  25072910.25455
        28.750          15.500  
  21993254.672 7      2445.251 7 -12756717.407 7  -9911922.65848  21993245.44948
        48.500          34.250  
  20913094.773 7       116.171 7 -24085540.755 7 -18734538.24348  20913085.25848
        48.250          40.250  
  20954368.102 7     -1897.690 7 -22062336.052 7 -19848748.50048  20954358.82048
        48.500          38.750  
  20361878.727 7      1002.598 7 -21924981.515 7 -23263698.62448  20361866.80948
        50.500          41.250  
  21145510.313 7     -1268.743 7 -25137161.036 7 -19563067.94948  21145501.55948
        51.000          38.500  
  24610238.711 5     -3026.564 5  -4882321.499 5  -3788554.42347  24610231.18847
        39.500          26.750  
 11  3 24  0  5 15.0000000  0 10G03G04G06G07G13G16G20G23G30G31      
  24698480.82811      2999.53111                  -6898523.32155  24698476.93855
        30.000          18.250  
  24818033.977 5      -743.901 5  -1743595.345 5  -4337206.75346  24818026.80546
        40.750          21.500  
  24853219.797 6      2462.696 6   -252683.569 6  -5083253.51945  24853213.32845
        42.750          18.500  
  24215135.703 5      2859.546 5  -2413133.763 5  -8510123.95346  24215127.65246
        41.750          25.750  
  21986279.422 7      2443.699 7 -12793372.896 7  -9940485.35547  21986270.25847
        48.750          33.500  
  20912791.820 7       106.150 7 -24087133.006 7 -18735778.95648  20912782.07048
        49.500          39.000  
  20959807.133 7     -1905.467 7 -22033754.039 7 -19826476.81748  20959797.91048
        49.500          39.750  
  20359029.359 7       998.240 7 -21939955.119 7 -23275366.36348  20359017.61748
        50.750          41.250  
  21149159.383 7     -1278.330 7 -25117986.081 7 -19548126.43648  21149150.68848
        50.500          37.750  
  24618873.742 5     -3025.441 5  -4836939.878 5  -3753192.12446  24618864.16846
        39.250          22.500  
 11  3 24  0  5 30.0000000  0 10G03G04G06G07G13G16G20G23G30G31      
  24689922.195 3      3000.344 3  -8393757.650 3  -6933587.86246  24689913.44146
        35.750          19.000  
  24820179.328 5      -751.471 5  -1732323.274 5  -4328423.32246  24820171.92246
        40.250          22.750  
  24846193.703 6      2461.809 6   -289610.699 6  -5112027.86845  24846185.82845
        43.500          18.500  
  24206979.172 5      2857.190 5  -2455991.605 5  -8543519.62946  24206971.88346
        41.750          24.500  
  21979309.563 7      2441.712 7 -12829998.570 7  -9969024.82148  21979300.04748
        49.250          34.000  
  20912518.438 7        95.710 7 -24088568.649 7 -18736897.63248  20912508.80548
        50.000          39.500  
  20965269.609 7     -1913.646 7 -22005049.349 7 -19804109.53848  20965260.44548
        48.750          40.500  
  20356193.695 7       993.452 7 -21954856.897 7 -23286978.14349  20356181.83649
        49.500          42.000  
  21152836.430 7     -1288.331 7 -25098661.112 7 -19533068.02448  21152828.08648
        50.500          38.000  
  24627506.742 5     -3024.730 5  -4791568.922 5  -3717838.18646  24627500.85946
        39.250          25.500  
 11  3 24  0  5 45.0000000  0 10G03G04G06G07G13G16G20G23G30G31      
  24681355.242 1      3000.393 1  -8438763.545 1  -6968657.42845  24681349.30145
        33.500          17.750  
  24822346.313 5      -759.346 5  -1720933.082 5  -4319547.86246  24822339.37546
        39.500          22.250  
  24839166.141 5      2460.591 5   -326519.558 5  -5140788.04745  24839162.01645
        39.500          17.750  
  24198831.719 5      2854.502 5  -2498809.141 5  -8576883.90146  24198824.31346
        41.000          22.750  
  21972346.641 7      2439.401 7 -12866589.585 7  -9997537.28548  21972337.53548
        49.000          34.000  
  20912276.273 7        84.959 7 -24089843.029 7 -18737890.65148  20912266.40648
        49.000          40.000  
  20970756.094 7     -1922.120 7 -21976217.548 7 -19781643.21548  20970746.63748
        49.250          39.500  
  20353372.648 7       988.334 7 -21969681.914 7 -23298530.10148  20353360.90648
        50.500          41.000  
  21156543.680 7     -1298.633 7 -25079181.618 7 -19517889.19648  21156534.92648
        50.500          38.000  
  24636139.898 4     -3024.331 4  -4746203.964 4  -3682488.87246  24636131.73046
        39.000          23.750  
 11  3 24  0  6  0.0000000  0 10G03G04G06G07G13G16G20G23G30G31      
  24672790.070 2      3000.958 2  -8483777.917 2  -7003733.47345  24672783.48445
        34.500          17.750  
  24824536.273 5      -767.014 5  -1709427.875 5  -4310582.77646  24824529.33646
        42.000          21.500  
  24832146.680 4      2459.525 4   -363412.440 4  -5169535.78245  24832140.73845
        38.750          17.250  
  24190690.719 5      2851.997 5  -2541589.098 5  -8610218.89846  24190683.07846
        40.000          25.500  
  21965389.555 7      2437.267 7 -12903148.596 7 -10026024.80347  21965380.62547
        47.750          33.500  
  20912063.898 7        74.379 7 -24090958.710 7 -18738760.00448  20912053.97348
        51.000          39.750  
  20976266.156 7     -1930.399 7 -21947261.563 7 -19759080.11848  20976256.58248
        48.500          39.500  
  20350565.570 7       983.384 7 -21984432.678 7 -23310024.19848  20350553.71148
        50.250          41.000  
  21160278.883 7     -1308.734 7 -25059550.605 7 -19502592.30848  21160270.12948
        50.500          37.750  
  24644771.109 5     -3023.732 5  -4700847.978 5  -3647146.57546  24644763.05946
        39.500          25.250  
 11  3 24  0  6 15.0000000  0 10G03G04G06G07G13G16G20G23G30G31      
  24664223.047 3      3001.493 3  -8528800.310 3  -7038815.70745  24664215.64145
        37.000          18.250  
  24826747.008 5      -774.703 5  -1697807.331 5  -4301527.83646  24826739.95346
        41.000          20.750  
  24825131.000 4      2458.415 4   -400288.667 4  -5198270.47245  24825124.23845
        37.750          16.750  
  24182557.383 5      2849.466 5  -2584331.092 5  -8643524.30346  24182549.97746
        40.000          25.000  
  21958439.125 7      2435.092 7 -12939674.980 7 -10054486.90747  21958429.78547
        48.000          33.500  
  20911881.672 7        63.783 7 -24091915.455 7 -18739505.51148  20911872.03948
        50.500          39.500  
  20981799.891 7     -1938.698 7 -21918181.091 7 -19736420.02648  20981790.55148
        49.500          40.250  
  20347773.086 7       978.393 7 -21999108.572 7 -23321459.96548  20347761.16848
        50.750          41.250  
  21164043.531 7     -1318.843 7 -25039767.953 7 -19487177.25748  21164034.77748
        50.750          38.000  
  24653400.023 4     -3023.153 4  -4655500.677 4  -3611811.03746  24653392.79346
        37.750          25.500  
 11  3 24  0  6 30.0000000  0 11G03G04G06G07G10G13G16G20G23G30G31   
  24655649.461 1      3002.410 1  -8573836.461 1  -7073908.81146  24655645.21946
        33.000          19.000  
  24828979.602 5      -781.945 5  -1686078.154 5  -4292388.23546  24828972.13746
        40.500          20.250  
  24818117.102 4      2457.702 4   -437154.195 4  -5226996.86845  24818108.11345
        39.000          18.250  
  24174429.875 4      2847.354 4  -2627041.395 4  -8676805.00746  24174422.05946
        39.000          25.500  
  25015001.52312      3372.42212   -260004.42812                
        35.250  
  21951493.391 6      2433.326 6 -12976174.868 6 -10082928.36247  21951483.75847
        47.000          33.500  
  20911728.852 6        53.616 6 -24092719.701 6 -18740132.19048  20911718.45748
        47.500          39.750  
  20987356.148 7     -1946.542 7 -21888982.960 7 -19713668.24548  20987346.63348
        49.000          40.000  
  20344993.086 7       973.829 7 -22013716.013 7 -23332842.38349  20344981.34449
        49.000          41.750  
  21167835.664 7     -1328.514 7 -25019840.239 7 -19471649.17148  21167826.96948
        51.000          38.000  
  24662027.727 4     -3022.141 4  -4610168.556 4  -3576487.35446  24662018.91446
        38.500          22.500  
 11  3 24  0  6 45.0000000  0 11G03G04G06G07G10G13G16G20G23G30G31   
  24647079.539 1      3002.555 1  -8618874.785 1  -7109003.56546  24647075.35546
        32.500          19.500  
  24831234.383 5      -789.923 5  -1674229.314 5  -4283155.37146  24831226.74246
        41.500          20.250  
  24811105.563 5      2456.220 5   -473997.494 5  -5255705.96645  24811097.57045
        39.500          17.750  
  24166310.539 5      2844.487 5  -2669708.703 5  -8710052.22546  24166303.07446
        40.250          23.250  
  25005379.539 4      3370.786 4   -310566.214 4                
        38.000  
  21944554.516 7      2430.826 7 -13012637.253 7 -10111340.58947  21944545.52747
        48.250          33.500  
  20911606.688 6        42.703 6 -24093360.246 6 -18740631.30448  20911596.87948
        47.250          39.750  
  20992936.688 7     -1955.118 7 -21859656.194 7 -19690816.23748  20992927.75848
        47.750          39.750  
  20342228.922 7       968.511 7 -22028243.679 7 -23344162.64349  20342217.29749
        49.000          41.500  
  21171657.188 7     -1338.917 7 -24999756.480 7 -19455999.49848  21171648.84448
        51.000          37.750  
  24670651.313 3     -3021.865 3  -4564840.580 3  -3541166.88846  24670645.66446
        36.750          25.250  
 11  3 24  0  7  0.0000000  0 11G03G04G06G07G10G13G16G20G23G30G31   
  24638511.445 4      3003.004 4  -8663919.848 4  -7144103.55346  24638503.21946
        37.750          19.250  
  24833510.469 5      -797.570 5  -1662265.758 5  -4273833.12346  24833503.53146
        41.500          20.500  
  24804100.328 6      2455.033 6   -510822.986 6  -5284401.09345  24804089.52345
        43.750          17.750  
  24158198.570 4      2841.955 4  -2712338.032 4  -8743269.82146  24158191.04746
        38.750          23.500  
  24995766.328 4      3367.547 4   -361079.413 4                
        38.250  
  21937622.258 7      2428.622 7 -13049066.577 7 -10139727.05247  21937613.32847
        48.750          32.500  
  20911515.375 6        32.103 6 -24093841.788 6 -18741006.53148  20911505.56648
        47.250          40.000  
  20998541.133 6     -1963.370 6 -21830205.637 6 -19667867.75448  20998531.85248
        47.000          39.750  
  20339478.117 7       963.489 7 -22042696.014 7 -23355424.20348  20339466.37548
        48.750          41.000  
  21175508.008 7     -1348.995 7 -24979521.555 7 -19440232.01848  21175499.48848
        50.750          38.000  
  24679275.070 3     -3021.258 3  -4519521.708 3  -3505853.46646  24679267.54746
        36.500          21.500  
 11  3 24  0  7 15.0000000  0 11G03G04G06G07G10G13G16G20G23G30G31   
  24629938.547 4      3003.440 4  -8708971.453 4  -7179208.65145  24629930.26245
        38.000          18.500  
  24835808.859 5      -805.188 5  -1650187.942 5  -4264421.86046  24835802.09846
        41.500          19.750  
  24797094.602 5      2453.835 5   -547630.507 5  -5313082.28845  24797085.26245
        39.750          17.250  
  24150093.477 4      2839.423 4  -2754929.383 4  -8776457.82946  24150086.12946
        38.500          24.000  
  24986163.141 5      3364.294 5   -411543.824 5                
        40.250  
  21930696.414 7      2426.424 7 -13085462.939 7 -10168087.84647  21930686.60547
        48.500          33.250  
  20911453.852 7        21.520 7 -24094164.595 7 -18741258.06448  20911444.33648
        49.750          39.250  
  21004168.789 6     -1971.589 6 -21800631.797 6 -19644823.21948  21004159.39148
        47.500          39.500  
  20336742.484 7       958.472 7 -22057073.094 7 -23366627.12448  20336730.74248
        49.250          40.750  
  21179386.898 7     -1359.044 7 -24959135.894 7 -19424347.09148  21179378.90648
        51.000          37.500  
  24687899.031 4     -3020.650 4  -4474211.951 4  -3470547.24646  24687891.56646
        38.250          25.250  
 11  3 24  0  7 30.0000000  0 11G03G04G06G07G10G13G16G20G23G30G31   
  24621362.305 4      3003.895 4  -8754029.876 4  -7214319.08446  24621355.71946
        38.000          19.250  
  24838129.023 5      -812.748 5  -1637996.715 5  -4254922.23146  24838121.67646
        41.000          21.000  
  24790090.891 4      2452.659 4   -584420.390 4  -5341749.71745  24790084.48045
        37.500          17.250  
  24141995.711 4      2836.927 4  -2797483.291 4  -8809616.67546  24141988.18846
        39.000          23.500  
  24976569.578 5      3361.080 5   -461960.019 5                
        41.250  
  21923776.438 6      2424.260 6 -13121826.834 6 -10196423.33447  21923767.62547
        47.500          33.500  
  20911422.469 7        10.990 7 -24094329.440 7 -18741386.50048  20911412.77748
        48.250          40.250  
  21009819.656 6     -1979.740 6 -21770935.694 6 -19621683.40648  21009810.72748
        47.500          39.750  
  20334021.047 7       953.488 7 -22071375.414 7 -23377771.79049  20334009.30549
        49.000          41.750  
  21183295.023 7     -1369.028 7 -24938600.474 7 -19408345.46548  21183286.15248
        50.750          38.000  
  24696518.344 3     -3019.972 3  -4428912.363 3  -3435248.83746  24696509.23846
        36.750          21.250  
 11  3 24  0  7 45.0000000  0 11G03G04G06G07G10G13G16G20G23G30G31   
  24612784.047 3      3004.257 3  -8799093.735 3  -7249433.75646  24612780.21546
        35.750          19.250  
  24840470.617 5      -820.383 5  -1625690.963 5  -4245333.35646  24840463.38746
        42.000          20.500  
  24783093.563 4      2451.376 4   -621191.029 4  -5370402.07645  24783087.21145
        38.000          16.750  
  24133905.148 4      2834.337 4  -2839998.342 4  -8842745.24246  24133897.97746
        38.500          24.500  
  24966984.805 5      3357.764 5   -512326.482 5                
        42.250  
  21916863.039 7      2422.004 7 -13158156.896 7 -10224732.45947  21916854.16847
        48.000          33.500  
  20911421.367 6         0.370 6 -24094334.983 6 -18741390.81948  20911411.67648
        47.500          39.000  
  21015494.273 6     -1987.966 6 -21741116.211 6 -19598447.44948  21015484.99248
        47.250          39.000  
  20331313.961 7       948.416 7 -22085601.647 7 -23388857.16049  20331302.21949
        48.750          42.000  
  21187231.664 7     -1379.090 7 -24917914.128 7 -19392226.23848  21187222.55948
        51.000          38.000  
  24705137.477 4     -3019.377 4  -4383621.708 4  -3399957.52346  24705129.95346
        37.500          21.500  
 11  3 24  0  8  0.0000000  0 11G03G04G06G07G10G13G16G20G23G30G31   
  24604208.945 3      3004.611 3  -8844162.896 3  -7284552.54346  24604203.76646
        36.750          19.500  
  24842834.227 5      -827.970 5  -1613271.408 5  -4235655.76446  24842826.35246
        41.250          19.500  
  24776097.820 4      2450.098 4   -657942.493 4  -5399039.53145  24776093.93045
        38.500          17.250  
  24125822.094 5      2831.779 5  -2882475.031 5  -8875843.90046  24125814.51246
        39.750          24.750  
  24957410.383 5      3354.456 5   -562643.317 5                
        42.000  
  21909956.234 7      2419.766 7 -13194453.389 7 -10253015.41947  21909946.83647
        48.750          33.500  
  20911450.516 6       -10.220 6 -24094181.676 6 -18741271.34848  20911440.82448
        47.500          40.000  
  21021192.242 6     -1996.144 6 -21711174.046 6 -19575115.90948  21021183.02048
        47.250          39.500  
  20328620.922 7       943.364 7 -22099752.108 7 -23399883.49849  20328609.47349
        48.750          42.250  
  21191196.523 7     -1389.098 7 -24897077.662 7 -19375990.02948  21191187.94548
        51.000          37.500  
  24713754.719 4     -3018.736 4  -4338340.675 4  -3364673.53846  24713745.02746
        37.500          20.500  
 11  3 24  0  8 15.0000000  0 11G03G04G06G07G10G13G16G20G23G30G31   
  24595634.750 5      3004.975 5  -8889237.515 5  -7319675.60446  24595626.40646
        40.500          19.000  
  24845218.773 5      -835.511 5  -1600738.745 5  -4225890.07946  24845211.66046
        41.000          19.000  
  24769108.227 4      2448.818 4   -694674.756 4  -5427662.04445  24769104.68845
        39.000          17.750  
  24117746.016 5      2829.255 5  -2924913.862 5  -8908913.07346  24117738.96146
        40.250          26.000  
  24947845.469 6      3351.153 6   -612910.607 6                
        43.750  
  21903055.219 7      2417.553 7 -13230716.680 7 -10281272.51047  21903046.28947
        48.750          33.500  
  20911509.844 7       -20.773 7 -24093870.078 7 -18741028.52948  20911499.91848
        48.500          39.750  
  21026912.938 6     -2004.281 6 -21681109.824 6 -19551689.25148  21026903.53948
        47.000          39.250  
  20325942.813 7       938.323 7 -22113826.946 7 -23410850.89749  20325930.83649
        48.750          41.500  
  21195189.961 7     -1399.067 7 -24876091.655 7 -19359637.29348  21195181.20748
        50.750          38.000  
  24722368.656 3     -3018.069 3  -4293069.639 3  -3329397.55346  24722361.95346
        37.250          22.000  
 11  3 24  0  8 30.0000000  0 11G03G04G06G07G10G13G16G20G23G30G31   
  24587055.188 4      3005.366 4  -8934318.000 4  -7354803.29846  24587048.36746
        39.000          19.750  
  24847625.133 5      -842.985 5  -1588093.976 5  -4216037.03645  24847617.84445
        40.500          17.750  
  24762126.625 5      2447.579 5   -731388.435 5  -5456270.02745  24762117.52045
        42.250          17.750  
  24109677.578 5      2826.773 5  -2967315.461 5  -8941953.24046  24109669.93846
        40.000          25.750  
  24938288.508 6      3347.885 6   -663128.880 6                
        44.000  
  21896160.969 7      2415.374 7 -13266947.290 7 -10309504.13947  21896152.15647
        48.000          33.500  
  20911599.133 6       -31.283 6 -24093400.827 6 -18740662.87148  20911589.26648
        47.500          40.000  
  21032657.336 6     -2012.337 6 -21650924.769 6 -19528168.43548  21032647.64548
        47.000          39.000  
  20323278.703 7       933.328 7 -22127826.864 7 -23421759.91149  20323267.02049
        48.750          41.500  
  21199211.805 7     -1408.969 7 -24854957.119 7 -19343168.82848  21199203.05148
        50.500          38.250  
  24730982.289 3     -3017.333 3  -4247809.645 3  -3294129.89446  24730972.18846
        36.000          19.250  
 11  3 24  0  8 45.0000000  0 11G03G04G06G07G10G13G16G20G23G30G31   
  24578475.156 4      3005.648 4  -8979402.715 4  -7389934.23046  24578468.51246
        38.750          20.250  
  24850052.836 5      -850.537 5  -1575335.917 5  -4206095.68445  24850045.48845
        40.500          17.250  
  24755141.609 4      2446.217 4   -768081.692 4  -5484862.20145  24755134.61345
        38.250          18.500  
  24101616.578 5      2824.203 5  -3009678.505 5  -8974963.36046  24101608.41046
        40.750          26.000  
  24928742.195 6      3344.500 6   -713296.384 6                
        44.750  
  21889272.891 7      2413.105 7 -13303143.868 7 -10337709.25547  21889263.55147
        49.000          33.500  
  20911718.289 6       -41.855 6 -24092773.001 6 -18740173.65248  20911708.48048
        47.500          39.750  
  21038424.406 6     -2020.471 6 -21620617.706 6 -19504552.55348  21038415.18448
        47.000          39.000  
  20320629.086 7       928.223 7 -22141750.212 7 -23432609.27349  20320617.34449
        49.000          41.750  
  21203261.883 7     -1418.950 7 -24833672.872 7 -19326583.69948  21203253.30548
        50.500          38.250  
  24739593.766 4     -3016.699 4  -4202559.162 4  -3258869.98046  24739587.12146
        38.000          25.500  
 11  3 24  0  9  0.0000000  0 11G03G04G06G07G10G13G16G20G23G30G31   
  24569893.727 4      3005.929 4  -9024491.648 4  -7425068.47446  24569887.90246
        38.500          20.000  
  24852501.391 5      -858.034 5  -1562465.402 5  -4196066.74245  24852494.68845
        41.750          18.500  
  24748167.633 6      2444.876 6   -804754.828 6  -5513438.55545  24748156.00845
        43.500          18.500  
  24093561.867 5      2821.656 5  -3052003.350 5  -9007943.70547  24093554.63747
        41.500          26.750  
  24919205.031 6      3341.131 6   -763413.352 6                
        44.250  
  21882391.430 7      2410.855 7 -13339306.696 7 -10365888.06347  21882381.50447
        49.000          33.500  
  20911867.750 6       -52.397 6 -24091987.048 6 -18739561.20948  20911858.05948
        47.250          40.500  
  21044214.836 6     -2028.551 6 -21590189.436 6 -19480842.22448  21044205.61348
        47.000          39.000  
  20317993.836 7       923.150 7 -22155597.466 7 -23443399.33748  20317982.15248
        48.750          41.250  
  21207340.602 7     -1428.882 7 -24812239.646 7 -19309882.48848  21207332.08248
        50.750          37.500  
  24748199.008 1     -3015.992 1  -4157319.288 1  -3223618.02246  24748192.71546
        33.500          19.250  
 11  3 24  0  9 15.0000000  0 11G03G04G06G07G10G13G16G20G23G30G31   
  24561313.875 4      3006.197 4  -9069584.605 4  -7460205.79346  24561307.28946
        39.000          19.250  
  24854972.664 5      -865.519 5  -1549482.613 5  -4185950.27345  24854964.84845
        40.500          18.250  
  24741191.461 5      2443.504 5   -841407.386 5  -5541999.01845  24741181.82845
        39.500          17.750  
  24085515.039 6      2819.110 6  -3094289.996 6  -9040894.28647  24085507.39847
        42.500          28.000  
  24909677.930 6      3337.734 6   -813479.355 6                
        44.000  
  21875516.078 7      2408.601 7 -13375435.716 7 -10394040.54247  21875506.68047
        49.000          33.250  
  20912047.695 6       -62.969 6 -24091042.508 6 -18738825.19348  20912038.06348
        47.500          40.250  
  21050027.930 6     -2036.615 6 -21559640.205 6 -19457037.63848  21050018.53148
        47.000          39.000  
  20315373.359 7       918.072 7 -22169368.545 7 -23454130.04649  20315361.79349
        48.750          41.500  
  21211447.594 7     -1438.793 7 -24790657.743 7 -19293065.42148  21211438.66448
        50.750          38.000  
  24756809.063 4     -3015.282 4  -4112090.054 4  -3188374.60446  24756803.18046
        38.500          24.000  
 11  3 24  0  9 30.0000000  0 11G03G04G06G07G10G13G16G20G23G30G31   
  24552733.375 5      3006.398 5  -9114680.572 5  -7495345.49446  24552726.55546
        40.750          19.500  
  24857464.203 5      -873.030 5  -1536387.168 5  -4175746.02345  24857456.21145
        41.250          18.500  
  24734219.047 4      2442.080 4   -878038.579 4  -5570542.74345  24734210.93845
        38.250          18.500  
  24077475.273 5      2816.531 5  -3136537.957 5  -9073814.72647  24077467.98447
        41.750          27.750  
  24900160.055 6      3334.284 6   -863493.619 6                
        43.500  
  21868647.500 7      2406.299 7 -13411530.199 7 -10422166.09247  21868638.45347
        49.000          33.000  
  20912258.023 6       -73.540 6 -24089939.409 6 -18737965.63048  20912247.92248
        47.500          39.750  
  21055864.711 6     -2044.699 6 -21528969.716 6 -19433138.56948  21055855.43048
        47.000          39.750  
  20312767.422 7       912.943 7 -22183062.696 7 -23464800.80749  20312755.68049
        48.750          41.500  
  21215582.789 7     -1448.732 7 -24768926.763 7 -19276132.18748  21215574.15248
        49.750          37.500  
  24765413.367 3     -3014.617 3  -4066870.792 3  -3153138.68645  24765404.26245
        37.250          17.750  
 11  3 24  0  9 45.0000000  0 11G03G04G06G07G10G13G16G20G23G30G31   
  24544150.891 5      3006.603 5  -9159779.621 5  -7530487.63246  24544144.18846
        40.500          19.500  
  24859978.609 5      -880.483 5  -1523179.921 5  -4165454.69045  24859970.26645
        41.750          18.500  
  24727252.383 2      2440.649 2   -914648.311 2  -5599069.79145  24727244.21545
        35.000          18.500  
  24069443.734 6      2813.965 6  -3178747.429 6  -9106705.17747  24069435.74247
        43.000          28.500  
  24890652.023 6      3330.843 6   -913456.258 6  -2442755.75756  24890645.43856
        43.000          22.750  
  21861785.938 7      2404.010 7 -13447590.350 7 -10450264.89947  21861775.95347
        49.000          33.500  
  20912497.461 6       -84.081 6 -24088678.193 6 -18736982.85348  20912488.12148
        47.500          40.000  
  21061723.414 6     -2052.744 6 -21498178.559 6 -19409145.47548  21061714.83648
        47.000          39.500  
  20310176.305 7       907.832 7 -22196680.176 7 -23475411.82449  20310164.27049
        50.250          42.000  
  21219746.461 7     -1458.614 7 -24747047.555 7 -19259083.45748  21219737.59048
        51.000          37.250  
  24774016.172 4     -3013.907 4  -4021662.185 4  -3117911.37246  24774010.75846
        37.500          23.500  
 11  3 24  0 10  0.0000000  0 11G03G04G06G07G10G13G16G20G23G30G31   
  24535568.281 5      3006.741 5  -9204880.736 5  -7565631.33046  24535561.75446
        40.000          19.750  
  24862512.570 5      -887.983 5  -1509860.170 5  -4155075.66145  24862505.57445
        40.250          18.500  
  24720285.617 1      2439.168 1   -951235.824 1  -5627579.41145  24720282.07845
        32.000          17.250  
  24061418.453 5      2811.359 5  -3220917.807 5  -9139565.17647  24061411.16447
        42.000          29.750  
  24881154.680 5      3327.339 5   -963366.342 5  -2481646.64846  24881147.39146
        42.250          21.500  
  21854930.555 7      2401.672 7 -13483615.423 7 -10478336.37947  21854921.21547
        49.500          33.500  
  20912768.391 7       -94.669 7 -24087258.157 7 -18735876.32348  20912758.34848
        47.750          39.750  
  21067606.297 6     -2060.812 6 -21467266.374 6 -19385058.06748  21067597.19148
        47.000          39.250  
  20307599.453 7       902.662 7 -22210220.109 7 -23485962.41848  20307587.53548
        49.250          41.250  
  21223938.180 7     -1468.529 7 -24725019.613 7 -19241918.83048  21223929.54348
        51.000          38.000  
  24782617.039 3     -3013.234 3  -3976463.672 3  -3082691.60245  24782608.63745
        37.000          18.500  
 11  3 24  0 10 15.0000000  0 11G03G04G06G07G10G13G16G20G23G30G31   
  24526985.266 5      3006.867 5  -9249983.745 5  -7600776.55245  24526979.03145
        40.250          18.500  
  24865068.883 5      -895.447 5  -1496428.471 5  -4144609.46745  24865061.18445
        41.000          17.750  
  24713328.180 2      2437.664 2   -987800.790 2  -5656071.53945  24713324.75845
        34.250          17.750  
  24053401.320 6      2808.766 6  -3263049.295 6  -9172394.85647  24053393.68047
        43.000          29.250  
  24871667.883 6      3323.824 6  -1013223.703 6  -2520496.54446  24871659.53946
        42.500          22.000  
  21848081.602 7      2399.334 7 -13519605.425 7 -10506380.51648  21848072.20348
        49.250          33.750  
  20913068.430 7      -105.246 7 -24085679.469 7 -18734646.17348  20913059.03148
        48.250          39.250  
  21073511.648 6     -2068.848 6 -21436233.659 6 -19360876.74548  21073502.48448
        47.000          39.500  
  20305037.648 7       897.496 7 -22223682.553 7 -23496452.62948  20305026.08248
        49.500          41.250  
  21228158.133 7     -1478.414 7 -24702843.398 7 -19224638.65748  21228149.55548
        51.250          38.000  
  24791217.172 5     -3012.540 5  -3931275.565 5  -3047480.27546  24791210.41046
        39.500          22.750  
 11  3 24  0 10 30.0000000  0 11G03G04G06G07G10G13G16G20G23G30G31   
  24518399.680 5      3007.032 5  -9295089.228 5  -7635923.71046  24518395.67246
        39.250          19.000  
  24867646.008 5      -902.838 5  -1482885.898 5  -4134056.78845  24867638.13345
        40.750          18.250  
  24706378.063 4      2436.183 4  -1024343.538 4  -5684546.24445  24706370.59845
        38.250          17.750  
  24045391.023 6      2806.212 6  -3305142.472 6  -9205194.69847  24045383.50047
        43.000          29.500  
  24862190.828 6      3320.354 6  -1063029.011 6  -2559305.87646  24862182.01646
        42.500          22.500  
  21841239.703 7      2397.048 7 -13555561.151 7 -10534397.95647  21841230.12947
        48.750          33.000  
  20913398.578 6      -115.763 6 -24083943.025 6 -18733293.09248  20913388.94548
        47.500          39.750  
  21079439.961 6     -2076.813 6 -21405081.468 6 -19336602.32548  21079430.50448
        47.000          39.500  
  20302490.688 7       892.373 7 -22237068.156 7 -23506882.96849  20302479.18049
        50.000          41.750  
  21232406.180 7     -1488.231 7 -24680519.931 7 -19207243.74848  21232397.54348
        50.750          37.250  
  24799811.383 2     -3011.781 2  -3886098.853 2  -3012277.66846  24799805.38346
        35.000          20.250  
 11  3 24  0 10 45.0000000  0 11G03G04G06G07G10G13G16G20G23G30G31   
  24509817.148 5      3007.162 5  -9340196.663 5  -7671072.34745  24509811.96945
        40.000          18.500  
  24870242.859 5      -910.219 5  -1469232.610 5  -4123417.83145  24870236.09845
        40.000          15.500  
  24699426.734 3      2434.698 3  -1060864.004 3  -5713003.75345  24699420.38345
        36.250          17.750  
  24037388.516 6      2803.666 6  -3347197.460 6  -9237964.76647  24037380.81647
        43.000          29.750  
  24852723.367 5      3316.860 5  -1112781.912 5  -2598074.32446  24852713.85246
        41.500          22.250  
  21834403.711 7      2394.753 7 -13591482.439 7 -10562388.55647  21834394.25447
        49.500          33.500  
