     2.11           OBSERVATION DATA    GPS(GPS)            RINEX VERSION / TYPE
cnvtToRINEX 2.11.0  Stan Thomas         26-Mar-11 14:09 UTC PGM / RUN BY / DATE 
----------------------------------------------------------- COMMENT             
LR1                                                         MARKER NAME         
LR1                                                         MARKER NUMBER       
Stan Thomas         University of Utah                      OBSERVER / AGENCY   
4644124574          NetRS               1.12                REC # / TYPE / VERS 
12532422            TRM41249.00                             ANT # / TYPE        
 -1943694.2885 -4552382.8658  4011197.9895                  APPROX POSITION XYZ 
        1.2740        0.0000        0.0000                  ANTENNA: DELTA H/E/N
     1     1     0                                          WAVELENGTH FACT L1/2
     7    C1    D1    L1    L2    P2    S1    S2            # / TYPES OF OBSERV 
  2011     3    23    15    51   45.0000000     GPS         TIME OF FIRST OBS   
  2011     3    23    23    59   45.0000000     GPS         TIME OF LAST OBS    
     0                                                      RCV CLOCK OFFS APPL 
    15                                                      LEAP SECONDS        
    25                                                      # OF SATELLITES     
   G03  1020  1020  1012   987   987  1020   987            PRN / # OF OBS      
   G04   296   296   292   260   260   296   260            PRN / # OF OBS      
   G06  1003  1003   999   957   957  1003   957            PRN / # OF OBS      
   G07   109   109   108   102   102   109   102            PRN / # OF OBS      
   G09   879   879   877   864   864   879   864            PRN / # OF OBS      
   G10     1     1     1     1     1     1     1            PRN / # OF OBS      
   G11  1193  1193  1188  1147  1147  1193  1147            PRN / # OF OBS      
   G12   388   388   379   336   336   388   336            PRN / # OF OBS      
   G13   302   302   302   275   275   302   275            PRN / # OF OBS      
   G14  1691  1691  1687  1641  1641  1691  1641            PRN / # OF OBS      
   G15   578   578   576   570   570   578   570            PRN / # OF OBS      
   G16   854   854   845   780   780   854   780            PRN / # OF OBS      
   G18  1158  1158  1153  1144  1144  1158  1144            PRN / # OF OBS      
   G19  1003  1003  1001   995   995  1003   995            PRN / # OF OBS      
   G20   921   921   919   898   898   921   898            PRN / # OF OBS      
   G21   781   781   780   770   770   781   770            PRN / # OF OBS      
   G22  1498  1498  1497  1491  1491  1498  1491            PRN / # OF OBS      
   G23   786   786   784   772   772   786   772            PRN / # OF OBS      
   G24  1276  1276  1271  1238  1238  1276  1238            PRN / # OF OBS      
   G25   789   789   784   774   774   789   774            PRN / # OF OBS      
   G26   144   144   144   144   144   144   144            PRN / # OF OBS      
   G27   772   772   769   769   769   772   769            PRN / # OF OBS      
   G29   260   260   260   260   260   260   260            PRN / # OF OBS      
   G30   863   863   862   861   861   863   861            PRN / # OF OBS      
   G31  1361  1361  1361  1345  1345  1361  1345            PRN / # OF OBS      
CARRIER PHASE MEASUREMENTS: PHASE SHIFTS REMOVED            COMMENT             
                                                            END OF HEADER       
 11  3 23 15 51 45.0000000  0 12G03G06G09G15G16G18G21G22G26G27G29G30
  23195352.46116      2766.60916  -1157282.61116   -860728.46857  23195344.00057
        43.750          27.000  
  22875862.46116      2335.82816   -958274.06416   -715546.38157  22875854.46957
        44.500          30.000  
  25645019.51615      3017.93815    564387.34915                
        39.750  
  21399347.21117      -738.28117    382808.80817    299754.52258  21399338.45758
        49.000          40.000  
  24146148.26615     -1507.78115    742454.96815    572565.12056  24146139.21956
        40.500          22.000  
  20794368.56317       843.54717   -290583.61717   -211909.73258  20794358.98858
        50.000          40.500  
  20575255.86717       253.40617    -23169.23417     -9193.25958  20575246.11758
        48.000          41.000  
  22349780.49216      2356.32816   -954956.41416   -713280.53558  22349770.80158
        47.000          34.000  
  23205889.98416     -2874.76616   1342916.70916   1026087.52157  23205882.57857
        42.500          26.500  
  24830972.71115      2015.46915     81943.88115   -540186.34455  24830967.88355
        41.500          16.750  
  22914203.43816     -3432.96916   1620427.14916   1235358.43457  22914196.26657
        46.000          32.500  
  24276130.27315     -2573.12515   1217962.38515    942135.56456  24276124.39156
        41.000          22.750  
 11  3 23 15 52  0.0000000  0 12G03G06G09G15G16G18G21G22G26G27G29G30
  23187464.500 6      2763.307 6  -1198732.212 6   -893026.86647  23187456.50847
        44.000          27.000  
  22869204.242 6      2332.523 6   -993261.916 6   -742809.63547  22869196.25047
        45.250          30.500  
  25636401.906 1      3018.289 1    519113.020 1                
        32.500  
  21401468.672 7      -743.324 7    393958.661 7    308442.71848  21401460.21148
        49.250          39.750  
  24150462.008 5     -1511.230 5    765123.411 5    590228.77846  24150452.55146
        40.000          22.500  
  20791968.867 7       840.718 7   -303194.394 7   -221736.31248  20791959.05948
        49.750          40.500  
  20574539.320 7       250.915 7    -26932.959 7    -12126.04048  20574530.39148
        48.250          40.750  
  22343061.117 6      2354.052 6   -990267.195 6   -740795.42448  22343050.78148
        47.250          34.750  
  23214107.828 6     -2878.926 6   1386100.595 6   1059737.27147  23214100.48047
        43.000          26.500  
  24825223.867 4      2013.880 4     51735.683 4   -563725.01845  24825220.27045
        39.000          17.750  
  22924008.391 6     -3434.994 6   1671952.053 6   1275507.64547  22924001.45347
        46.500          32.000  
  24283480.641 5     -2575.031 5   1256587.855 5    972233.29146  24283474.52346
        41.000          22.000  
 11  3 23 15 52 15.0000000  0 12G03G06G09G15G16G18G21G22G26G27G29G30
  23179595.219 6      2756.886 6  -1240085.497 6   -925250.20047  23179587.81347
        43.500          26.750  
  22862564.742 6      2326.192 6  -1028154.788 6   -769998.89947  22862556.34047
        44.250          30.250  
  25627785.90614      3018.64014    473824.36214   -681821.33255  25627781.95755
        39.000          13.750  
  21403618.453 7      -753.218 7    405256.927 7    317246.55848  21403610.40248
        49.500          39.750  
  24154794.469 5     -1517.903 5    787891.954 5    607970.49146  24154785.24646
        40.500          21.750  
  20789584.484 7       835.304 7   -315723.957 7   -231499.60248  20789574.44148
        49.750          40.250  
  20573837.008 7       246.155 7    -30625.287 7    -15003.18848  20573827.25848
        49.000          41.000  
  22336353.688 6      2349.761 6  -1025513.617 6   -768260.16448  22336343.46948
        47.500          34.500  
  23222349.328 6     -2887.039 6   1429406.175 6   1093481.83347  23222341.57047
        43.250          27.250  
  24819482.711 5      2010.960 5     21571.288 5   -587229.80445  24819477.94145
        39.250          15.500  
  22933823.844 6     -3438.716 6   1723532.800 6   1315700.37547  22933817.02347
        46.000          31.750  
  24290841.477 5     -2578.557 5   1295266.214 5   1002372.23746  24290834.59846
        40.250          21.750  
 11  3 23 15 52 30.0000000  0 12G03G06G09G15G16G18G21G22G26G27G29G30
  23171744.461 6      2750.472 6  -1281342.572 6   -957398.58946  23171736.82046
        44.500          26.000  
  22855942.891 6      2319.870 6  -1062952.841 6   -797114.26547  22855934.54747
        44.500          31.500  
  25619165.180 5      3020.165 5    428521.888 5   -717122.05945  25619160.05945
        39.750          17.750  
  21405796.758 7      -763.083 7    416703.174 7    326165.70748  21405788.35548
        49.500          39.000  
  24159145.953 5     -1524.517 5    810759.716 5    625789.49346  24159136.84846
        40.750          22.000  
  20787215.883 7       829.921 7   -328172.771 7   -241199.97548  20787205.95748
        50.500          40.500  
  20573147.938 7       241.401 7    -34246.299 7    -17824.76548  20573138.42248
        48.000          41.000  
  22329658.648 6      2345.510 6  -1060696.266 6   -795675.21748  22329648.54748
        47.500          34.750  
  23230612.500 6     -2895.090 6   1472832.531 6   1127320.52447  23230605.56347
        42.500          27.000  
  24813751.047 5      2008.046 5     -8549.407 5   -610700.32845  24813746.98045
        39.250          18.250  
  22943649.805 6     -3442.407 6   1775168.909 6   1355936.24247  22943643.04347
        46.750          32.000  
  24298211.047 5     -2582.031 5   1333996.678 5   1032551.77246  24298204.81346
        39.500          22.250  
 11  3 23 15 52 45.0000000  0 11G03G06G15G16G18G21G22G26G27G29G30   
  23163912.398 6      2743.876 6  -1322500.717 6   -989469.86846  23163904.23046
        44.000          26.000  
  22849340.109 6      2313.380 6  -1097653.539 6   -824153.77847  22849331.47347
        44.750          30.750  
  21408003.688 7      -773.084 7    428299.427 7    335201.74048  21407994.99248
        49.250          39.500  
  24163516.656 5     -1531.273 5    833728.804 5    643687.43046  24163508.07846
        40.000          20.750  
  20784862.469 7       824.396 7   -340538.718 7   -250835.77648  20784852.60248
        50.250          40.750  
  20572472.680 7       236.497 7    -37793.754 7    -20589.02148  20572462.87148
        48.750          40.750  
  22322976.117 7      2341.097 7  -1095812.725 7   -823038.67848  22322965.78148
        47.750          34.750  
  23238899.992 6     -2903.279 6   1516381.711 6   1161254.90347  23238892.58647
        43.500          28.000  
  24808027.844 4      2004.960 4    -38623.811 4   -634134.87845  24808023.77745
        39.000          18.250  
  22953486.523 6     -3446.222 6   1826862.236 6   1396216.69547  22953480.17247
        45.750          31.750  
  24305592.039 4     -2585.629 4   1372781.114 4   1062773.35646  24305585.27746
        38.750          22.500  
 11  3 23 15 53  0.0000000  0 11G03G06G15G16G18G21G22G26G27G29G30   
  23156098.922 6      2737.576 6  -1363564.361 6  -1021467.52047  23156089.87547
        45.250          26.500  
  22842754.086 6      2307.174 6  -1132261.153 6   -851120.74047  22842745.80147
        44.000          31.000  
  21410237.781 7      -782.778 7    440041.103 7    344351.09048  21410229.08648
        48.750          39.500  
  24167906.086 5     -1537.715 5    856794.531 5    661660.70046  24167897.68446
        40.500          22.500  
  20782523.930 7       819.167 7   -352826.218 7   -260410.45148  20782514.64848
        50.250          40.500  
  20571810.930 7       231.889 7    -41272.093 7    -23299.41748  20571801.23848
        49.000          41.000  
  22316305.172 6      2336.979 6  -1130867.412 6   -850354.01348  22316295.24648
        47.500          34.750  
  23247208.914 6     -2911.137 6   1560048.759 6   1195281.14747  23247202.38747
        43.500          27.750  
  24802314.039 5      2002.148 5    -68656.029 5   -657536.59145  24802308.15645
        40.000          18.250  
  22963334.000 6     -3449.713 6   1878607.932 6   1436537.95147  22963327.29747
        46.500          32.750  
  24312981.203 3     -2588.886 3   1411614.399 3   1093033.00346  24312975.08646
        36.500          20.750  
 11  3 23 15 53 15.0000000  0 11G03G06G15G16G18G21G22G26G27G29G30   
  23148302.969 6      2731.096 6  -1404530.800 6  -1053389.42347  23148293.80547
        44.500          27.250  
  22836186.695 6      2300.797 6  -1166773.102 6   -878013.18247  22836178.29347
        45.500          30.500  
  21412500.313 7      -792.613 7    451930.293 7    353615.39348  21412491.67648
        48.750          39.500  
  24172313.719 5     -1544.270 5    879958.584 5    679710.59046  24172306.02046
        40.000          21.500  
  20780200.992 7       813.790 7   -365033.072 7   -269922.27948  20780191.77048
        50.500          40.750  
  20571162.805 7       227.111 7    -44678.751 7    -25953.96148  20571152.87948
        48.000          41.000  
  22309646.633 7      2332.711 7  -1165858.082 7   -877619.44748  22309636.59048
        48.500          35.000  
  23255541.430 6     -2919.121 6   1603835.571 6   1229400.69547  23255533.84847
        43.000          27.500  
  24796606.938 5      1999.168 5    -98643.546 5   -680903.37545  24796601.75845
        39.500          17.250  
  22973191.383 6     -3453.338 6   1930408.001 6   1476901.56547  22973184.21147
        46.000          32.250  
  24320381.109 2     -2592.276 2   1450498.538 2   1123332.30246  24320374.75846
        35.250          19.500  
 11  3 23 15 53 30.0000000  0 12G03G06G14G15G16G18G21G22G26G27G29G30
  23140525.133 6      2724.674 6  -1445400.915 6  -1085236.25847  23140516.78947
        44.000          27.000  
  22829637.344 6      2294.481 6  -1201190.320 6   -904831.79247  22829629.11747
        45.500          30.750  
  25404560.22711      3736.62511    602419.11011                
        31.750  
  21414790.406 6      -802.361 6    463965.706 6    362993.63448  21414782.12148
        46.250          40.250  
  24176740.375 5     -1550.742 5    903219.720 5    697836.10946  24176732.67646
        39.750          21.750  
  20777893.461 7       808.501 7   -377160.581 7   -279372.29748  20777883.35948
        50.250          40.000  
  20570528.000 6       222.420 6    -48015.056 6    -28553.68048  20570518.19148
        46.250          41.000  
  22303000.930 7      2328.516 7  -1200785.817 7   -904835.84848  22302990.47748
        48.250          35.000  
  23263896.336 6     -2926.990 6   1647740.425 6   1263612.22647  23263889.57447
        43.000          26.500  
  24790909.906 4      1996.233 4   -128587.040 4   -704235.98645  24790903.37945
        38.750          16.250  
  22983058.469 6     -3456.866 6   1982260.995 6   1517306.43747  22983051.88347
        46.750          32.750  
  24327789.789 1     -2595.553 1   1489431.838 1   1153669.88245  24327782.96945
        31.750          16.250  
 11  3 23 15 53 45.0000000  0 12G03G06G14G15G16G18G21G22G26G27G29G30
  23132767.031 6      2718.147 6  -1486173.123 6  -1117006.80247  23132758.51247
        44.500          26.750  
  22823106.164 6      2288.065 6  -1235511.294 6   -931575.40247  22823097.76247
        44.250          30.750  
  25393892.56311         0.00011  -1029055.81911                
        32.250  
  21417108.805 6      -812.184 6    476148.462 6    372486.68048  21417100.05148
        47.250          39.500  
  24181185.297 5     -1557.274 5    926578.832 5    716037.97146  24181177.07046
        40.000          21.500  
  20775600.969 7       803.136 7   -389207.622 7   -288759.59548  20775591.33648
        50.000          40.250  
  20569906.742 6       217.622 6    -51279.391 6    -31097.32848  20569896.93448
        46.500          41.000  
  22296366.719 7      2324.226 7  -1235649.207 7   -932002.12348  22296355.68048
        47.750          35.500  
  23272273.945 6     -2934.921 6   1691764.234 6   1297916.44647  23272266.94947
        43.000          27.000  
  24785220.641 5      1993.197 5   -158484.997 5   -727533.05045  24785214.28945
        39.500          16.750  
  22992936.383 6     -3460.464 6   2034167.959 6   1557753.35347  22992929.79747
        46.750          33.250  
  24335206.70311     -2600.31311                    -43553.49855  24335201.64155
        27.500          16.750  
 11  3 23 15 54  0.0000000  0 11G03G06G14G15G16G18G21G22G26G27G29   
  23125027.336 6      2711.541 6  -1526846.244 6  -1148700.14347  23125018.46547
        44.500          26.500  
  22816593.664 6      2281.569 6  -1269734.831 6   -958243.09547  22816585.67247
        43.500          31.000  
  25383223.594 1      3737.968 1  -1085125.340 1                
        31.500  
  21419455.102 7      -822.062 7    488479.386 7    382095.18748  21419446.99248
        48.000          39.500  
  24185649.422 5     -1563.835 5    950036.362 5    734316.55146  24185641.25446
        40.500          21.750  
  20773323.750 7       797.710 7   -401173.273 7   -298083.47948  20773314.41048
        50.500          40.500  
  20569299.500 6       212.761 6    -54470.799 6    -33584.14548  20569289.63348
        47.500          41.000  
  22289744.430 7      2319.888 7  -1270447.526 7   -959117.68448  22289733.50848
        48.250          35.000  
  23280673.883 6     -2942.898 6   1735907.700 6   1332313.91547  23280666.77047
        42.750          27.750  
  24779539.656 4      1990.076 4   -188336.137 4   -750793.68545  24779533.89145
        38.500          16.750  
  23002824.055 6     -3464.096 6   2086129.397 6   1598242.72247  23002817.58647
        46.500          33.000  
 11  3 23 15 54 15.0000000  0 11G03G06G14G15G16G18G21G22G26G27G29   
  23117305.906 6      2704.987 6  -1567421.046 6  -1180316.86347  23117297.15247
        43.500          26.500  
  22810099.656 6      2275.131 6  -1303861.803 6   -984835.53847  22810091.60547
        44.750          31.500  
  25372551.625 1      3738.999 1  -1141210.331 1                
        32.250  
  21421829.766 7      -831.853 7    500957.180 7    391818.14048  21421821.24648
        47.750          39.500  
  24190131.336 5     -1570.308 5    973590.980 5    752670.78046  24190123.05146
        40.000          21.000  
  20771062.211 7       792.366 7   -413058.761 7   -307344.89548  20771052.46148
        49.750          40.500  
  20568706.047 6       207.959 6    -57590.178 6    -36014.84048  20568695.82848
        47.250          41.000  
  22283134.234 6      2315.618 6  -1305181.799 6   -986183.33848  22283123.60548
        47.500          34.500  
  23289097.031 6     -2950.768 6   1780169.215 6   1366803.37647  23289089.33247
        43.250          26.500  
  24773867.195 4      1987.008 4   -218141.251 4   -774018.42545  24773861.72345
        38.500          17.250  
  23012722.203 6     -3467.633 6   2138143.891 6   1638773.43047  23012715.73447
        46.000          32.500  
 11  3 23 15 54 30.0000000  0 11G03G06G14G15G16G18G21G22G26G27G29   
  23109603.445 6      2698.376 6  -1607896.683 6  -1211856.31647  23109594.45747
        43.500          26.750  
  22803623.578 6      2268.646 6  -1337891.497 6  -1011352.19547  22803615.52747
        43.750          31.500  
  25361876.000 1      3739.965 1  -1197309.813 1                
        33.000  
  21424232.273 7      -841.666 7    513582.177 7    401655.79648  21424223.57848
        49.250          39.500  
  24194632.273 5     -1576.792 5    997242.857 5    771100.78346  24194623.98846
        39.500          21.500  
  20768815.563 7       786.991 7   -424863.627 7   -316543.49748  20768806.34048
        49.500          40.000  
  20568126.109 6       203.120 6    -60636.978 6    -38388.98348  20568116.00848
        47.500          41.250  
  22276536.875 6      2311.312 6  -1339851.477 6  -1013198.65948  22276526.42248
        47.500          34.250  
  23297542.266 6     -2958.641 6   1824548.836 6   1401384.83847  23297534.74247
        43.500          27.000  
  24768203.227 3      1983.889 3   -247899.590 3   -797206.77345  24768199.98045
        37.000          17.750  
  23022631.141 6     -3471.188 6   2190211.706 6   1679345.69447  23022624.26247
        46.750          32.500  
 11  3 23 15 54 45.0000000  0 11G03G06G14G15G16G18G21G22G26G27G29   
  23101920.148 6      2691.755 6  -1648273.002 6  -1243318.37447  23101911.57047
        44.250          27.000  
  22797166.320 6      2262.145 6  -1371823.677 6  -1037792.85547  22797158.79747
        44.750          30.500  
  25351197.680 1      3740.927 1  -1253423.716 1                
        33.500  
  21426662.813 6      -851.462 6    526354.105 6    411607.94448  21426654.05948
        46.500          39.500  
  24199151.758 5     -1583.240 5   1020991.454 5    789606.12246  24199143.47346
        39.750          21.500  
  20766584.969 7       781.623 7   -436587.968 7   -325679.34548  20766575.45348
        50.250          40.500  
  20567560.352 6       198.277 6    -63611.135 6    -40706.51348  20567550.13348
        46.250          41.250  
  22269951.914 7      2307.007 7  -1374456.580 7  -1040163.66348  22269940.75848
        47.750          35.000  
  23306009.531 6     -2966.469 6   1869045.868 6   1436057.82747  23306002.53547
        42.500          27.750  
  24762548.477 3      1980.753 3   -277610.881 3   -820358.41045  24762546.22745
        36.750          16.750  
  23032548.852 6     -3474.713 6   2242332.405 6   1719959.16147  23032541.62147
        46.000          33.000  
 11  3 23 15 55  0.0000000  0 12G03G06G14G15G16G18G21G22G26G27G29G30
  23094256.063 6      2685.077 6  -1688549.157 6  -1274702.40346  23094247.30946
        44.500          26.250  
  22790728.227 6      2255.593 6  -1405657.572 6  -1064156.92047  22790719.82447
        43.000          31.500  
  25340516.219 2      3741.833 2  -1309551.203 2                
        34.250  
  21429121.547 7      -861.291 7    539273.467 7    421674.97348  21429112.67648
        48.250          39.750  
  24203689.492 5     -1589.722 5   1044837.277 5    808187.24446  24203681.20746
        39.750          21.250  
  20764369.219 7       776.228 7   -448231.383 7   -334752.14448  20764359.46948
        50.000          40.250  
  20567008.141 7       193.391 7    -66512.000 7    -42966.93248  20566998.21548
        48.750          41.000  
  22263379.273 7      2302.660 7  -1408996.479 7  -1067077.85848  22263368.93848
        48.500          34.750  
  23314499.297 6     -2974.327 6   1913660.779 6   1470822.66147  23314492.06647
        42.500          27.750  
  24756905.039 4      1977.556 4   -307274.223 4   -843472.70245  24756901.14845
        37.750          16.750  
  23042477.016 6     -3478.247 6   2294506.116 6   1760613.94547  23042470.02047
        46.250          32.500  
  24372440.11711     -2616.62511   -634653.39511                
        33.250  
 11  3 23 15 55 15.0000000  0 12G03G06G14G15G16G18G21G22G26G27G29G30
  23086610.094 6      2678.480 6  -1728726.351 6  -1306009.30247  23086602.04347
        43.750          27.500  
  22784308.773 6      2249.127 6  -1439394.483 6  -1090445.42947  22784300.13747
        44.000          30.750  
  25329833.32011      3742.73811  -1365693.60511                
        32.250  
  21431607.305 7      -871.009 7    552338.602 7    431855.59348  21431598.96148
        48.250          39.250  
  24208244.578 5     -1596.080 5   1068778.471 5    826842.70646  24208236.82046
        41.000          21.250  
  20762168.477 7       770.931 7   -459795.353 7   -343763.02548  20762159.07848
        50.250          40.750  
  20566469.727 7       188.602 7    -69341.025 7    -45171.36948  20566459.56648
        48.750          41.250  
  22256818.984 7      2298.413 7  -1443472.667 7  -1093942.41048  22256808.53148
        48.000          35.250  
  23323011.609 6     -2982.051 6   1958391.545 6   1505677.75447  23323004.20347
        42.500          27.000  
  24751269.781 3      1974.435 3   -336890.748 3   -866550.53945  24751265.48045
        36.500          18.250  
  23052415.391 6     -3481.668 6   2346731.140 6   1801308.71147  23052408.74647
        46.750          33.000  
  24379914.773 2     -2618.410 2   -595377.243 2     85840.63256  24379908.24656
        34.000          20.000  
 11  3 23 15 55 30.0000000  0 12G03G06G14G15G16G18G21G22G26G27G29G30
  23078983.758 6      2671.836 6  -1768803.897 6  -1337238.53946  23078975.82446
        43.750          26.000  
  22777907.055 6      2242.607 6  -1473033.582 6  -1116657.71447  22777898.94547
        44.750          30.250  
  25319146.797 2      3743.762 2  -1421850.035 2                
        34.750  
  21434121.500 7      -880.754 7    565549.911 7    442150.11248  21434112.86348
        48.000          39.250  
  24212819.648 5     -1602.441 5   1092815.082 5    845572.49546  24212811.07046
        40.750          22.000  
  20759983.336 7       765.603 7   -471279.402 7   -352711.63048  20759973.70348
        50.000          40.750  
  20565945.305 7       183.769 7    -72097.559 7    -47319.32848  20565935.78948
        48.000          41.250  
  22250269.945 7      2294.127 7  -1477884.575 7  -1120756.87448  22250259.66848
        47.750          34.500  
  23331545.750 6     -2989.778 6   2003238.219 6   1540623.18147  23331538.34447
        42.500          27.250  
  24745645.063 4      1971.254 4   -366459.563 4   -889591.22646  24745638.18446
        38.000          19.000  
  23062363.453 6     -3485.101 6   2399007.653 6   1842043.59247  23062356.34047
        46.250          32.000  
  24387397.781 3     -2621.523 3   -556054.405 3    116481.72146  24387391.37146
        36.250          19.750  
 11  3 23 15 55 45.0000000  0 12G03G06G14G15G16G18G21G22G26G27G29G30
  23071376.266 6      2665.148 6  -1808781.118 6  -1368389.62247  23071368.39147
        43.500          28.000  
  22771524.430 6      2236.041 6  -1506574.203 6  -1142793.27047  22771516.26247
        44.500          30.750  
  25308458.53112      3744.78612  -1478019.74812                
        35.000  
  21436663.023 7      -890.508 7    578907.534 7    452558.64248  21436654.79748
        48.750          39.500  
  24217411.531 5     -1608.797 5   1116947.038 5    864376.58646  24217403.89146
        41.750          22.750  
  20757813.063 7       760.264 7   -482683.356 7   -361597.83448  20757803.43048
        50.500          40.500  
  20565434.359 7       178.896 7    -74781.001 7    -49410.32448  20565424.25848
        48.750          41.000  
  22243734.211 7      2289.825 7  -1512231.946 7  -1147521.04448  22243723.75848
        47.750          35.250  
  23340102.773 6     -2997.509 6   2048200.856 6   1575658.96547  23340094.31347
        44.000          27.250  
  24740025.211 2      1968.030 2   -395980.017 2   -912594.18045  24740021.49645
        35.000          18.250  
  23072321.063 6     -3488.539 6   2451335.743 6   1882818.67447  23072314.59447
        46.500          33.000  
  24394889.523 4     -2624.644 4   -516684.746 4    147159.32046  24394883.52346
        37.500          20.500  
 11  3 23 15 56  0.0000000  0 12G03G06G14G15G16G18G21G22G26G27G29G30
  23063788.094 6      2658.453 6  -1848657.910 6  -1399462.44047  23063780.98047
        43.750          26.750  
  22765160.570 6      2229.486 6  -1540016.497 6  -1168852.20247  22765152.52047
        44.000          31.500  
  25297766.586 2      3745.553 2  -1534203.035 2                
        35.250  
  21439232.938 7      -900.233 7    592411.035 7    463080.84648  21439224.47748
        48.500          39.000  
  24222021.656 5     -1615.112 5   1141173.715 5    883254.47746  24222014.07446
        41.000          23.250  
  20755658.164 7       754.957 7   -494007.713 7   -370422.00848  20755648.53148
        50.000          40.750  
  20564937.625 7       174.040 7    -77391.597 7    -51444.56748  20564927.46548
        49.500          41.000  
  22237210.086 6      2285.536 6  -1546514.990 6  -1174235.08948  22237200.51248
        46.500          35.500  
  23348680.828 6     -3005.186 6   2093278.640 6   1610784.47046  23348672.71946
        43.000          26.250  
  24734416.023 2      1964.800 2   -425452.023 2   -935559.42046  24734412.95346
        35.500          19.250  
  23082288.625 6     -3491.939 6   2503714.835 6   1923633.48647  23082281.92247
        47.000          31.000  
  24402390.391 4     -2627.709 4   -477269.106 4    177872.75046  24402384.39146
        38.000          22.500  
 11  3 23 15 56 15.0000000  0 12G03G06G14G15G16G18G21G22G26G27G29G30
  23056219.094 6      2651.685 6  -1888433.186 6  -1430456.15246  23056211.62946
        43.500          25.000  
  22758815.789 5      2222.862 5  -1573359.431 5  -1194833.71547  22758807.38747
        42.000          31.000  
  25287074.070 2      3746.367 2  -1590398.541 2                
        35.500  
  21441830.375 7      -909.995 7    606060.958 7    473717.14048  21441822.20748
        49.000          39.250  
  24226650.680 5     -1621.466 5   1165495.709 5    902206.66146  24226642.21946
        41.000          24.750  
  20753518.445 7       749.593 7   -505251.613 7   -379183.49148  20753508.75448
        50.750          40.750  
  20564454.813 7       169.120 7    -79928.403 7    -53421.30248  20564445.06348
        48.500          41.000  
  22230698.813 6      2281.190 6  -1580732.842 6  -1200898.32948  22230688.35948
        45.000          35.500  
  23357280.453 6     -3012.886 6   2138471.936 6   1646000.00047  23357272.16847
        44.000          26.500  
  24728818.344 2      1961.507 2   -454874.626 2   -958486.13745  24728813.28145
        35.500          17.250  
  23092265.445 6     -3495.374 6   2556145.444 6   1964488.44647  23092259.09447
        46.500          30.750  
  24409899.609 5     -2630.806 5   -437807.018 5    208622.36046  24409894.07846
        39.500          22.500  
 11  3 23 15 56 30.0000000  0 12G03G06G14G15G16G18G21G22G26G27G29G30
  23048669.602 6      2644.925 6  -1928107.056 6  -1461370.85446  23048661.60946
        43.000          25.500  
  22752489.641 5      2216.246 5  -1606603.119 5  -1220737.89147  22752481.47347
        41.750          30.000  
  25276377.367 3      3747.198 3  -1646606.504 3                
        36.000  
  21444456.047 7      -919.726 7    619856.849 7    484467.17848  21444447.52748
        48.500          39.500  
  24231296.305 5     -1627.775 5   1189912.328 5    921232.54646  24231288.43046
        41.250          23.750  
  20751394.258 7       744.260 7   -516415.517 7   -387882.64048  20751384.39148
        50.000          41.000  
  20563986.172 7       164.206 7    -82391.495 7    -55340.59848  20563976.12948
        48.750          41.000  
  22224199.531 6      2276.866 6  -1614885.827 6  -1227511.02848  22224189.43048
        45.500          35.500  
  23365901.742 6     -3020.539 6   2183780.017 6   1681304.95246  23365894.74646
        42.500          24.000  
  24723231.664 3      1958.200 3   -484247.619 3   -981374.16445  24723225.19545
        37.250          18.250  
  23102252.391 6     -3498.749 6   2608626.676 6   2005382.85747  23102245.51247
        46.250          31.000  
  24417418.227 5     -2633.849 5   -398299.289 5    239407.59746  24417412.16846
        40.250          25.500  
 11  3 23 15 56 45.0000000  0 12G03G06G14G15G16G18G21G22G26G27G29G30
  23041138.445 6      2638.192 6  -1967679.941 6  -1492206.87646  23041131.03946
        43.250          24.750  
  22746182.094 6      2209.660 6  -1639748.018 6  -1246565.09347  22746173.98447
        43.000          30.000  
  25265679.461 2      3748.060 2  -1702827.400 2                
        35.500  
  21447108.469 7      -929.403 7    633797.897 7    495330.32248  21447100.12548
        48.750          39.750  
  24235960.914 5     -1634.010 5   1214422.474 5    940331.34146  24235952.57046
        41.500          22.750  
  20749284.531 7       738.983 7   -527500.257 7   -396520.10448  20749275.42648
        50.750          41.000  
  20563531.609 7       159.366 7    -84781.981 7    -57203.32248  20563521.74248
        49.000          41.000  
  22217712.594 6      2272.592 6  -1648974.714 6  -1254073.78948  22217702.14148
        46.500          36.250  
  23374545.055 5     -3028.112 5   2229201.699 5   1716698.43647  23374537.94147
        42.000          27.500  
  24717649.172 2      1954.921 2   -513571.433 2  -1004223.97545  24717644.22745
        34.000          17.750  
  23112248.398 6     -3502.064 6   2661157.632 6   2046316.01547  23112242.16447
        46.000          31.000  
  24424944.602 5     -2636.814 5   -358747.080 5    270227.45546  24424938.66046
        41.250          25.250  
 11  3 23 15 57  0.0000000  0 12G03G06G14G15G16G18G21G22G26G27G29G30
  23033628.156 6      2631.382 6  -2007150.676 6  -1522963.29446  23033619.28546
        43.500          25.250  
  22739893.781 6      2203.008 6  -1672793.139 6  -1272314.54347  22739885.78947
        44.250          30.250  
  25254978.016 3      3748.847 3  -1759060.107 3                
        37.000  
  21449789.016 7      -939.120 7    647884.691 7    506307.03848  21449780.67248
        48.000          39.500  
  24240642.523 5     -1640.280 5   1239026.667 5    959503.39746  24240634.70746
        40.500          24.000  
  20747190.289 7       733.651 7   -538505.027 7   -405095.24248  20747180.83248
        50.500          41.000  
  20563090.523 7       154.457 7    -87098.830 7    -59008.66249  20563081.00849
        48.250          41.500  
  22211238.289 6      2268.268 6  -1682998.733 6  -1280586.00048  22211228.07048
        47.500          35.750  
  23383210.219 6     -3035.713 6   2274737.389 6   1752180.75147  23383203.10547
        43.000          27.500  
  24712080.523 2      1951.579 2   -542845.124 2  -1027034.64745  24712073.52745
        35.250          17.250  
  23122254.742 6     -3505.402 6   2713738.666 6   2087288.17947  23122248.21547
        46.000          30.750  
  24432479.617 5     -2639.802 5   -319150.049 5    301082.21846  24432473.32446
        42.000          25.500  
 11  3 23 15 57 15.0000000  0 12G03G06G14G15G16G18G21G22G26G27G29G30
  23026136.078 6      2624.563 6  -2046519.115 6  -1553640.00846  23026127.38346
        43.500          24.500  
  22733624.656 6      2196.335 6  -1705738.169 6  -1297986.00047  22733616.31347
        44.500          30.500  
  25244274.781 3      3749.622 3  -1815304.430 3                
        36.000  
  21452497.547 6      -948.822 6    662117.020 6    517397.16148  21452489.26248
        47.000          39.750  
  24245342.563 5     -1646.526 5   1263724.557 5    978748.46546  24245334.33646
        41.250          22.750  
  20745111.773 7       728.336 7   -549430.074 7   -413608.26648  20745102.14148
        50.500          40.500  
  20562663.898 7       149.534 7    -89341.838 7    -60756.46948  20562654.14848
        49.000          41.250  
  22204776.016 7      2263.929 7  -1716957.662 7  -1307047.48448  22204765.62148
        48.000          35.750  
  23391896.977 5     -3043.289 5   2320386.721 5   1787751.61646  23391889.51246
        42.250          25.750  
  24706518.477 3      1948.200 3   -572068.120 3  -1049805.78345  24706513.59045
        37.000          16.250  
  23132270.039 6     -3508.725 6   2766369.540 6   2128299.18747  23132263.27747
        45.250          31.000  
  24440022.852 6     -2642.766 6   -279508.558 6    331971.65346  24440016.79346
        43.000          25.250  
 11  3 23 15 57 30.0000000  0 12G03G06G14G15G16G18G21G22G26G27G29G30
  23018664.492 6      2617.719 6  -2085784.897 6  -1584236.71546  23018654.97746
        43.500          23.000  
  22727374.484 6      2189.653 6  -1738582.965 6  -1323579.35647  22727366.55147
        44.500          31.500  
  25233571.359 3      3750.369 3  -1871559.961 3                
        36.750  
  21455233.492 7      -958.520 7    676494.818 7    528600.62748  21455225.14848
        48.000          39.500  
  24250061.273 5     -1652.751 5   1288515.817 5    998066.29046  24250052.34446
        41.250          24.750  
  20743047.891 7       723.025 7   -560275.445 7   -422059.20948  20743037.90648
        50.500          40.500  
  20562251.078 7       144.594 7    -91510.741 7    -62446.53248  20562241.38748
        49.000          41.000  
  22198326.188 7      2259.596 7  -1750851.606 7  -1333458.34448  22198315.61748
        48.250          36.000  
  23400606.117 5     -3050.826 5   2366149.118 5   1823410.59446  23400598.12546
        42.250          25.750  
  24700965.953 2      1944.806 2   -601240.217 2  -1072537.26045  24700961.65245
        34.750          16.250  
  23142295.023 6     -3512.021 6   2819049.848 6   2169348.70247  23142288.14547
        46.000          29.500  
  24447575.281 6     -2645.693 6   -239823.164 6    362895.29147  24447568.81347
        43.750          26.750  
 11  3 23 15 57 45.0000000  0 12G03G06G14G15G16G18G21G22G26G27G29G30
  23011211.750 6      2610.845 6  -2124947.567 6  -1614753.09546  23011202.52746
        43.500          22.750  
  22721143.734 6      2182.930 6  -1771326.910 6  -1349094.11647  22721135.85947
        45.250          31.250  
  25222863.570 2      3751.084 2  -1927826.223 2                
        35.250  
  21457997.406 6      -968.216 6    691018.056 6    539917.42848  21457989.12148
        47.500          39.250  
  24254796.055 5     -1658.971 5   1313400.384 5   1017456.83246  24254787.30146
        41.250          24.000  
  20740999.438 7       717.695 7   -571040.877 7   -430447.85548  20740989.51248
        50.500          40.750  
  20561852.531 7       139.647 7    -93605.446 7    -64078.77548  20561842.78148
        49.000          40.750  
  22191888.313 6      2255.251 6  -1784680.367 6  -1359818.40048  22191878.38748
        47.500          35.750  
  23409335.672 6     -3058.354 6   2412024.435 6   1859157.54846  23409327.91446
        43.000          24.000  
  24695422.352 2      1941.377 2   -630360.874 2  -1095228.72245  24695420.80545
        34.000          17.750  
  23152329.164 6     -3515.313 6   2871779.537 6   2210436.71247  23152322.52047
        45.750          30.750  
  24455135.406 6     -2648.614 6   -200093.948 6    393853.07647  24455129.40647
        43.250          26.500  
 11  3 23 15 58  0.0000000  0 12G03G06G14G15G16G18G21G22G26G27G29G30
  23003778.813 6      2603.974 6  -2164007.175 6  -1645189.14346  23003770.05946
        43.250          23.250  
  22714932.031 6      2176.225 6  -1803970.290 6  -1374530.51647  22714923.80547
        45.500          30.750  
  25212154.492 3      3751.818 3  -1984103.496 3                
        36.000  
  21460788.453 7      -977.877 7    705686.212 7    551347.14248  21460780.05148
        48.750          39.750  
  24259549.320 5     -1665.137 5   1338377.443 5   1036919.44846  24259540.91846
        41.500          22.250  
  20738965.594 7       712.398 7   -581726.839 7   -438774.58148  20738956.25448
        50.250          41.000  
  20561467.938 7       134.712 7    -95626.132 7    -65653.34248  20561458.01248
        49.000          40.750  
  22185463.859 6      2250.924 6  -1818444.227 6  -1386127.88248  22185453.46548
        47.250          35.500  
  23418086.281 5     -3065.835 5   2458011.967 5   1894991.96146  23418078.87546
        42.250          25.750  
  24689890.83612      1937.94812  -2234850.09712  -2345480.08355  24689888.76255
        34.000          17.250  
  23162371.875 6     -3518.568 6   2924558.049 6   2251562.76147  23162366.10947
        45.500          30.500  
  24462704.203 6     -2651.486 6   -160321.665 6    424844.39947  24462697.55947
        43.750          26.750  
 11  3 23 15 58 15.0000000  0 12G03G06G14G15G16G18G21G22G26G27G29G30
  22996365.805 6      2597.056 6  -2202963.022 6  -1675544.34146  22996357.28546
        42.750          24.500  
  22708739.484 6      2169.476 6  -1836512.436 6  -1399888.03947  22708731.31647
        44.500          31.500  
  25201443.344 3      3752.492 3  -2040390.872 3                
        37.000  
  21463607.563 7      -987.544 7    720499.366 7    562889.85048  21463598.80948
        49.250          39.000  
  24264319.906 5     -1671.303 5   1363446.985 5   1056454.12146  24264311.15246
        41.500          23.750  
  20736947.258 7       707.087 7   -592333.147 7   -447039.23449  20736938.03549
        50.250          41.500  
  20561097.445 7       129.748 7    -97572.350 7    -67169.88148  20561087.87148
        48.750          41.250  
  22179051.141 7      2246.579 7  -1852142.916 7  -1412386.58548  22179041.09848
        47.750          35.750  
  23426859.719 6     -3073.313 6   2504111.658 6   1930913.75646  23426852.02046
        43.500          24.500  
  24684370.078 3      1934.485 3  -2263867.373 3  -2368090.90245  24684366.83245
        35.750          18.500  
  23172425.211 6     -3521.819 6   2977385.338 6   2292726.82347  23172418.68447
        45.500          30.750  
  24470280.531 6     -2654.341 6   -120506.552 6    455869.10846  24470274.23846
        43.250          25.750  
 11  3 23 15 58 30.0000000  0 12G03G06G14G15G16G18G21G22G26G27G29G30
  22988972.102 6      2590.175 6  -2241815.654 6  -1705819.09746  22988964.34446
        43.000          25.500  
  22702566.352 6      2162.764 6  -1868953.898 6  -1425167.11247  22702557.94947
        44.250          31.750  
  25190729.914 4      3753.207 4  -2096688.981 4                
        38.000  
  21466454.016 7      -997.156 7    735456.699 7    574544.91948  21466445.08648
        49.000          39.000  
  24269107.148 5     -1677.400 5   1388607.980 5   1076060.05746  24269099.03946
        40.250          25.250  
  20734944.125 7       701.838 7   -602860.712 7   -455242.53748  20734934.31648
        50.000          40.750  
  20560740.953 7       124.819 7    -99444.642 7    -68628.82049  20560731.32049
        48.750          41.500  
  22172650.875 6      2242.272 6  -1885776.998 6  -1438594.94748  22172640.53948
        47.500          35.000  
  23435652.367 6     -3080.697 6   2550322.106 6   1966921.86846  23435644.90246
        43.500          25.500  
  24678858.438 2      1931.044 2  -2292833.038 2  -2390661.50245  24678854.78145
        35.000          17.250  
  23182487.359 6     -3524.998 6   3030260.303 6   2333928.03547  23182480.59847
        45.250          30.000  
  24477864.969 6     -2657.117 6    -80649.794 6    486926.27046  24477858.61746
        43.500          25.250  
 11  3 23 15 58 45.0000000  0 12G03G06G14G15G16G18G21G22G26G27G29G30
  22981599.273 6      2583.220 6  -2280563.953 6  -1736012.58446  22981590.81346
        43.500          25.250  
  22696412.078 6      2155.984 6  -1901293.664 6  -1450366.93247  22696403.50047
        44.000          31.500  
  25180014.867 3      3753.853 3  -2152996.769 3                
        36.750  
  21469327.375 7     -1006.809 7    750558.831 7    586312.79548  21469319.09048
        49.500          39.000  
  24273912.547 5     -1683.522 5   1413860.816 5   1095737.53846  24273904.90646
        39.250          23.750  
  20732955.961 7       696.530 7   -613308.655 7   -463383.79248  20732946.38748
        50.000          41.000  
  20560399.164 6       119.838 6   -101242.206 6    -70029.53048  20560389.18048
        47.500          41.000  
  22166263.102 6      2237.923 6  -1919345.849 6  -1464752.48148  22166252.35548
        47.500          36.000  
  23444467.938 6     -3088.118 6   2596643.876 6   2003016.69346  23444460.00446
        43.000          25.500  
  24673358.148 3      1927.534 3  -2321746.042 3  -2413191.06345  24673353.08645
        37.250          18.500  
  23192557.922 6     -3528.207 6   3083183.405 6   2375166.74547  23192551.51247
        45.000          31.000  
  24485457.250 6     -2659.924 6    -40750.929 6    518016.26046  24485451.01646
        44.250          25.500  
 11  3 23 15 59  0.0000000  0 12G03G06G14G15G16G18G21G22G26G27G29G30
  22974244.883 6      2576.268 6  -2319207.980 6  -1766124.82046  22974237.00846
        43.500          24.000  
  22690276.953 6      2149.205 6  -1933531.737 6  -1475487.51647  22690268.66847
        44.500          30.000  
  25169298.008 4      3754.502 4  -2209314.293 4                
        38.000  
  21472228.938 7     -1016.438 7    765805.398 7    598193.22348  21472220.41848
        48.500          39.250  
  24278735.703 5     -1689.605 5   1439204.888 5   1115486.12246  24278728.23846
        40.000          24.500  
  20730982.898 7       691.255 7   -623677.479 7   -471463.39648  20730973.14848
        50.000          40.500  
  20560071.156 7       114.862 7   -102965.132 7    -71372.07048  20560061.52348
        48.500          41.250  
  22159886.969 7      2233.587 7  -1952849.648 7  -1490859.33048  22159876.86748
        48.000          36.500  
  23453303.211 6     -3095.490 6   2643076.229 6   2039197.71946  23453295.80546
        42.500          24.000  
  24667865.578 3      1924.008 3  -2350606.166 3  -2435679.43245  24667861.21945
        36.000          17.750  
  23202638.398 6     -3531.379 6   3136154.087 6   2416442.53147  23202631.22747
        45.250          30.500  
  24493058.125 6     -2662.680 6      -810.727 6    549138.44646  24493051.42246
        44.500          25.500  
 11  3 23 15 59 15.0000000  0 12G03G06G14G15G16G18G21G22G26G27G29G30
  22966911.617 6      2569.291 6  -2357747.342 6  -1796155.50646  22966903.21546
        43.250          23.750  
  22684162.344 6      2142.398 6  -1965667.714 6  -1500528.54847  22684153.35547
        44.500          31.000  
  25158579.570 4      3755.108 4  -2265640.917 4  -1752646.40556  25158574.97756
        38.000          19.000  
  21475157.820 7     -1026.056 7    781196.231 7    610186.07548  21475149.00848
        47.750          39.500  
  24283576.656 5     -1695.668 5   1464639.907 5   1135305.59246  24283568.13746
        39.250          24.500  
  20729024.594 7       685.973 7   -633967.079 7   -479481.26848  20729015.37148
        50.000          40.250  
  20559757.391 7       109.868 7   -104613.151 7    -72656.24948  20559747.69948
        48.250          41.250  
  22153523.977 6      2229.234 6  -1986288.155 6  -1516915.29448  22153513.87548
        47.000          37.000  
  23462160.047 5     -3102.846 5   2689618.916 5   2075464.70446  23462152.69946
        42.000          24.750  
  24662382.164 1      1920.458 1  -2379413.041 1  -2458126.34145  24662378.91845
        33.750          18.500  
  23212727.273 6     -3534.525 6   3189171.962 6   2457755.10947  23212720.57047
        45.000          30.500  
  24500666.367 6     -2665.420 6     39170.571 6    580292.67346  24500660.48446
        45.000          25.750  
 11  3 23 15 59 30.0000000  0 12G03G06G14G15G16G18G21G22G26G27G29G30
  22959598.125 6      2562.262 6  -2396181.267 6  -1826104.03746  22959589.43046
        43.000          22.750  
  22678065.961 6      2135.563 6  -1997701.165 6  -1525489.68147  22678057.79347
        45.250          30.750  
  25147858.758 4      3755.687 4  -2321976.228 4  -1796544.06445  25147853.87145
        39.000          18.250  
  21478114.070 7     -1035.683 7    796731.474 7    622291.44348  21478105.31648
        49.250          39.500  
  24288433.109 5     -1701.735 5   1490165.929 5   1155195.97446  24288425.35246
        39.750          25.250  
  20727081.859 7       680.679 7   -644177.266 7   -487437.25748  20727072.05148
        50.250          41.000  
  20559458.250 7       104.855 7   -106185.974 7    -73881.83948  20559448.61748
        48.500          41.000  
  22147173.430 7      2224.867 7  -2019661.160 7  -1542920.22448  22147163.15248
        48.000          36.750  
  23471037.742 6     -3110.189 6   2736271.753 6   2111817.53346  23471029.69146
        42.750          22.500  
  24656912.250 3      1916.867 3  -2408166.050 3  -2480531.19546  24656908.00846
        36.500          19.250  
  23222824.977 6     -3537.682 6   3242237.192 6   2499104.57247  23222818.50847
        45.000          30.000  
  24508282.039 6     -2668.141 6     79192.683 6    611478.68246  24508276.03946
        45.000          25.250  
 11  3 23 15 59 45.0000000  0 12G03G06G14G15G16G18G21G22G26G27G29G30
  22952304.164 6      2555.267 6  -2434510.276 6  -1855970.79246  22952295.41046
        42.750          24.000  
  22671990.094 6      2128.749 6  -2029632.398 6  -1550371.16347  22671981.57447
        45.000          31.250  
  25137137.141 5      3756.295 5  -2378320.647 5  -1840448.81045  25137131.96145
        39.250          17.250  
  21481097.758 7     -1045.256 7    812410.313 7    634508.71048  21481089.12148
        49.000          39.000  
  24293307.703 5     -1707.745 5   1515782.097 5   1175156.56646  24293299.59446
        39.500          22.000  
  20725153.758 7       675.436 7   -654308.801 7   -495331.96048  20725144.41848
        50.000          41.250  
  20559173.328 6        99.874 6   -107684.077 6    -75049.20448  20559163.52048
        47.250          41.250  
  22140835.102 7      2220.542 7  -2052969.283 7  -1568874.59648  22140824.82448
        48.000          36.500  
  23479935.852 5     -3117.463 5   2783033.699 5   2148255.37446  23479929.50046
        41.500          24.750  
  24651451.875 3      1913.288 3  -2436865.373 3  -2502894.24745  24651446.69545
        35.750          18.250  
  23232931.750 6     -3540.790 6   3295349.041 6   2540490.35847  23232924.87147
        44.500          29.750  
  24515905.898 6     -2670.805 6    119254.759 6    642695.83646  24515899.78146
        43.500          24.500  
 11  3 23 16  0  0.0000000  0 12G03G06G14G15G16G18G21G22G26G27G29G30
  22945030.789 6      2548.241 6  -2472733.891 6  -1885755.44546  22945021.62546
        43.750          23.000  
  22665932.500 6      2121.903 6  -2061460.941 6  -1575172.63847  22665924.97747
        44.000          31.500  
  25126413.422 5      3756.856 5  -2434673.484 5  -1884360.09145  25126408.35945
        39.500          18.250  
  21484108.633 7     -1054.838 7    828232.876 7    646837.96648  21484099.58648
        48.750          39.000  
  24298199.867 5     -1713.751 5   1541488.362 5   1195187.38846  24298191.58246
        40.500          22.500  
  20723240.773 7       670.164 7   -664361.261 7   -503165.04848  20723230.96548
        50.000          41.000  
  20558902.625 7        94.855 7   -109106.900 7    -76157.91648  20558892.64148
        48.750          41.250  
  22134509.258 7      2216.191 7  -2086212.142 7  -1594778.10948  22134498.80548
        48.500          37.250  
  23488855.953 6     -3124.728 6   2829904.615 6   2184778.12246  23488848.25446
        42.750          22.500  
  24645998.672 1      1909.682 1  -2465510.596 1  -2525215.15046  24645995.30946
        33.500          19.000  
  23243047.453 6     -3543.887 6   3348507.345 6   2581912.35547  23243041.16047
        44.250          30.250  
  24523536.570 6     -2673.448 6    159356.475 6    673943.88646  24523531.03946
        44.750          24.250  
 11  3 23 16  0 15.0000000  0 12G03G06G14G15G16G18G21G22G26G27G29G30
  22937776.414 6      2541.171 6  -2510851.449 6  -1915457.42846  22937768.36346
        43.750          25.250  
  22659896.070 6      2115.010 6  -2093186.092 6  -1599893.52447  22659888.13747
        45.000          32.750  
  25115688.055 5      3757.378 5  -2491034.151 5  -1928277.45646  25115683.40246
        39.500          19.250  
  21487146.906 7     -1064.429 7    844199.313 7    659279.33048  21487138.27048
        49.750          39.250  
  24303109.250 5     -1719.744 5   1567284.527 5   1215288.26846  24303100.61346
        40.250          22.500  
  20721343.242 7       664.881 7   -674334.475 7   -510936.38848  20721333.55148
        50.000          41.000  
  20558645.953 7        89.817 7   -110454.162 7    -77207.73949  20558636.43849
        48.750          41.500  
  22128195.648 7      2211.815 7  -2119389.362 7  -1620630.48248  22128185.48848
        47.750          37.000  
  23497796.367 6     -3131.989 6   2876884.444 6   2221385.76346  23497787.43846
        43.000          23.500  
  24640558.336 2      1906.021 2  -2494100.914 2  -2547493.23846  24640554.91446
        35.000          20.500  
  23253172.602 6     -3546.980 6   3401712.050 6   2623370.48747  23253166.07447
        45.000          30.500  
  24531175.500 6     -2676.093 6    199497.876 6    705222.84846  24531168.97346
        45.250          22.500  
 11  3 23 16  0 30.0000000  0 12G03G06G14G15G16G18G21G22G26G27G29G30
  22930543.852 6      2534.085 6  -2548862.719 6  -1945076.59046  22930535.39146
        43.750          24.250  
  22653878.852 6      2108.130 6  -2124808.047 6  -1624534.02247  22653870.68447
        43.500          32.250  
  25104962.070 5      3757.906 5  -2547402.735 5  -1972201.01546  25104956.48046
        39.750          20.000  
  21490212.328 7     -1073.985 7    860309.082 7    671832.38648  21490203.75048
        49.250          39.500  
  24308034.555 5     -1725.689 5   1593169.868 5   1235458.64446  24308026.21146
        39.250          22.500  
  20719460.328 7       659.632 7   -684228.951 7   -518646.37248  20719450.57848
        50.750          41.000  
  20558404.313 6        84.789 6   -111725.994 6    -78198.78448  20558394.15248
        47.500          40.750  
  22121894.695 7      2207.466 7  -2152501.351 7  -1646432.01948  22121884.35948
        48.250          36.250  
  23506756.820 5     -3139.201 5   2923972.464 5   2258077.68246  23506749.12146
        41.500          22.750  
  24635126.852 2      1902.368 2  -2522636.431 2  -2569728.64946  24635124.42646
        34.250          19.250  
  23263305.320 6     -3550.026 6   3454962.446 6   2664864.24147  23263299.32047
        44.500          30.250  
  24538821.633 6     -2678.688 6    239678.199 6    736532.15146  24538814.98846
        43.250          22.750  
 11  3 23 16  0 45.0000000  0 12G03G06G14G15G16G18G21G22G26G27G29G30
  22923330.805 6      2526.974 6  -2586767.331 6  -1974612.64347  22923321.75847
        44.000          26.500  
  22647880.461 6      2101.216 6  -2156326.294 6  -1649093.69847  22647872.70347
        44.500          31.250  
  25094234.016 5      3758.400 5  -2603778.741 5  -2016130.35645  25094228.77745
        40.000          18.500  
  21493305.164 7     -1083.546 7    876562.270 7    684497.20148  21493296.76248
        49.500          39.500  
  24312977.555 5     -1731.635 5   1619144.389 5   1255698.48746  24312968.68446
        39.750          22.500  
  20717592.609 7       654.366 7   -694044.442 7   -526294.80248  20717582.97748
        50.500          41.000  
  20558176.664 7        79.742 7   -112922.122 7    -79130.84648  20558167.09048
        48.000          41.000  
  22115606.117 7      2203.088 7  -2185547.675 7  -1672182.39348  22115595.54748
        49.000          36.500  
  23515736.313 5     -3146.390 5   2971168.320 5   2294853.65146  23515729.43446
        41.000          22.750  
  24629709.617 3      1898.665 3  -2551116.400 3  -2591920.76546  24629704.61346
        36.750          19.500  
  23273447.961 6     -3553.066 6   3508258.433 6   2706393.50947  23273440.67247
        44.750          29.500  
  24546475.328 6     -2681.269 6    279897.229 6    767871.60046  24546469.21146
        42.500          22.000  
 11  3 23 16  1  0.0000000  0 12G03G06G14G15G16G18G21G22G26G27G29G30
  22916138.086 6      2519.869 6  -2624565.370 6  -2004065.67446  22916128.80546
        44.250          25.250  
  22641902.594 6      2094.307 6  -2187740.902 6  -1673572.61247  22641894.36747
        44.500          31.500  
  25083504.594 5      3758.900 5  -2660162.235 5  -2060065.52946  25083499.64846
        40.250          20.250  
  21496425.508 7     -1093.069 7    892958.307 7    697273.31448  21496416.69548
        49.000          39.250  
  24317936.516 5     -1737.555 5   1645207.710 5   1276007.53446  24317928.40646
        40.500          22.500  
  20715739.563 7       649.129 7   -703781.384 7   -533882.02649  20715730.28149
        50.000          41.500  
  20557963.133 7        74.715 7   -114042.850 7    -80004.15048  20557953.03148
        47.750          41.000  
  22109330.063 7      2198.735 7  -2218528.704 7  -1697881.87748  22109319.60948
        47.750          36.750  
  23524738.547 5     -3153.544 5   3018471.484 5   2331713.22846  23524730.43846
        41.500          22.500  
  24624301.617 3      1894.974 3  -2579541.011 3  -2614069.73746  24624295.61746
        36.500          21.000  
  23283597.867 6     -3556.074 6   3561599.547 6   2747957.94047  23283591.10547
        44.250          30.750  
  24554136.070 6     -2683.798 6    320154.204 6    799240.63246  24554129.42646
        44.500          21.500  
 11  3 23 16  1 15.0000000  0 12G03G06G14G15G16G18G21G22G26G27G29G30
  22908965.539 6      2512.723 6  -2662256.215 6  -2033435.16346  22908957.02046
        43.500          26.000  
  22635944.703 6      2087.353 6  -2219051.198 6  -1697970.26347  22635936.12547
        45.000          31.000  
  25072772.766 5      3759.332 5  -2716552.211 5  -2104005.76246  25072768.99246
        40.000          20.000  
  21499572.891 7     -1102.623 7    909497.656 7    710161.11248  21499564.25448
        49.500          39.000  
  24322913.781 5     -1743.463 5   1671359.658 5   1296385.64846  24322905.02746
        40.250          22.250  
  20713901.992 7       643.877 7   -713439.537 7   -541407.86148  20713891.89148
        50.500          41.000  
  20557764.258 7        69.651 7   -115087.617 7    -80818.26148  20557754.85948
        48.250          41.000  
  22103066.383 7      2194.356 7  -2251444.038 7  -1723530.18248  22103056.10548
        48.250          36.750  
  23533759.742 5     -3160.698 5   3065881.959 5   2368656.38946  23533753.62546
        40.000          22.000  
  24618902.156 3      1891.233 3  -2607909.502 3  -2636174.96746  24618897.50446
        36.250          20.000  
  23293756.688 6     -3559.081 6   3614985.762 6   2789557.52647  23293750.92247
        44.250          31.000  
  24561803.875 6     -2686.335 6    360449.224 6    830639.29846  24561797.28946
        44.500          20.750  
 11  3 23 16  1 30.0000000  0 12G03G06G14G15G16G18G21G22G26G27G29G30
  22901813.531 6      2505.547 6  -2699839.421 6  -2062720.78547  22901804.71947
        44.500          26.750  
  22630006.211 6      2080.391 6  -2250257.064 6  -1722286.53047  22629998.51247
        43.500          31.250  
  25062041.477 5      3759.761 5  -2772948.622 5  -2147951.00346  25062036.35546
        40.000          21.500  
  21502747.109 7     -1112.154 7    926179.966 7    723160.29648  21502738.59048
        49.500          39.500  
  24327906.930 5     -1749.352 5   1697599.936 5   1316832.57546  24327898.58646
        40.250          22.750  
  20712078.852 7       638.615 7   -723018.767 7   -548872.19548  20712069.21948
        50.500          40.750  
  20557580.383 7        64.562 7   -116056.047 7    -81572.89948  20557570.39848
        48.000          41.000  
  22096815.570 7      2189.969 7  -2284293.573 7  -1749127.21048  22096805.11748
        47.750          36.500  
