     2.11           OBSERVATION DATA    GPS(GPS)            RINEX VERSION / TYPE
cnvtToRINEX 2.11.0  Stan Thomas         26-Mar-11 14:09 UTC PGM / RUN BY / DATE 
----------------------------------------------------------- COMMENT             
CLF1                                                        MARKER NAME         
CLF1                                                        MARKER NUMBER       
Stan Thomas         University of Utah                      OBSERVER / AGENCY   
4644124574          NetRS               1.12                REC # / TYPE / VERS 
12532422            TRM41249.00                             ANT # / TYPE        
 -1924371.1437 -4553662.6514  4018740.9994                  APPROX POSITION XYZ 
        1.2560        0.0000        0.0000                  ANTENNA: DELTA H/E/N
     1     1     0                                          WAVELENGTH FACT L1/2
     7    C1    D1    L1    L2    P2    S1    S2            # / TYPES OF OBSERV 
  2011     3    24    16    14   15.0000000     GPS         TIME OF FIRST OBS   
  2011     3    24    23    33    0.0000000     GPS         TIME OF LAST OBS    
     0                                                      RCV CLOCK OFFS APPL 
    15                                                      LEAP SECONDS        
    24                                                      # OF SATELLITES     
   G03   859   859   854   782   782   859   782            PRN / # OF OBS      
   G04   208   208   194   114   114   208   114            PRN / # OF OBS      
   G06   789   789   784   748   748   789   748            PRN / # OF OBS      
   G07    50    50    47     1     1    50     1            PRN / # OF OBS      
   G09   832   832   827   785   785   832   785            PRN / # OF OBS      
   G11  1195  1195  1183  1042  1042  1195  1042            PRN / # OF OBS      
   G12   386   386   378   260   260   386   260            PRN / # OF OBS      
   G13   332   332   331   246   246   332   246            PRN / # OF OBS      
   G14  1595  1595  1594  1576  1576  1595  1576            PRN / # OF OBS      
   G15   481   481   480   467   467   481   467            PRN / # OF OBS      
   G16   689   689   686   521   521   689   521            PRN / # OF OBS      
   G18  1055  1055  1049  1006  1006  1055  1006            PRN / # OF OBS      
   G19  1036  1036  1032   978   978  1036   978            PRN / # OF OBS      
   G20   842   842   841   776   776   842   776            PRN / # OF OBS      
   G21   670   670   670   651   651   670   651            PRN / # OF OBS      
   G22  1387  1387  1383  1340  1340  1387  1340            PRN / # OF OBS      
   G23   728   728   726   673   673   728   673            PRN / # OF OBS      
   G24  1220  1220  1219  1179  1179  1220  1179            PRN / # OF OBS      
   G25   770   770   760   695   695   770   695            PRN / # OF OBS      
   G26    39    39    39    39    39    39    39            PRN / # OF OBS      
   G27   669   669   662   622   622   669   622            PRN / # OF OBS      
   G29   147   147   145   118   118   147   118            PRN / # OF OBS      
   G30   686   686   679   615   615   686   615            PRN / # OF OBS      
   G31  1269  1269  1268  1207  1207  1269  1207            PRN / # OF OBS      
CARRIER PHASE MEASUREMENTS: PHASE SHIFTS REMOVED            COMMENT             
                                                            END OF HEADER       
 11  3 24 16 14 15.0000000  0 12G03G06G09G14G15G16G18G21G22G26G27G29
  22476410.22716      1967.73416   -146035.70616    -85127.88257  22476401.41457
        43.500          28.000  
  22289092.93016      1564.06316     -6031.49616     24215.51157  22289085.05557
        45.250          32.500  
  24715667.29715      2982.10915   -400496.67315   -294960.94256  24715660.53556
        40.500          19.750  
  24351933.43814      3744.14114   -649302.45114   -484314.93256  24351927.08656
        39.000          20.000  
  21764651.74216     -1723.85916   1140000.36716    881725.55358  21764642.98858
        47.500          37.750  
  24718027.32813     -2099.46913   1276312.19013    986631.81056  24718017.52056
        37.000          19.000  
  20626726.20317       311.34417    449288.72717    360528.81458  20626715.92658
        48.750          41.250  
  20572387.55517      -291.25017    655662.17717    516139.85858  20572377.33658
        50.250          41.250  
  21720101.03117      1900.65617    -99833.65017    -53638.96358  21720090.10958
        49.500          37.750  
  24177202.74216     -3585.84416   1766227.59616   1361074.50756  24177193.69556
        45.000          23.750  
  24261306.06314      1586.46914     50203.65414     49653.90056  24261298.36356
        37.500          21.000  
  24014346.38315     -3718.79715   1824046.88115   1405056.77156  24014340.20756
        40.000          25.250  
 11  3 24 16 14 30.0000000  0 12G03G06G09G14G15G16G18G21G22G26G27G29
  22470807.398 6      1962.659 6   -175475.587 6   -108068.04647  22470799.05547
        44.750          27.750  
  22284641.594 6      1559.332 6    -29421.469 6      5989.56547  22284634.18847
        45.750          32.750  
  24707160.734 5      2980.444 5   -445203.330 5   -329797.24046  24707153.15246
        40.000          19.750  
  24341249.781 4      3742.882 4   -705445.683 4   -528062.87446  24341242.43446
        38.250          20.000  
  21769586.594 7     -1728.953 7   1165934.661 7    901934.07648  21769578.42648
        48.250          38.000  
  24724028.219 3     -2102.286 3   1307846.485 3   1011203.95745  24724018.00045
        36.500          17.750  
  20625846.586 7       308.094 7    444667.324 7    356927.71649  20625836.71949
        49.000          41.500  
  20573229.281 7      -294.867 7    660085.187 7    519586.35049  20573219.41449
        50.000          41.500  
  21714684.398 7      1897.635 7   -128298.173 7    -75819.11348  21714673.53548
        49.250          38.750  
  24187447.836 6     -3589.155 6   1820064.928 6   1403025.61746  24187439.19946
        45.500          22.000  
  24256787.602 5      1583.043 5     26458.004 5     31150.86046  24256780.43046
        39.250          21.500  
  24024965.797 5     -3720.362 5   1879852.311 5   1448541.47246  24024959.21146
        40.250          24.500  
 11  3 24 16 14 45.0000000  0 12G03G06G09G14G15G16G18G21G22G26G27G29
  22465229.836 6      1954.211 6   -204788.746 6   -130909.45047  22465221.19947
        43.000          28.750  
  22280213.609 6      1551.309 6    -52691.103 6    -12142.62947  22280205.91047
        47.000          32.500  
  24698658.906 5      2978.539 5   -489881.409 5   -364611.26746  24698651.85246
        39.500          20.000  
  24330568.703 4      3741.908 4   -761574.305 4   -571799.38846  24330562.29346
        38.750          19.000  
  21774546.820 6     -1737.508 6   1191997.275 6    922242.58948  21774537.59848
        47.500          37.750  
  24730040.656 2     -2106.550 2   1339444.732 2   1035825.89845  24730031.72745
        35.500          17.750  
  20624981.289 7       303.200 7    440119.323 7    353383.81848  20624971.53948
        48.000          41.250  
  20574087.328 7      -300.538 7    664593.255 7    523099.12649  20574077.22749
        51.000          41.750  
  21709280.742 7      1893.177 7   -156695.823 7    -97947.15248  21709269.35248
        50.000          38.000  
  24197706.602 6     -3594.357 6   1873980.286 6   1445037.50246  24197697.37946
        45.000          22.000  
  24252283.828 5      1577.748 5      2791.784 5     12709.72046  24252276.77346
        40.000          21.250  
  24035589.625 5     -3721.908 5   1935680.931 5   1492044.23046  24035582.51246
        39.500          23.500  
 11  3 24 16 15  0.0000000  0 12G03G06G09G14G15G16G18G21G22G26G27G29
  22459676.070 6      1945.752 6   -233975.031 6   -153651.98947  22459666.67247
        44.000          30.000  
  22275808.594 6      1543.271 6    -75840.168 6    -30180.87647  22275801.01247
        46.500          31.750  
  24690162.453 5      2976.610 5   -534530.564 5   -399402.72446  24690155.51646
        40.500          20.250  
  24319889.922 5      3740.914 5   -817688.022 5   -615524.31746  24319884.39146
        39.500          19.750  
  21779530.211 6     -1746.044 6   1218187.941 6    942650.89848  21779521.51648
        47.500          38.000  
  24736064.438 2     -2110.784 2   1371106.485 2   1060497.42045  24736056.97345
        35.500          17.250  
  20624129.836 7       298.323 7    435644.472 7    349896.90848  20624120.02748
        48.250          41.000  
  20574961.039 7      -306.210 7    669186.407 7    526678.19348  20574951.40648
        50.250          41.000  
  21703889.867 7      1888.711 7   -185026.489 7   -120022.99348  21703878.12548
        49.750          38.000  
  24207982.914 6     -3599.514 6   1927972.997 6   1487109.70246  24207971.93446
        44.500          22.500  
  24247794.680 5      1572.441 5    -20794.836 5     -5669.40646  24247788.15246
        41.500          22.000  
  24046218.109 4     -3723.432 4   1991532.410 4   1535564.81046  24046211.05546
        38.250          24.000  
 11  3 24 16 15 15.0000000  0 12G03G06G09G14G15G16G18G21G22G26G27G29
  22454146.258 6      1937.246 6   -263033.725 6   -176295.12847  22454137.85547
        45.000          30.000  
  22271426.414 6      1535.194 6    -98868.075 6    -48124.69547  22271418.18847
        47.250          32.000  
  24681670.906 5      2974.619 5   -579149.849 5   -434170.91546  24681664.37946
        39.250          20.000  
  24309215.781 4      3739.877 4   -873786.175 4   -659237.08846  24309209.07846
        39.000          20.500  
  21784538.789 7     -1754.594 7   1244506.855 7    963159.12248  21784529.50848
        48.250          38.000  
  24742100.945 1     -2115.012 1   1402831.670 1   1085218.27245  24742093.77345
        33.500          18.250  
  20623292.617 7       293.422 7    431243.139 7    346467.30048  20623282.57448
        48.750          41.000  
  20575851.563 7      -311.916 7    673865.147 7    530323.94948  20575841.75448
        50.500          41.000  
  21698511.211 7      1884.225 7   -213289.857 7   -142046.38348  21698500.40648
        50.250          38.750  
  24218271.391 6     -3604.692 6   1982043.378 6   1529242.40346  24218261.81646
        44.500          21.000  
  24243321.820 5      1567.085 5    -44301.119 5    -23985.91346  24243315.17646
        41.250          21.750  
  24056850.383 5     -3724.962 5   2047406.846 5   1579103.27446  24056843.85546
        39.250          23.500  
 11  3 24 16 15 30.0000000  0 12G03G06G09G14G15G16G18G21G22G26G27G29
  22448640.688 6      1928.719 6   -291964.513 6   -198838.59947  22448632.34447
        46.000          29.750  
  22267067.664 6      1527.095 6   -121774.506 6    -65973.87547  22267059.67247
        46.750          33.000  
  24673185.977 5      2972.591 5   -623738.716 5   -468915.42246  24673179.62546
        39.750          19.500  
  24298543.570 5      3738.804 5   -929868.234 5   -702937.32946  24298536.75046
        40.750          21.250  
  21789571.359 7     -1763.134 7   1270953.862 7    983767.16848  21789562.54748
        48.500          38.500  
  24748152.000 1     -2119.245 1   1434620.342 1   1109988.68445  24748143.24645
        33.750          17.250  
  20622468.914 7       288.506 7    426915.552 7    343095.14048  20622459.57448
        48.500          41.250  
  20576758.328 7      -317.643 7    678629.789 7    534036.65748  20576748.28548
        50.750          41.250  
  21693145.789 7      1879.733 7   -241485.853 7   -164017.28248  21693134.75048
        49.750          38.500  
  24228574.516 6     -3609.834 6   2036190.895 6   1571435.21246  24228564.88346
        44.500          20.500  
  24238863.813 5      1561.693 5    -67726.510 5    -42239.43746  24238857.28546
        41.000          21.500  
  24067488.055 4     -3726.481 4   2103304.068 4   1622659.49146  24067480.59046
        38.750          24.750  
 11  3 24 16 15 45.0000000  0 12G03G06G09G14G15G16G18G21G22G26G27G29
  22443160.000 6      1920.210 6   -320767.660 6   -221282.59747  22443151.12947
        46.000          29.500  
  22262731.867 6      1519.012 6   -144559.686 6    -83728.56147  22262723.52347
        47.000          32.750  
  24664707.047 5      2970.561 5   -668297.126 5   -503636.18946  24664700.28546
        39.250          19.500  
  24287874.875 5      3737.737 5   -985934.296 5   -746625.10646  24287868.28946
        39.500          21.000  
  21794628.336 7     -1771.628 7   1297528.275 7   1004474.48648  21794619.75848
        47.750          38.000  
  24754211.352 2     -2123.407 2   1466471.444 2   1134807.68445  24754203.77045
        34.250          17.250  
  20621659.281 7       283.646 7    422660.867 7    339779.79449  20621649.41449
        48.000          41.500  
  20577681.133 7      -323.349 7    683480.017 7    537816.03848  20577671.09048
        51.250          40.500  
  21687793.227 7      1875.275 7   -269614.979 7   -185936.07748  21687781.95348
        50.000          38.000  
  24238892.313 6     -3614.931 6   2090414.857 6   1613687.60046  24238883.14846
        44.250          20.250  
  24234421.586 5      1556.309 5    -91071.148 5    -60430.01746  24234414.41446
        41.500          20.750  
  24078128.594 5     -3727.953 5   2159223.367 5   1666232.89746  24078121.94946
        39.500          23.250  
 11  3 24 16 16  0.0000000  0 12G03G06G09G14G15G16G18G21G22G26G27G29
  22437702.922 6      1911.682 6   -349442.896 6   -243626.93347  22437694.81347
        46.250          30.000  
  22258419.305 7      1510.934 7   -167223.690 7   -101388.82447  22258410.96147
        47.750          33.500  
  24656232.859 4      2968.525 4   -712825.003 4   -538333.16246  24656226.68446
        38.750          19.250  
  24277208.188 5      3736.659 5  -1041984.177 5   -790300.27746  24277201.71946
        40.000          19.750  
  21799709.539 6     -1780.107 6   1324229.885 6   1025280.92248  21799700.37548
        47.500          37.750  
  24760284.016 1     -2127.533 1   1498384.442 1   1159674.95145  24760277.19545
        33.000          18.250  
  20620863.398 7       278.788 7    418479.043 7    336521.22749  20620853.53149
        47.750          41.500  
  20578620.289 7      -329.048 7    688415.734 7    541662.04648  20578610.83248
        51.000          40.500  
  21682452.664 7      1870.822 7   -297677.306 7   -207802.81748  21682441.74248
        50.250          39.000  
  24249226.914 6     -3619.983 6   2144714.602 6   1655999.02946  24249215.46546
        43.500          20.500  
  24229994.945 5      1550.917 5   -114334.906 5    -78557.58946  24229987.65646
        41.250          21.000  
  24088773.953 5     -3729.394 5   2215164.281 5   1709823.18046  24088766.72346
        39.250          24.500  
 11  3 24 16 16 15.0000000  0 12G03G06G09G14G15G16G18G21G22G26G27G29
  22432270.453 6      1903.127 6   -377989.799 6   -265871.25147  22432262.46147
        45.250          30.000  
  22254129.867 6      1502.817 6   -189765.951 6   -118954.23347  22254120.93847
        47.500          33.250  
  24647764.648 4      2966.442 4   -757321.636 4   -573005.80846  24647759.23446
        37.750          19.000  
  24266545.234 5      3735.554 5  -1098017.482 5   -833962.51246  24266539.00046
        40.250          19.750  
  21804814.508 6     -1788.561 6   1351058.296 6   1046186.17248  21804805.75448
        47.500          38.000  
  24766368.563 2     -2131.657 2   1530359.296 2   1184590.34945  24766361.44945
        34.000          16.250  
  20620081.508 7       273.924 7    414370.180 7    333319.50949  20620071.69949
        48.500          41.500  
  20579575.898 7      -334.768 7    693437.249 7    545574.91148  20579566.03148
        50.500          40.750  
  21677125.227 7      1866.362 7   -325672.737 7   -229617.43748  21677114.36348
        49.250          38.750  
  24259573.719 6     -3625.022 6   2199089.929 6   1698369.35546  24259564.32046
        42.500          20.000  
  24225582.945 5      1545.495 5   -137517.334 5    -96621.77546  24225576.24246
        40.750          21.000  
  24099423.117 5     -3730.830 5   2271126.726 5   1753430.22246  24099415.77046
        39.250          23.500  
 11  3 24 16 16 30.0000000  0 12G03G06G09G14G15G16G18G21G22G26G27G29
  22426863.195 6      1894.531 6   -406407.767 6   -288015.12647  22426855.08647
        46.000          30.500  
  22249863.797 7      1494.660 7   -212185.856 7   -136424.29248  22249855.16048
        48.250          34.000  
  24639302.891 3      2964.308 3   -801786.254 3   -607653.50345  24639297.94545
        37.000          18.250  
  24255885.430 5      3734.391 5  -1154033.354 5   -877611.17846  24255880.36746
        39.750          19.250  
  21809944.125 7     -1797.032 7   1378013.769 7   1067190.42848  21809935.25448
        48.750          37.750  
  24772464.984 1     -2135.795 1   1562396.228 1   1209554.18645  24772457.75445
        33.000          16.750  
  20619313.719 7       269.032 7    410334.705 7    330174.97448  20619303.73448
        49.000          41.000  
  20580548.164 7      -340.527 7    698545.159 7    549555.08748  20580537.94548
        50.500          41.000  
  21671810.930 7      1861.840 7   -353600.336 7   -251379.19548  21671799.89148
        49.500          39.000  
  24269935.844 6     -3630.067 6   2253540.935 6   1740798.67845  24269926.38745
        42.500          18.500  
  24221186.859 5      1540.021 5   -160617.649 5   -114621.98646  24221180.68446
        41.500          22.000  
  24110076.672 5     -3732.272 5   2327110.805 5   1797054.12946  24110069.96946
        40.500          22.500  
 11  3 24 16 16 45.0000000  0 12G03G06G09G14G15G16G18G21G22G26G27G29
  22421479.688 6      1886.000 6   -434697.769 6   -310059.28147  22421471.46147
        46.000          30.000  
  22245619.953 7      1486.573 7   -234484.457 7   -153799.83147  22245611.78547
        48.000          33.500  
  24630847.547 5      2962.208 5   -846219.369 5   -642276.65046  24630843.24646
        39.750          19.500  
  24245229.164 5      3733.293 5  -1210032.742 5   -921246.99546  24245223.51646
        40.250          19.500  
  21815097.375 7     -1805.415 7   1405094.991 7   1088292.65848  21815088.56348
        48.500          37.500  
  24778573.531 2     -2139.827 2   1594493.640 2   1234565.11845  24778564.60245
        34.750          15.500  
  20618559.641 7       264.219 7    406371.420 7    327086.69348  20618549.71548
        49.500          41.000  
  20581536.492 7      -346.213 7    703738.356 7    553601.72448  20581526.03948
        51.250          40.500  
  21666509.031 7      1857.441 7   -381461.944 7   -273089.53548  21666498.34448
        49.750          38.500  
  24280310.375 6     -3635.002 6   2308065.972 6   1783285.62246  24280303.32046
        42.500          20.000  
  24216806.719 5      1534.602 5   -183636.672 5   -132558.86946  24216800.36746
        41.000          22.000  
  24120733.922 5     -3733.612 5   2383114.988 5   1840693.68646  24120726.69146
        39.750          22.750  
 11  3 24 16 17  0.0000000  0 12G03G06G09G14G15G16G18G21G22G26G27G29
  22416120.250 6      1877.402 6   -462858.796 6   -332002.91847  22416112.60947
        45.750          29.750  
  22241400.039 7      1478.417 7   -256660.717 7   -171080.04048  22241391.69548
        48.000          34.000  
  24622399.641 5      2960.039 5   -890619.954 5   -676874.45046  24622394.34446
        40.250          19.500  
  24234576.258 5      3732.117 5  -1266014.494 5   -964869.09546  24234570.60946
        40.000          19.250  
  21820274.594 7     -1813.824 7   1432302.351 7   1109493.18248  21820266.19148
        48.000          37.500  
  24784692.852 2     -2143.879 2   1626651.818 2   1259623.38045  24784683.92245
        35.250          16.750  
  20617819.211 7       259.377 7    402480.765 7    324055.01248  20617809.16848
        48.250          41.000  
  20582540.891 7      -351.961 7    709017.778 7    557715.55148  20582530.90648
        51.500          41.000  
  21661219.828 7      1852.976 7   -409256.589 7   -294747.69748  21661209.19948
        50.250          38.250  
  24290700.469 6     -3639.969 6   2362665.510 6   1825830.69146  24290693.59046
        42.500          20.250  
  24212442.594 5      1529.116 5   -206573.412 5   -150431.62446  24212435.59846
        42.000          22.250  
  24131395.813 5     -3734.993 5   2439139.879 5   1884349.40146  24131388.28946
        39.500          22.500  
 11  3 24 16 17 15.0000000  0 12G03G06G09G14G15G16G18G21G22G26G27G29
  22410786.625 6      1868.769 6   -490890.327 6   -353845.66847  22410778.10547
        45.000          30.750  
  22237203.750 7      1470.243 7   -278714.367 7   -188264.70448  22237195.28948
        48.000          34.250  
  24613956.602 5      2957.824 5   -934987.320 5   -711446.33646  24613951.01246
        39.500          20.250  
  24223927.094 5      3730.920 5  -1321978.301 5  -1008477.18146  24223919.86346
        40.250          19.000  
  21825475.688 7     -1822.241 7   1459635.973 7   1130792.09048  21825467.34448
        48.000          37.250  
  24790825.281 2     -2147.916 2   1658870.555 2   1284728.90945  24790815.12145
        34.500          17.250  
  20617092.508 7       254.527 7    398662.857 7    321080.00748  20617082.87548
        49.000          40.750  
  20583561.828 7      -357.716 7    714383.513 7    561896.63748  20583551.60948
        51.000          40.750  
  21655943.438 7      1848.500 7   -436984.082 7   -316353.52548  21655932.57448
        49.500          38.500  
  24301105.273 5     -3644.906 5   2417339.102 5   1868433.40046  24301097.80946
        41.750          19.250  
  24208093.063 5      1523.601 5   -229427.429 5   -168239.93346  24208086.94546
        41.250          22.000  
  24142060.266 5     -3736.350 5   2495185.126 5   1928020.94946  24142053.44546
        40.750          24.500  
 11  3 24 16 17 30.0000000  0 12G03G06G09G14G15G16G18G21G22G26G27G29
  22405476.617 6      1860.159 6   -518792.709 6   -375587.78147  22405468.39147
        45.750          30.500  
  22233030.008 7      1462.089 7   -300645.705 7   -205354.05748  22233022.13348
        48.000          34.500  
  24605519.500 4      2955.625 4   -979321.689 4   -745992.53846  24605514.02746
        38.500          20.500  
  24213280.328 5      3729.727 5  -1377924.213 5  -1052071.33946  24213274.50446
        40.000          19.250  
  21830701.336 7     -1830.591 7   1487094.837 7   1152188.59548  21830692.81648
        48.500          37.000  
  24796967.063 2     -2151.884 2   1691148.816 2   1309880.72645  24796957.84045
        34.000          15.500  
  20616379.727 7       249.712 7    394917.175 7    318161.28448  20616369.91848
        50.000          40.750  
  20584599.500 7      -363.456 7    719835.357 7    566144.82048  20584589.22348
        50.750          40.750  
  21650679.633 7      1844.042 7   -464644.719 7   -337907.26848  21650668.77048
        49.500          37.750  
  24311523.078 5     -3649.787 5   2472085.906 5   1911093.19146  24311516.55146
        41.000          20.000  
  24203758.883 4      1518.096 4   -252198.876 4   -185983.89546  24203753.82046
        37.750          22.000  
  24152729.641 5     -3737.662 5   2551250.057 5   1971707.85146  24152722.35246
        41.500          22.750  
 11  3 24 16 17 45.0000000  0 12G03G06G09G14G15G16G18G21G22G26G27G29
  22400191.672 6      1851.508 6   -546565.332 6   -397228.77847  22400183.62147
        46.500          30.500  
  22228879.977 7      1453.896 7   -322454.151 7   -222347.66148  22228872.04348
        49.000          35.000  
  24597089.328 5      2953.370 5  -1023622.245 5   -780512.38946  24597084.20746
        39.750          19.500  
  24202637.609 5      3728.484 5  -1433851.468 5  -1095650.97745  24202631.02345
        40.500          17.750  
  21835950.578 7     -1838.956 7   1514679.182 7   1173682.87748  21835942.23448
        48.750          37.250  
  24803119.477 2     -2155.875 2   1723486.948 2   1335079.24945  24803111.19145
        34.000          16.250  
  20615680.727 7       244.877 7    391244.018 7    315299.07548  20615670.80148
        49.250          41.000  
  20585653.508 7      -369.232 7    725373.834 7    570460.50748  20585643.75848
        51.000          40.250  
  21645428.742 7      1839.565 7   -492238.198 7   -359408.67648  21645418.23048
        49.750          38.000  
  24321954.992 5     -3654.663 5   2526905.850 5   1953809.96546  24321947.93846
        40.750          20.000  
  24199442.914 5      1512.544 5   -274887.029 5   -203662.97846  24199436.09446
        40.750          22.500  
  24163402.758 5     -3738.986 5   2607334.839 5   2015410.22246  24163395.00046
        41.750          26.000  
 11  3 24 16 18  0.0000000  0 12G03G06G09G14G15G16G18G21G22G26G27G29
  22394931.258 6      1842.806 6   -574207.416 6   -418768.06147  22394923.61747
        45.000          30.000  
  22224753.438 7      1445.653 7   -344138.944 7   -239244.90648  22224744.97748
        49.000          35.000  
  24588666.344 5      2951.043 5  -1067887.885 5   -815005.03046  24588660.52046
        40.000          20.250  
  24191998.352 4      3727.183 4  -1489759.217 4  -1139215.39046  24191991.94146
        39.000          19.750  
  21841223.867 7     -1847.346 7   1542389.368 7   1195275.21648  21841215.05548
        48.500          37.250  
  24809284.617 1     -2159.881 1   1755885.164 1   1360324.59645  24809276.74245
        32.000          16.750  
  20614995.570 7       239.999 7    387644.038 7    312493.88948  20614985.23448
        48.750          40.500  
  20586723.914 7      -375.048 7    730999.551 7    574844.16848  20586714.04748
        50.500          40.500  
  21640190.555 7      1835.046 7   -519763.892 7   -380857.25648  21640180.10248
        49.750          38.500  
  24332397.492 5     -3659.557 5   2581799.202 5   1996583.88746  24332394.65646
        40.500          19.750  
  24195141.156 6      1506.933 6   -297491.020 6   -221276.42646  24195134.74646
        42.500          22.000  
  24174079.047 5     -3740.314 5   2663439.553 5   2059128.13846  24174071.58246
        41.250          22.500  
 11  3 24 16 18 15.0000000  0 12G03G06G09G14G15G16G18G21G22G26G27G29
  22389695.820 6      1834.160 6   -601719.814 6   -440206.29147  22389687.59447
        45.750          29.500  
  22220650.445 7      1437.455 7   -365700.775 7   -256046.32848  22220642.68848
        48.750          34.250  
  24580249.414 5      2948.749 5  -1112119.114 5   -849470.85246  24580243.12146
        39.750          20.250  
  24181362.922 5      3725.932 5  -1545648.195 5  -1182765.16745  24181356.10245
        39.500          18.500  
  21846520.734 7     -1855.648 7   1570224.091 7   1216964.60048  21846512.03948
        48.750          37.500  
  24815459.898 1     -2163.792 1   1788342.049 1   1385615.69445  24815453.78145
        33.500          16.750  
  20614324.320 7       235.189 7    384116.203 7    309744.92048  20614314.51248
        48.750          40.500  
  20587810.930 7      -380.813 7    736711.742 7    579295.21948  20587800.77048
        50.750          40.500  
  21634965.578 7      1830.600 7   -547222.892 7   -402253.87348  21634955.00848
        50.250          38.250  
  24342858.898 5     -3664.351 5   2636764.474 5   2039413.90046  24342854.42246
        40.500          19.000  
  24190855.516 5      1501.366 5   -320011.506 5   -238824.86746  24190848.40246
        41.750          20.750  
  24184759.563 5     -3741.563 5   2719563.002 5   2102860.64746  24184751.39546
        41.500          23.000  
 11  3 24 16 18 30.0000000  0 12G03G06G09G14G15G16G18G21G22G26G27G29
  22384485.641 6      1825.465 6   -629101.785 6   -461542.87847  22384477.59047
        45.500          29.250  
  22216570.523 7      1429.232 7   -387139.249 7   -272751.63548  22216562.47348
        48.750          34.750  
  24571839.211 5      2946.407 5  -1156315.220 5   -883909.32746  24571832.50846
        40.500          20.250  
  24170732.852 5      3724.637 5  -1601517.750 5  -1226299.78945  24170724.85945
        40.000          17.750  
  21851841.414 7     -1863.959 7   1598183.470 7   1238751.12348  21851832.42648
        48.750          37.500  
  24821647.781 1     -2167.687 1   1820857.349 1   1410952.27645  24821641.60545
        33.750          16.250  
  20613666.563 7       230.374 7    380660.600 7    307052.23548  20613656.63748
        49.500          40.500  
  20588914.336 7      -386.598 7    742510.719 7    583813.89048  20588904.23448
        50.750          40.250  
  21629753.016 7      1826.127 7   -574614.789 7   -423598.20248  21629742.38748
        50.250          37.500  
  24353333.070 4     -3669.143 4   2691801.624 4   2082299.94046  24353326.95346
        39.000          19.500  
  24186585.742 5      1495.761 5   -342447.916 5   -256307.78246  24186578.62946
        42.000          21.500  
  24195442.813 6     -3742.817 6   2775705.253 6   2146607.77546  24195434.58646
        43.750          24.500  
 11  3 24 16 18 45.0000000  0 12G03G06G09G14G15G16G18G21G22G26G27G29
  22379299.898 6      1816.756 6   -656353.125 6   -482777.70247  22379291.84847
        45.250          29.750  
  22212514.797 7      1420.983 7   -408453.989 7   -289360.52748  22212506.98048
        48.750          34.500  
  24563435.516 5      2944.027 5  -1200475.628 5   -918319.95446  24563428.81346
        41.250          21.000  
  24160103.109 5      3723.312 5  -1657367.422 5  -1269818.97245  24160097.52045
        39.250          18.500  
  21857185.102 7     -1872.261 7   1626267.383 7   1260634.67848  21857176.58248
        48.750          36.500  
  24827846.875 2     -2171.592 2   1853431.234 2   1436334.47245  24827840.69945
        35.500          16.750  
  20613022.852 7       225.561 7    377277.192 7    304415.80148  20613012.98448
        48.750          40.500  
  20590034.500 7      -392.404 7    748396.781 7    588400.42448  20590024.57448
        50.500          41.000  
  21624553.383 7      1821.646 7   -601939.473 7   -444890.15948  21624542.63748
        50.250          38.000  
  24363818.102 4     -3673.921 4   2746910.438 4   2125241.82445  24363814.21145
        39.000          17.250  
  24182332.680 5      1490.130 5   -364799.867 5   -273724.90046  24182325.33246
        41.750          21.000  
  24206129.445 5     -3744.055 5   2831866.074 5   2190369.41946  24206121.80546
        41.250          24.750  
 11  3 24 16 19  0.0000000  0 12G03G06G09G14G15G16G18G21G22G26G27G29
  22374138.711 6      1808.034 6   -683473.633 6   -503910.56447  22374131.12947
        45.000          30.250  
  22208482.258 7      1412.741 7   -429645.105 7   -305873.08948  22208474.09048
        49.000          35.500  
  24555038.609 5      2941.631 5  -1244600.098 5   -952702.57946  24555032.25846
        40.750          22.000  
  24149479.227 4      3721.989 4  -1713197.256 4  -1313322.65446  24149472.28946
        38.750          19.250  
  21862552.797 7     -1880.526 7   1654475.269 7   1282614.83248  21862544.33648
        48.750          36.750  
  24834056.750 3     -2175.447 3   1886062.935 3   1461761.77045  24834049.63745
        36.500          15.500  
  20612393.055 7       220.758 7    373965.826 7    301835.51648  20612382.83648
        49.250          40.750  
  20591170.742 7      -398.206 7    754369.874 7    593054.76948  20591160.99248
        51.000          40.750  
  21619366.242 7      1817.180 7   -629197.176 7   -466129.92048  21619355.67248
        50.000          38.500  
  24374320.242 4     -3678.653 4   2802090.232 4   2168238.96745  24374314.77045
        37.500          18.250  
  24178095.047 5      1484.490 5   -387067.220 5   -291076.06746  24178087.99246
        42.000          20.250  
  24216819.898 5     -3745.259 5   2888044.960 5   2234145.09746  24216812.66846
        41.500          25.250  
 11  3 24 16 19 15.0000000  0 12G03G06G09G14G15G16G18G21G22G26G27G29
  22369003.016 6      1799.319 6   -710463.424 6   -524941.56547  22368995.08247
        45.500          30.000  
  22204473.250 7      1404.507 7   -450712.708 7   -322289.40748  22204465.66848
        49.000          36.000  
  24546648.531 5      2939.231 5  -1288688.567 5   -987057.17446  24546643.11746
        40.500          22.250  
  24138859.516 5      3720.651 5  -1769007.023 5  -1356810.79145  24138852.40245
        39.250          18.500  
  21867943.930 7     -1888.749 7   1682806.499 7   1304691.10948  21867935.76248
        48.000          36.750  
  24840278.180 3     -2179.247 3   1918751.645 3   1487233.43045  24840270.07045
        37.000          17.250  
  20611776.094 7       215.985 7    370726.044 7    299311.00448  20611765.93448
        49.000          40.750  
  20592324.352 7      -403.994 7    760429.789 7    597776.76848  20592314.77748
        51.000          40.750  
  21614192.195 7      1812.739 7   -656388.260 7   -487317.77248  21614181.27348
        50.000          38.000  
  24384834.000 3     -3683.331 3   2857340.191 3   2211290.79145  24384829.17245
        36.500          17.750  
  24173873.742 5      1478.849 5   -409249.958 5   -308361.32146  24173867.15646
        41.750          20.750  
  24227513.891 5     -3746.416 5   2944241.207 5   2277934.33546  24227506.19146
        41.500          24.500  
 11  3 24 16 19 30.0000000  0 12G03G06G09G14G15G16G18G21G22G26G27G29
  22363892.117 6      1790.570 6   -737321.981 6   -545870.31247  22363883.94947
        45.250          30.500  
  22200487.758 7      1396.228 7   -471656.134 7   -338608.96848  22200479.82448
        49.000          35.500  
  24538266.383 5      2936.770 5  -1332740.121 5  -1021383.03646  24538260.61746
        40.500          22.000  
  24128242.953 4      3719.278 4  -1824796.194 4  -1400282.77545  24128236.19145
        38.000          18.500  
  21873358.773 7     -1896.989 7   1711261.339 7   1326863.69848  21873350.89848
        48.750          37.000  
  24846509.555 4     -2183.056 4   1951497.492 4   1512749.66445  24846501.03545
        38.000          17.250  
  20611173.156 7       211.191 7    367558.180 7    296842.53348  20611163.23048
        48.750          40.750  
  20593494.117 7      -409.814 7    766577.001 7    602566.80148  20593484.13348
        51.000          40.750  
  21609030.344 7      1808.264 7   -683512.216 7   -508453.31648  21609019.53948
        49.750          38.750  
  24395359.578 2     -3688.018 2   2912660.467 2   2254397.40845  24395356.56645
        35.500          17.250  
  24169668.961 5      1473.156 5   -431347.301 5   -325580.02245  24169662.08245
        41.500          18.500  
  24238210.523 5     -3747.592 5   3000455.087 5   2321737.29846  24238203.41046
        41.750          24.000  
 11  3 24 16 19 45.0000000  0 12G03G06G09G14G15G16G18G21G22G26G27G29
  22358805.922 6      1781.776 6   -764048.629 6   -566696.27047  22358798.22347
        45.000          29.250  
  22196526.047 7      1387.915 7   -492474.862 7   -354831.35348  22196518.40648
        48.750          35.500  
  24529890.867 5      2934.263 5  -1376754.061 5  -1055679.55746  24529884.98446
        41.500          22.250  
  24117630.750 4      3717.856 4  -1880564.040 4  -1443738.21645  24117623.87145
        38.250          17.750  
  21878796.930 7     -1905.239 7   1739839.925 7   1349132.70948  21878788.87948
        47.750          37.250  
  24852752.109 3     -2186.863 3   1984300.436 3   1538310.37145  24852743.35545
        36.500          16.250  
  20610583.805 7       206.376 7    364462.546 7    294430.34848  20610574.52348
        50.000          40.500  
  20594680.672 7      -415.669 7    772812.033 7    607425.25748  20594670.51248
        51.000          40.750  
  21603881.914 7      1803.758 7   -710568.593 7   -529536.20348  21603870.93448
        49.750          38.250  
  24405900.789 3     -3692.694 3   2968050.879 3   2297558.70545  24405897.54345
        36.000          16.750  
  24165479.852 5      1467.421 5   -453358.622 5   -342731.71046  24165473.32446
        41.500          19.750  
  24248911.406 5     -3748.764 5   3056686.545 5   2365553.96246  24248904.46946
        41.750          24.500  
 11  3 24 16 20  0.0000000  0 12G03G06G09G14G15G16G18G21G22G26G27G29
  22353744.969 6      1773.041 6   -790644.239 6   -587420.12947  22353737.03547
        45.250          30.250  
  22192587.648 7      1379.655 7   -513169.682 7   -370957.19048  22192580.35948
        48.000          34.500  
  24521522.398 5      2931.792 5  -1420730.938 5  -1089947.19546  24521516.39846
        41.750          22.750  
  24107021.992 4      3716.469 4  -1936311.075 4  -1487177.38245  24107015.23045
        38.500          18.250  
  21884258.758 6     -1913.406 6   1768541.020 6   1371497.18548  21884250.70748
        47.250          37.250  
  24859004.977 4     -2190.591 4   2017159.308 4   1563914.64845  24858996.80945
        37.500          17.750  
  20610008.695 7       201.633 7    361438.051 7    292073.58248  20609999.00448
        48.750          40.500  
  20595883.539 7      -421.463 7    779133.976 7    612351.42848  20595873.90648
        51.000          41.250  
  21598745.875 7      1799.330 7   -737558.543 7   -550567.32048  21598735.36348
        50.000          38.500  
  24416451.523 2     -3697.284 2   3023510.144 2   2340773.61645  24416451.50045
        35.000          16.250  
  24161307.648 5      1461.736 5   -475284.663 5   -359816.93746  24161301.64846
        41.750          20.000  
  24259615.156 5     -3749.841 5   3112934.157 5   2409383.21246  24259608.21946
        40.500          23.000  
 11  3 24 16 20 15.0000000  0 12G03G06G09G14G15G16G18G21G22G26G27G29
  22348708.797 6      1764.230 6   -817107.685 6   -608041.00147  22348701.27347
        45.500          30.750  
  22188673.258 7      1371.325 7   -533739.556 7   -386985.66448  22188665.67648
        48.000          34.250  
  24513161.570 5      2929.228 5  -1464669.364 5  -1124184.88046  24513154.16446
        41.750          21.500  
  24096417.781 4      3715.013 4  -1992036.265 4  -1530599.54646  24096410.72746
        38.500          19.500  
  21889744.141 7     -1921.612 7   1797365.201 7   1393957.57548  21889735.62148
        48.500          37.500  
  24865268.383 3     -2194.355 3   2050074.634 3   1589562.95645  24865260.44945
        36.750          17.250  
  20609446.859 7       196.835 7    358485.529 7    289772.92148  20609436.99248
        48.750          41.000  
  20597103.234 7      -427.325 7    785543.850 7    617346.12649  20597093.25049
        51.000          41.500  
  21593622.648 7      1794.839 7   -764481.120 7   -571545.94948  21593612.07848
        49.750          39.000  
  24427021.703 2     -3701.904 2   3079038.703 2   2384042.54945  24427018.57445
        35.250          16.250  
  24157152.180 5      1455.969 5   -497124.203 5   -376834.78946  24157145.59446
        41.750          20.750  
  24270321.422 5     -3750.972 5   3169198.739 5   2453225.69146  24270315.18846
        40.500          22.250  
 11  3 24 16 20 30.0000000  0 12G03G06G09G14G15G16G18G21G22G26G27G29
  22343698.406 6      1755.407 6   -843438.797 6   -628558.74947  22343690.47347
        45.500          30.750  
  22184783.086 6      1362.995 6   -554184.475 6   -402916.77648  22184775.03548
        47.500          34.000  
  24504808.016 6      2926.648 6  -1508569.077 6  -1158392.39346  24504800.72746
        43.000          22.750  
  24085818.258 4      3713.547 4  -2047739.477 4  -1574004.60446  24085811.08646
        38.750          19.500  
  21895252.766 7     -1929.792 7   1826312.087 7   1416513.56948  21895244.48048
        48.750          38.250  
  24871543.117 4     -2198.067 4   2083045.645 4   1615254.67045  24871534.71545
        37.750          15.500  
  20608898.805 7       192.058 7    355604.665 7    287528.07948  20608888.76248
        49.250          40.750  
  20598339.766 7      -433.174 7    792041.457 7    622409.18648  20598329.78148
        51.250          41.250  
  21588512.352 7      1790.353 7   -791336.423 7   -592472.15348  21588501.37148
        49.750          38.750  
  24437599.430 2     -3706.481 2   3134635.923 2   2427364.95445  24437598.64545
        34.000          16.750  
  24153012.828 5      1450.197 5   -518877.164 5   -393785.14246  24153006.59446
        40.750          19.750  
  24281031.633 5     -3752.068 5   3225479.756 5   2497080.96746  24281024.93046
        41.000          24.750  
 11  3 24 16 20 45.0000000  0 12G03G06G09G14G15G16G18G21G22G26G27G29
  22338712.852 6      1746.614 6   -869638.010 6   -648973.71547  22338705.15247
        45.500          31.000  
  22180915.680 6      1354.689 6   -574504.812 6   -418750.81448  22180908.03948
        47.000          34.000  
  24496461.852 6      2924.073 6  -1552430.177 6  -1192569.82046  24496454.56346
        43.000          24.500  
  24075222.234 4      3712.088 4  -2103420.794 4  -1617392.58746  24075215.76646
        39.000          20.500  
  21900784.672 7     -1937.918 7   1855380.864 7   1439164.55148  21900776.44548
        48.500          38.250  
  24877826.711 4     -2201.726 4   2116071.539 4   1640989.10645  24877819.07045
        37.500          15.500  
  20608364.039 7       187.316 7    352794.918 7    285338.66349  20608354.46549
        49.750          41.500  
  20599593.164 7      -438.998 7    798626.434 7    627540.32548  20599583.12148
        51.500          41.250  
  21583414.813 7      1785.900 7   -818124.920 7   -613346.30248  21583403.83248
        50.500          39.000  
  24448193.711 2     -3711.002 2   3190300.952 2   2470740.29345  24448192.22345
        34.500          15.500  
  24148889.438 5      1444.435 5   -540543.687 5   -410668.17146  24148883.26246
        41.250          20.000  
  24291744.547 5     -3753.105 5   3281776.323 5   2540948.36446  24291737.66846
        41.000          24.000  
 11  3 24 16 21  0.0000000  0 12G03G06G09G14G15G16G18G21G22G26G27G29
  22333752.320 6      1737.777 6   -895704.658 6   -669285.39547  22333744.79747
        46.250          31.000  
  22177073.063 7      1346.353 7   -594700.107 7   -434487.41747  22177064.42647
        47.750          33.500  
  24488122.719 6      2921.454 6  -1596251.981 6  -1226716.63746  24488115.19546
        43.500          23.250  
  24064631.352 4      3710.592 4  -2159079.679 4  -1660763.12446  24064624.23846
        38.750          20.500  
  21906338.898 7     -1946.037 7   1884571.417 7   1461910.42648  21906330.37948
        48.250          37.750  
  24884122.172 4     -2205.361 4   2149151.955 4   1666765.99445  24884114.06345
        37.500          16.750  
  20607842.586 7       182.562 7    350056.483 7    283204.81648  20607833.01248
        49.000          41.250  
  20600862.719 7      -444.855 7    805299.254 7    632739.91049  20600852.85249
        51.500          41.500  
  21578329.383 7      1781.435 7   -844846.450 7   -634168.26248  21578318.69548
        50.750          39.000  
  24458798.063 2     -3715.500 2   3246033.452 2   2514168.11045  24458798.27345
        35.500          16.750  
  24144783.203 5      1438.646 5   -562123.378 5   -427483.49846  24144776.73446
        41.250          20.000  
  24302460.555 5     -3754.154 5   3338088.636 5   2584828.03346  24302453.09046
        41.000          22.750  
 11  3 24 16 21 15.0000000  0 12G03G06G09G14G15G16G18G21G22G26G27G29
  22328817.594 6      1728.919 6   -921638.437 6   -689493.53247  22328810.18847
        46.250          31.750  
  22173253.891 6      1337.993 6   -614769.998 6   -450126.29748  22173245.72348
        47.250          33.750  
  24479790.945 6      2918.794 6  -1640033.887 6  -1260832.35646  24479783.42246
        43.000          23.750  
  24054043.750 4      3709.062 4  -2214715.607 4  -1704115.74246  24054036.69546
        39.000          20.750  
  21911917.016 7     -1954.145 7   1913883.585 7   1484751.05848  21911908.96548
        47.750          37.750  
  24890427.672 4     -2209.016 4   2182287.193 4   1692585.64245  24890419.38745
        38.250          15.500  
  20607335.750 7       177.804 7    347389.425 7    281126.58148  20607325.70748
        49.500          41.000  
  20602149.609 7      -450.729 7    812060.181 7    638008.16749  20602139.33249
        51.500          41.500  
  21573257.578 7      1776.957 7   -871500.798 7   -654937.87548  21573246.89148
        50.500          39.000  
  24469419.141 3     -3719.998 3   3301833.420 3   2557648.51245  24469416.83245
        36.750          17.750  
  24140692.961 5      1432.819 5   -583615.670 5   -444230.72946  24140686.84446
        41.500          20.500  
  24313179.789 5     -3755.185 5   3394416.415 5   2628719.75146  24313172.09046
        40.250          22.500  
 11  3 24 16 21 30.0000000  0 12G03G06G09G14G15G16G18G21G22G26G27G29
  22323908.008 6      1720.066 6   -947439.424 6   -709598.19847  22323900.48447
        46.750          31.750  
  22169458.383 6      1329.642 6   -634714.632 6   -465667.58647  22169450.44947
        47.500          33.500  
  24471467.227 6      2916.129 6  -1683775.818 6  -1294916.93246  24471459.76246
        43.500          22.500  
  24043460.836 5      3707.536 5  -2270328.654 5  -1747450.54646  24043454.19146
        40.250          21.500  
  21917517.547 7     -1962.214 7   1943316.798 7   1507686.01548  21917509.49648
        48.500          37.000  
  24896742.828 4     -2212.616 4   2215476.427 4   1718447.36345  24896734.95345
        38.500          16.750  
  20606841.477 7       173.073 7    344793.327 7    279103.64548  20606831.78548
        48.000          41.000  
  20603452.680 7      -456.578 7    818908.854 7    643344.77749  20603442.75449
        51.000          41.500  
  21568198.266 7      1772.503 7   -898088.346 7   -675655.43848  21568187.22748
        50.000          39.000  
  24480050.203 4     -3724.432 4   3357699.894 4   2601180.76445  24480048.77345
        37.500          16.750  
  24136619.914 5      1426.995 5   -605020.590 5   -460909.90346  24136613.38746
        40.500          20.000  
  24323900.656 5     -3756.165 5   3450758.893 5   2672622.91746  24323893.48446
        40.000          22.000  
 11  3 24 16 21 45.0000000  0 12G03G06G09G14G15G16G18G21G22G26G27G29
  22319023.344 6      1711.183 6   -973107.168 6   -729599.03547  22319015.99647
        46.500          31.250  
  22165687.000 6      1321.255 6   -654533.457 6   -481110.83047  22165679.18447
        46.500          33.500  
  24463151.219 6      2913.418 6  -1727477.092 6  -1328969.83046  24463143.63746
        43.750          25.250  
  24032883.180 5      3705.964 5  -2325918.114 5  -1790766.96246  24032875.83246
        39.250          21.250  
  21923141.773 7     -1970.300 7   1972871.302 7   1530715.47948  21923133.89848
        47.750          36.750  
  24903069.219 4     -2216.205 4   2248719.509 4   1744351.02645  24903060.17245
        37.750          16.250  
  20606360.867 7       168.313 7    342268.633 7    277136.34349  20606351.64549
        48.500          41.500  
  20604772.672 7      -462.470 7    825845.910 7    648750.26449  20604762.92249
        51.750          41.500  
  21563151.570 7      1768.024 7   -924608.701 7   -696320.64148  21563139.94548
        49.750          38.750  
  24490694.258 4     -3728.871 4   3413632.954 4   2644764.88545  24490692.94545
        37.500          17.250  
  24132563.125 5      1421.132 5   -626337.569 5   -477520.52846  24132557.88746
        40.500          20.500  
  24334625.406 5     -3757.144 5   3507116.051 5   2716537.51846  24334618.87946
        40.750          22.000  
 11  3 24 16 22  0.0000000  0 12G03G06G09G14G15G16G18G21G22G26G27G29
  22314164.305 6      1702.315 6   -998641.888 6   -749496.22147  22314157.01647
        47.000          31.500  
  22161939.727 6      1312.897 6   -674226.914 6   -496456.39248  22161931.03148
        46.750          34.000  
  24454843.078 6      2910.699 6  -1771137.580 6  -1362990.96546  24454835.90646
        43.500          24.750  
  24022308.719 5      3704.406 5  -2381484.197 5  -1834065.19946  24022301.89846
        39.750          22.000  
  21928789.008 7     -1978.342 7   2002546.430 7   1553838.93248  21928780.13748
        48.500          37.750  
  24909405.305 4     -2219.745 4   2282015.685 4   1770296.07145  24909396.19945
        38.250          16.250  
  20605894.234 7       163.599 7    339814.645 7    275224.13749  20605884.30949
        49.500          42.000  
  20606109.859 7      -468.327 7    832870.823 7    654224.21149  20606099.75849
        51.000          41.500  
  21558117.477 7      1763.573 7   -951062.295 7   -716933.82648  21558106.43848
        49.000          38.500  
  24501352.297 4     -3733.254 4   3469631.757 4   2688400.25345  24501349.98845
        38.500          18.250  
  24128523.539 5      1415.273 5   -647566.657 5   -494062.66346  24128518.30146
        40.250          20.250  
  24345351.922 5     -3758.094 5   3563487.456 5   2760463.20746  24345345.92246
        40.500          22.500  
 11  3 24 16 22 15.0000000  0 12G03G06G09G14G15G16G18G21G22G26G27G29
  22309330.633 6      1693.394 6  -1024042.803 6   -769289.12947  22309323.16847
        47.250          32.000  
  22158215.961 6      1304.486 6   -693794.198 6   -511703.63348  22158207.85248
        46.750          34.250  
  24446543.297 6      2907.912 6  -1814756.266 6  -1396979.50847  24446536.18447
        44.250          27.250  
  24011739.664 5      3702.788 5  -2437026.015 5  -1877344.49346  24011732.84446
        40.000          22.500  
  21934459.250 7     -1986.399 7   2032342.415 7   1577056.56648  21934450.43848
        48.750          38.000  
  24915751.109 4     -2223.298 4   2315365.155 4   1796282.73445  24915742.76645
        38.250          16.750  
  20605440.766 7       158.843 7    337432.003 7    273367.53549  20605430.95749
        49.750          42.000  
  20607463.430 7      -474.241 7    839984.442 7    659767.27149  20607453.32849
        51.500          41.500  
  21553096.344 7      1759.085 7   -977448.563 7   -737494.55248  21553085.24648
        49.750          38.500  
  24512021.430 5     -3737.643 5   3525696.409 5   2732086.91645  24512019.12145
        39.500          17.750  
  24124500.711 5      1409.363 5   -668707.099 5   -510535.73046  24124495.00446
        40.500          19.250  
  24356082.547 5     -3759.051 5   3619873.221 5   2804400.11246  24356074.90646
        40.250          22.000  
 11  3 24 16 22 30.0000000  0 12G03G06G09G14G15G16G18G21G22G26G27G29
  22304523.094 6      1684.489 6  -1049310.139 6   -788977.95547  22304514.57447
        46.500          31.750  
  22154516.727 6      1296.093 6   -713235.596 6   -526852.77748  22154508.61748
        46.500          34.000  
  24438250.664 6      2905.134 6  -1858333.280 6  -1430935.60646  24438243.90246
        43.500          25.500  
  24001174.734 5      3701.191 5  -2492543.882 5  -1920605.15646  24001168.26646
        40.250          22.500  
  21940152.336 7     -1994.394 7   2062258.322 7   1600367.65748  21940142.87948
        49.000          38.250  
  24922108.008 4     -2226.785 4   2348766.926 4   1822310.08045  24922099.13745
        38.250          16.750  
  20605000.719 7       154.149 7    335119.770 7    271565.78649  20604991.37949
        49.250          41.500  
  20608833.883 7      -480.129 7    847186.379 7    665379.16749  20608824.36749
        51.500          41.500  
  21548087.688 7      1754.633 7  -1003768.065 7   -758003.24848  21548076.35548
        49.500          38.000  
  24522703.891 5     -3741.975 5   3581826.033 5   2775824.19945  24522700.64545
        40.500          17.750  
  24120494.000 5      1403.468 5   -689759.117 5   -526939.86446  24120489.46546
        39.500          20.000  
  24366815.055 5     -3759.953 5   3676272.522 5   2848347.54846  24366807.41446
        39.250          22.250  
 11  3 24 16 22 45.0000000  0 12G03G06G09G14G15G16G18G21G22G26G27G29
  22299739.258 6      1675.569 6  -1074443.670 6   -808562.52147  22299732.26247
        44.500          32.000  
  22150841.031 6      1287.673 6   -732550.684 6   -541903.50448  22150833.03948
        46.000          33.750  
  24429966.336 6      2902.313 6  -1901867.973 6  -1464858.70246  24429959.57446
        43.750          25.750  
  23990614.766 5      3699.549 5  -2548037.120 5  -1963846.58846  23990608.59046
        40.000          22.750  
  21945867.836 7     -2002.385 7   2092294.096 7   1623772.14548  21945858.90648
        49.000          38.000  
  24928475.148 4     -2230.274 4   2382221.041 4   1848378.16345  24928464.87145
        38.500          16.750  
  20604574.086 7       149.441 7    332878.151 7    269819.07348  20604564.51248
        50.000          41.250  
  20610221.273 7      -486.027 7    854476.780 7    671059.98349  20610211.11349
        51.250          41.500  
  21543092.219 7      1750.162 7  -1030020.493 7   -778459.67948  21543080.94548
        49.000          38.500  
  24533397.422 5     -3746.285 5   3638020.313 5   2819611.90746  24533394.52746
        40.250          19.000  
  24116505.102 5      1397.530 5   -710722.069 5   -543274.68746  24116500.97746
        39.500          19.750  
  24377550.195 4     -3760.839 4   3732685.111 4   2892305.31846  24377542.49646
        38.750          21.750  
 11  3 24 16 23  0.0000000  0 12G03G06G09G14G15G16G18G21G22G26G27G29
  22294982.820 6      1666.603 6  -1099442.714 6   -828042.29147  22294974.94547
        46.500          31.750  
  22147189.352 6      1279.225 6   -751739.058 6   -556855.48648  22147181.30148
        47.000          34.250  
  24421689.680 6      2899.436 6  -1945359.510 6  -1498748.20146  24421683.09446
        43.500          26.250  
  23980059.539 5      3697.846 5  -2603504.803 5  -2007068.15546  23980053.42246
        39.750          23.250  
  21951606.148 7     -2010.381 7   2122449.807 7   1647270.08448  21951597.10248
        49.750          37.500  
  24934850.828 5     -2233.758 5   2415727.409 5   1874487.00745  24934841.72345
        39.500          17.250  
  20604161.219 7       144.715 7    330707.419 7    268127.58449  20604151.05949
        48.000          41.750  
  20611625.398 7      -491.964 7    861856.244 7    676810.20549  20611615.53149
        51.250          41.750  
  21538109.406 7      1745.667 7  -1056205.491 7   -798863.57348  21538098.36748
        49.500          38.000  
  24544103.148 5     -3750.595 5   3694279.234 5   2863449.91046  24544100.89846
        41.000          19.250  
  24112532.820 5      1391.556 5   -731595.410 5   -559539.60946  24112528.16846
        39.500          21.000  
  24388287.359 4     -3761.748 4   3789111.334 4   2936273.74846  24388280.71546
        39.000          21.500  
 11  3 24 16 23 15.0000000  0 12G03G06G09G14G15G16G18G21G22G26G27G29
  22290251.203 6      1657.667 6  -1124307.714 6   -847417.62247  22290243.21147
        47.000          30.250  
  22143562.008 6      1270.807 6   -770801.163 6   -571709.07948  22143554.48448
        46.750          34.000  
  24413421.281 6      2896.585 6  -1988808.284 6  -1532604.36546  24413415.34046
        42.750          24.500  
  23969508.656 5      3696.188 5  -2658947.619 5  -2050270.32846  23969503.12546
        39.750          23.000  
  21957367.453 7     -2018.322 7   2152724.640 7   1670860.84648  21957358.34848
        48.750          38.000  
  24941236.688 4     -2237.172 4   2449284.993 4   1900635.75545  24941227.64145
        38.750          17.250  
  20603761.289 7       140.034 7    328606.914 7    266490.82849  20603751.71549
        49.000          41.750  
  20613046.430 7      -497.859 7    869324.122 7    682629.31948  20613036.56348
        51.000          41.250  
  21533139.289 7      1741.224 7  -1082323.848 7   -819215.53048  21533128.30948
        49.750          38.500  
  24554821.180 5     -3754.842 5   3750601.863 5   2907337.61146  24554820.21946
        41.000          19.250  
  24108577.805 5      1385.608 5   -752379.535 5   -575735.02446  24108573.73846
        39.500          20.750  
  24399028.563 4     -3762.584 4   3845550.092 4   2980251.94946  24399020.80546
        38.000          21.250  
 11  3 24 16 23 30.0000000  0 12G03G06G09G14G15G16G18G21G22G26G27G29
  22285545.219 7      1648.679 7  -1149037.904 7   -866687.89347  22285537.34447
        48.000          31.250  
  22139959.367 6      1262.348 6   -789736.378 6   -586463.79748  22139950.26248
        47.500          34.000  
  24405162.398 6      2893.671 6  -2032213.354 6  -1566426.46346  24405155.40246
        42.500          24.750  
  23958963.180 4      3694.482 4  -2714364.842 4  -2093452.54746  23958957.23846
        38.500          24.500  
  21963151.414 7     -2026.276 7   2183118.774 7   1694544.56548  21963142.25048
        48.750          38.000  
  24947631.938 4     -2240.588 4   2482893.813 4   1926824.45345  24947623.82845
        37.750          16.750  
  20603374.953 7       135.329 7    326576.981 7    264909.06149  20603365.32049
        49.500          41.500  
  20614484.531 7      -503.794 7    876881.034 7    688517.80549  20614474.43049
        51.250          41.500  
  21528181.969 7      1736.756 7  -1108375.191 7   -839515.26448  21528170.57848
        50.000          38.500  
  24565551.953 5     -3759.079 5   3806988.043 5   2951274.81946  24565549.70346
        41.000          19.000  
  24104640.133 5      1379.611 5   -773073.693 5   -591860.33446  24104634.95346
        39.750          20.250  
  24409769.461 4     -3763.430 4   3902001.543 4   3024240.01046  24409762.69946
        38.000          19.750  
 11  3 24 16 23 45.0000000  0 12G03G06G09G14G15G16G18G21G22G26G27G29
  22280865.109 6      1639.659 6  -1173632.790 6   -885852.74047  22280856.64847
        46.500          30.500  
  22136380.164 6      1253.858 6   -808544.244 6   -601119.28948  22136371.76248
        47.000          34.500  
  24396910.602 5      2890.695 5  -2075573.772 5  -1600213.78046  24396904.60246
        42.250          26.000  
  23948423.219 5      3692.717 5  -2769755.598 5  -2136614.16946  23948417.10246
        40.000          23.000  
  21968957.555 7     -2034.234 7   2213632.287 7   1718321.31948  21968948.80148
        48.500          37.500  
  24954037.531 3     -2244.015 3   2516554.038 3   1953053.15845  24954029.94945
        36.750          17.250  
  20603002.203 7       130.601 7    324617.961 7    263382.55149  20602992.74649
        48.000          41.500  
