     2.11           OBSERVATION DATA    GPS(GPS)            RINEX VERSION / TYPE
cnvtToRINEX 2.11.0  Stan Thomas         31-Mar-11 19:14 UTC PGM / RUN BY / DATE 
----------------------------------------------------------- COMMENT             
CLF2                                                        MARKER NAME         
CLF2                                                        MARKER NUMBER       
Stan Thomas         University of Utah                      OBSERVER / AGENCY   
4644124574          NetRS               1.12                REC # / TYPE / VERS 
12532422            TRM41249.00                             ANT # / TYPE        
 -1924404.9063 -4553770.3397  4018598.8162                  APPROX POSITION XYZ 
        1.3580        0.0000        0.0000                  ANTENNA: DELTA H/E/N
     1     1     0                                          WAVELENGTH FACT L1/2
     7    C1    D1    L1    L2    P2    S1    S2            # / TYPES OF OBSERV 
  2011     3    30    18     6   45.0000000     GPS         TIME OF FIRST OBS   
  2011     3    30    23    45    0.0000000     GPS         TIME OF LAST OBS    
     0                                                      RCV CLOCK OFFS APPL 
    15                                                      LEAP SECONDS        
    22                                                      # OF SATELLITES     
   G03   456   456   454   421   421   456   421            PRN / # OF OBS      
   G04   376   376   373   338   338   376   338            PRN / # OF OBS      
   G06   398   398   395   369   369   398   369            PRN / # OF OBS      
   G07   209   209   206   196   196   209   196            PRN / # OF OBS      
   G09   311   311   311   297   297   311   297            PRN / # OF OBS      
   G10    67    67    66    40    40    67    40            PRN / # OF OBS      
   G11  1151  1151  1150  1115  1115  1151  1115            PRN / # OF OBS      
   G12   435   435   432   411   411   435   411            PRN / # OF OBS      
   G13   500   500   494   472   472   500   472            PRN / # OF OBS      
   G14  1039  1039  1034  1019  1019  1039  1019            PRN / # OF OBS      
   G16   689   689   689   665   665   689   665            PRN / # OF OBS      
   G18   509   509   508   495   495   509   495            PRN / # OF OBS      
   G19   543   543   538   532   532   543   532            PRN / # OF OBS      
   G20  1007  1007  1003   987   987  1007   987            PRN / # OF OBS      
   G21   132   132   131   126   126   132   126            PRN / # OF OBS      
   G22   838   838   836   832   832   838   832            PRN / # OF OBS      
   G23   895   895   895   895   895   895   895            PRN / # OF OBS      
   G24  1282  1282  1276  1244  1244  1282  1244            PRN / # OF OBS      
   G25   801   801   798   801   801   801   801            PRN / # OF OBS      
   G27   126   126   126   122   122   126   122            PRN / # OF OBS      
   G30   838   838   837   814   814   838   814            PRN / # OF OBS      
   G31  1354  1354  1354  1354  1354  1354  1354            PRN / # OF OBS      
CARRIER PHASE MEASUREMENTS: PHASE SHIFTS REMOVED            COMMENT             
                                                            END OF HEADER       
 11  3 30 18  6 45.0000000  0 12G03G06G09G11G14G18G19G21G22G24G27G31
  23323481.34416     -2602.64116     64333.37516     39892.99757  23323477.39557
        43.500          29.000  
  23472576.08616     -2590.39116     62461.73016     40349.20057  23472571.55157
        44.250          28.500  
  22870034.89816     -1480.01616   -281420.14416   -217541.36457  22870027.90257
        45.500          29.500  
  24452518.38315      3256.53115  -1635754.78515  -1242268.14755  24452511.44555
        40.250          18.250  
  20376059.50016       645.18816   -892376.45016   -667935.84058  20376050.57058
        45.250          40.250  
  21830472.77317     -1674.93817   -203256.98817   -157816.90858  21830464.13758
        48.750          34.000  
  22673485.17216      -611.98416   -537389.84616   -406270.57457  22673476.71157
        45.500          33.000  
  23637291.97715     -3457.01615    314852.13515    224960.77756  23637287.03156
        41.500          20.750  
  20586254.01617      -379.75017   -583846.81617   -438834.91759  20586243.73859
        49.000          42.000  
  25387595.71114      3421.10914  -1612339.51114  -1252147.91656  25387590.00456
        38.500          20.750  
  24930584.08614     -2470.45314     16757.57914      8265.94856  24930578.49656
        39.000          21.000  
  24824362.68013      3668.01613  -1677718.19613  -1302738.80656  24824361.07456
        36.000          22.750  
 11  3 30 18  7  0.0000000  0 12G03G06G09G11G14G18G19G21G22G24G27G31
  23330916.797 6     -2604.954 6    103407.681 6     70340.45147  23330913.08247
        43.250          28.500  
  23479975.883 5     -2592.396 5    101347.669 5     70649.86547  23479971.05547
        42.000          27.500  
  22874275.367 6     -1485.536 6   -259137.105 6   -200177.96947  22874268.25447
        45.250          29.000  
  24443229.016 5      3254.521 5  -1684572.593 5  -1280308.03046  24443221.31646
        40.250          19.000  
  20374229.969 6       640.823 6   -901988.799 6   -675425.97348  20374222.09448
        46.000          41.000  
  21835258.953 7     -1676.742 7   -178105.860 7   -138218.65348  21835250.66848
        48.000          34.500  
  22675245.547 6      -616.687 6   -528139.537 6   -399062.56147  22675236.73447
        45.750          33.000  
  23647166.008 5     -3459.168 5    366739.648 5    265392.47246  23647161.29746
        41.250          21.500  
  20587344.406 7      -382.080 7   -578115.622 7   -434369.06849  20587333.77749
        49.250          41.750  
  25377830.539 4      3420.793 4  -1663651.409 4  -1292131.24146  25377825.77046
        37.500          19.000  
  24937644.609 4     -2473.452 4     53859.361 4     37176.39246  24937638.90246
        38.750          20.000  
  24813891.914 3      3668.277 3  -1732742.354 3  -1345614.72946  24813890.66046
        36.250          22.500  
 11  3 30 18  7 15.0000000  0 12G03G06G09G11G14G18G19G21G22G24G27G31
  23338363.750 6     -2608.921 6    142541.499 6    100834.28047  23338359.80147
        43.750          28.000  
  23487384.680 5     -2595.773 5    140284.261 5    100990.00347  23487380.43847
        42.000          27.500  
  22878545.055 6     -1495.910 6   -236698.457 6   -182693.32347  22878538.05947
        45.250          29.000  
  24433948.836 5      3251.044 5  -1733338.257 5  -1318307.27046  24433941.89846
        39.750          19.750  
  20372424.148 6       632.772 6   -911480.379 6   -682821.99948  20372415.74648
        47.500          40.500  
  21840053.594 7     -1679.763 7   -152909.411 7   -118585.07648  21840045.13348
        48.000          34.000  
  22677031.250 6      -625.622 6   -518755.200 6   -391750.11847  22677022.73047
        44.750          33.000  
  23657049.539 5     -3462.748 5    418680.867 5    305866.07546  23657045.41446
        40.500          22.000  
  20588446.609 7      -386.040 7   -572325.022 7   -429856.92149  20588435.51249
        50.750          42.500  
  25368065.813 2      3420.559 2  -1714959.795 2  -1332111.89246  25368061.62946
        35.500          19.750  
  24944720.586 5     -2479.095 5     91045.783 5     66152.79846  24944714.76246
        39.750          20.500  
  24803417.969 2      3669.340 2  -1787782.453 2  -1388503.06346  24803416.83246
        35.500          22.750  
 11  3 30 18  7 30.0000000  0 12G03G06G09G11G14G18G19G21G22G24G27G31
  23345822.414 5     -2612.856 5    181734.337 5    131374.08747  23345817.93847
        41.750          28.250  
  23494804.297 5     -2599.120 5    179271.061 5    131369.27547  23494799.46947
        42.000          26.500  
  22882844.484 6     -1506.269 6   -214104.425 6   -165087.58147  22882837.43047
        44.750          29.250  
  24424678.375 4      3247.545 4  -1782051.437 4  -1356265.58746  24424672.14146
        39.000          20.250  
  20370640.656 7       624.743 7   -920851.523 7   -690124.19148  20370632.48848
        48.000          40.500  
  21844857.320 7     -1682.765 7   -127667.929 7    -98916.40848  21844848.44948
        47.750          34.750  
  22678842.344 6      -634.529 6   -509237.273 6   -384333.57147  22678833.76647
        45.250          33.000  
  23666942.914 5     -3466.304 5    470675.424 5    346381.21146  23666940.02046
        41.250          21.000  
  20589559.898 7      -389.989 7   -566475.186 7   -425298.61749  20589549.09449
        50.750          42.500  
  25358303.906 2      3420.333 2  -1766264.784 2  -1372089.76045  25358298.31645
        35.500          18.500  
  24951813.281 4     -2484.709 4    128316.414 4     95194.82746  24951807.04746
        38.500          20.250  
  24792940.672 2      3670.391 2  -1842838.311 2  -1431403.68446  24792939.77046
        35.000          21.250  
 11  3 30 18  7 45.0000000  0 12G03G06G09G11G14G18G19G21G22G24G27G31
  23353291.258 6     -2616.677 6    220984.498 6    161958.56847  23353287.01647
        42.500          28.000  
  23502232.125 5     -2602.352 5    218306.346 5    161786.31546  23502227.41446
        41.750          26.000  
  22887173.391 6     -1516.529 6   -191356.493 6   -147361.93247  22887166.10247
        45.000          29.500  
  24415419.188 4      3244.117 4  -1830713.198 4  -1394183.85446  24415412.25046
        38.500          19.500  
  20368880.250 7       616.802 7   -930103.553 7   -697333.55348  20368871.78948
        48.500          40.500  
  21849668.625 6     -1685.694 6   -102382.513 6    -79213.51248  21849660.34048
        46.500          34.500  
  22680678.859 6      -643.345 6   -499587.101 6   -376813.98847  22680670.45747
        42.750          32.500  
  23676848.586 5     -3469.758 5    522721.795 5    386936.75446  23676844.22746
        41.250          21.000  
  20590684.078 7      -393.859 7   -560567.306 7   -420695.08349  20590673.03949
        51.500          41.750  
  25348541.20313      3420.10613  -1817567.34513  -1412065.77355  25348535.84855
        36.000          17.250  
  24958921.102 4     -2490.211 4    165669.585 4    124301.16946  24958914.75046
        38.500          20.250  
  24782460.680 3      3671.505 3  -1897910.893 3  -1474317.32646  24782459.83646
        36.250          22.000  
 11  3 30 18  8  0.0000000  0 12G03G06G09G11G14G18G19G21G22G24G27G31
  23360771.344 5     -2620.582 5    260293.234 5    192588.74046  23360767.10246
        40.250          25.250  
  23509670.430 6     -2605.673 6    257391.443 6    192242.19147  23509665.42647
        43.500          27.750  
  22891532.148 6     -1526.883 6   -168453.243 6   -129515.22947  22891524.91847
        44.000          29.500  
  24406169.445 4      3240.570 4  -1879321.744 4  -1432060.58646  24406162.15646
        39.000          20.000  
  20367142.398 7       608.742 7   -939234.689 7   -704448.71748  20367134.87548
        48.000          41.000  
  21854489.180 7     -1688.730 7    -77051.567 7    -59475.11648  21854480.71948
        48.000          34.500  
  22682541.273 6      -652.271 6   -489803.037 6   -369190.06147  22682532.81347
        44.250          33.000  
  23686763.156 5     -3473.315 5    574821.523 5    427533.83246  23686758.15246
        40.000          21.250  
  20591819.727 7      -397.833 7   -554599.817 7   -416045.10149  20591809.50849
        51.000          42.250  
  25338781.13313      3419.88013  -1868865.68813  -1452038.56055  25338775.01655
        37.000          18.500  
  24966044.531 5     -2495.802 5    203106.617 5    153472.86746  24966039.70346
        39.500          21.000  
  24771978.102 1      3672.483 1  -1952998.132 1  -1517242.38546  24771976.90646
        33.750          21.250  
 11  3 30 18  8 15.0000000  0 12G03G06G09G11G14G18G19G21G22G24G27G31
  23368262.672 5     -2624.387 5    299659.034 5    223263.29147  23368258.43047
        41.000          26.500  
  23517117.055 6     -2608.877 6    296524.598 6    222735.51547  23517112.22747
        44.500          28.500  
  22895918.820 6     -1537.140 6   -145396.137 6   -111548.65847  22895912.41047
        44.000          29.250  
  24396928.859 3      3237.061 3  -1927877.657 3  -1469896.39546  24396922.39146
        36.500          19.500  
  20365427.750 7       600.764 7   -948246.145 7   -711470.61848  20365419.87548
        49.250          41.000  
  21859317.992 7     -1691.686 7    -51676.284 7    -39702.20448  21859309.47348
        48.500          34.000  
  22684427.680 6      -661.106 6   -479886.449 6   -361462.87747  22684419.39547
        44.500          33.250  
  23696687.156 5     -3476.773 5    626973.119 5    468171.33646  23696683.14846
        39.750          21.750  
  20592966.125 7      -401.741 7   -548573.699 7   -411349.42749  20592956.02349
        51.750          42.500  
  25329019.07011      3419.65311  -1920161.05611  -1492009.08455  25329014.12555
        29.500          16.250  
  24973184.516 4     -2501.303 4    240626.158 4    182708.83046  24973179.68846
        38.250          20.000  
  24761492.430 2      3673.520 2  -2008100.932 2  -1560179.59646  24761491.58646
        35.500          20.250  
 11  3 30 18  8 30.0000000  0 12G03G06G09G11G14G18G19G21G22G24G27G31
  23375764.930 5     -2628.203 5    339082.077 5    253982.51647  23375760.80547
        42.000          26.750  
  23524573.008 5     -2612.114 5    335706.310 5    253266.62847  23524568.82447
        41.000          26.500  
  22900336.320 6     -1547.423 6   -122184.787 6    -93461.87847  22900329.67647
        42.750          28.500  
  24387699.570 3      3233.497 3  -1976380.114 3  -1507690.46645  24387692.63345
        37.000          18.500  
  20363735.781 7       592.756 7   -957137.483 7   -718398.93548  20363727.73048
        49.500          41.000  
  21864154.938 6     -1694.673 6    -26256.191 6    -19894.37548  21864146.71148
        47.500          34.500  
  22686340.484 6      -669.967 6   -469836.950 6   -353632.12048  22686332.14148
        45.000          34.750  
  23706621.492 5     -3480.262 5    679177.056 5    508849.62846  23706617.71946
        41.500          22.500  
  20594124.414 7      -405.678 7   -542488.525 7   -406607.75449  20594114.31349
        50.500          41.750  
  25319258.977 3      3419.408 3  -1971452.176 3  -1531976.12145  25319253.68045
        35.750          16.750  
  24980340.313 4     -2506.821 4    278228.473 4    212009.35846  24980335.07446
        39.000          20.500  
  24751004.281 2      3674.491 2  -2063218.296 2  -1603128.10446  24751003.32046
        35.250          20.250  
 11  3 30 18  8 45.0000000  0 12G03G06G09G11G14G18G19G21G22G24G27G31
  23383277.727 5     -2631.982 5    378561.803 5    284745.87247  23383273.07447
        40.500          26.750  
  23532037.711 6     -2615.312 6    374935.986 6    283835.15246  23532033.29346
        43.250          25.250  
  22904782.461 6     -1557.686 6    -98819.493 6    -75255.16347  22904776.05147
        44.000          28.750  
  24378480.188 3      3229.924 3  -2024828.973 3  -1545442.83645  24378473.07445
        37.250          17.250  
  20362066.875 7       584.766 7   -965908.969 7   -725233.84748  20362058.53148
        48.750          41.250  
  21869001.133 7     -1697.670 7      -791.141 7       -51.50148  21868992.90648
        47.750          35.000  
  22688278.023 6      -678.809 6   -459654.822 6   -345698.00548  22688269.68048
        45.500          34.250  
  23716564.758 5     -3483.710 5    731432.699 5    549568.22946  23716561.51246
        41.000          22.500  
  20595293.547 7      -409.603 7   -536344.475 7   -401820.19649  20595283.32849
        51.500          41.750  
  25309498.320 1      3419.133 1  -2022739.179 1  -1571940.06945  25309494.25445
        33.500          17.250  
  24987511.492 5     -2512.320 5    315913.280 5    241374.08746  24987506.25446
        39.500          22.000  
  24740512.875 3      3675.448 3  -2118350.018 3  -1646087.83646  24740511.97346
        36.000          20.500  
 11  3 30 18  9  0.0000000  0 12G03G06G09G11G14G18G19G21G22G24G27G31
  23390800.844 6     -2635.736 6    418097.837 6    315553.10546  23390797.48046
        42.750          25.500  
  23539512.188 6     -2618.487 6    414213.298 6    314440.79146  23539508.29746
        43.000          25.000  
  22909258.047 6     -1567.937 6    -75300.434 6    -56928.64547  22909251.52047
        43.750          28.250  
  24369270.898 3      3226.335 3  -2073223.996 3  -1583153.27045  24369263.60945
        37.000          18.250  
  20360420.477 7       576.777 7   -974560.627 7   -731975.39849  20360411.89849
        48.000          41.500  
  21873855.570 7     -1700.646 7     24718.552 7     19826.15648  21873847.46148
        48.000          35.000  
  22690240.922 6      -687.636 6   -449340.281 6   -337660.73248  22690232.75448
        46.500          34.250  
  23726519.539 5     -3487.150 5    783739.955 5    590327.00546  23726515.00446
        42.000          22.000  
  20596473.906 7      -413.534 7   -530141.458 7   -396986.69149  20596463.39549
        51.000          42.250  
  25299739.898 1      3418.838 1  -2074021.755 1  -1611900.51845  25299735.48045
        28.750          18.250  
  24994698.320 4     -2517.792 4    353680.157 4    270802.76746  24994693.25846
        38.250          22.000  
  24730018.063 3      3676.390 3  -2173495.874 3  -1689058.58546  24730017.57046
        36.000          20.750  
 11  3 30 18  9 15.0000000  0 12G03G06G09G11G14G18G19G21G22G24G27G31
  23398335.672 5     -2639.721 5    457693.658 5    346406.92546  23398331.78146
        40.500          26.000  
  23546996.547 6     -2621.888 6    453541.611 6    345086.16347  23546992.01247
        43.250          27.250  
  22913763.242 6     -1578.419 6    -51624.144 6    -38479.58447  22913756.12947
        44.500          28.250  
  24360072.375 3      3222.479 3  -2121561.181 3  -1620818.58545  24360065.84845
        36.250          17.750  
  20358797.531 6       568.547 6   -983088.835 6   -738620.74448  20358789.30548
        46.250          41.000  
  21878719.047 7     -1703.877 7     50276.701 7     39741.56848  21878711.11348
        49.250          34.500  
  22692229.625 6      -696.699 6   -438889.796 6   -329517.52048  22692221.45748
        46.500          34.000  
  23736483.188 5     -3490.819 5    836102.235 5    631128.69246  23736479.59046
        40.250          22.000  
  20597666.242 7      -417.712 7   -523875.782 7   -392104.36049  20597655.78949
        50.250          42.750  
  25289984.734 1      3418.294 1  -2125296.169 1  -1651854.63445  25289978.32445
        27.500          16.750  
  25001902.234 4     -2523.498 4    391532.628 4    300298.19946  25001896.17646
        38.000          21.500  
  24719522.938 3      3677.053 3  -2228651.676 3  -1732037.06646  24719522.03546
        37.000          21.250  
 11  3 30 18  9 30.0000000  0 12G03G06G09G11G14G18G19G21G22G24G27G31
  23405880.195 5     -2643.169 5    497341.186 5    377301.04547  23405876.36347
        42.000          27.000  
  23554488.336 6     -2624.767 6    492913.112 6    375765.18946  23554484.15246
        42.500          24.500  
  22918297.680 6     -1588.394 6    -27798.232 6    -19913.94547  22918291.09447
        42.750          27.750  
  24350883.664 3      3219.105 3  -2169847.756 3  -1658444.46645  24350876.72745
        36.250          18.250  
  20357196.742 7       560.815 7   -991501.061 7   -745175.72048  20357188.75048
        47.750          41.000  
  21883590.477 7     -1706.605 7     75875.771 7     59688.87448  21883581.89848
        48.750          34.500  
  22694242.734 6      -705.252 6   -428311.015 6   -321274.33748  22694234.27348
        47.000          34.000  
  23746456.211 5     -3493.968 5    888511.754 5    671967.15546  23746452.96546
        40.000          22.000  
  20598869.133 7      -421.396 7   -517554.849 7   -387178.96349  20598858.91449
        50.250          42.000  
  25280224.21111      3419.06311                  -1691807.87055  25280220.67255
        28.250          16.750  
  25009119.719 4     -2528.689 4    429462.959 4    329854.23146  25009113.83646
        38.250          20.500  
  24709023.805 4      3678.193 4  -2283824.574 4  -1775028.86446  24709022.66846
        38.250          21.750  
 11  3 30 18  9 45.0000000  0 11G03G06G09G11G14G18G19G21G22G27G31   
  23413435.539 5     -2646.879 5    537044.376 5    408238.53247  23413431.88347
        41.000          28.000  
  23561989.781 6     -2627.903 6    532331.662 6    406480.88446  23561985.71546
        42.500          25.750  
  22922860.641 6     -1598.637 6     -3818.683 6     -1228.58747  22922854.52347
        43.250          27.750  
  24341705.805 2      3215.425 2  -2218079.129 2  -1696027.38346  24341699.16046
        35.500          19.000  
  20355618.813 7       552.801 7   -999793.079 7   -751637.02848  20355610.35248
        47.750          41.250  
  21888470.352 7     -1709.619 7    101520.062 7     79671.41048  21888462.12548
        48.000          34.750  
  22696281.016 6      -714.081 6   -417599.795 6   -312927.95548  22696272.84848
        46.750          34.000  
  23756439.430 5     -3497.391 5    940972.622 5    712845.64946  23756435.77346
        39.750          21.250  
  20600083.438 7      -425.361 7   -511174.436 7   -382207.22249  20600072.63349
        50.000          42.500  
  25016353.070 3     -2534.136 3    467474.999 3    359473.97846  25016347.36346
        37.250          21.500  
  24698522.352 4      3679.033 4  -2339010.072 4  -1818030.47046  24698521.27346
        38.500          21.500  
 11  3 30 18 10  0.0000000  0 12G03G06G09G11G14G18G19G21G22G24G27G31
  23421001.555 5     -2650.533 5    576802.375 5    439218.73347  23420997.54747
        42.000          26.500  
  23569499.727 5     -2630.984 5    571796.419 5    437232.58647  23569495.71947
        42.000          27.000  
  22927452.492 6     -1608.835 6     20313.844 6     17575.97647  22927445.90647
        43.250          26.500  
  24332537.633 3      3211.744 3  -2266255.283 3  -1733567.24546  24332530.98846
        36.250          19.000  
  20354063.680 6       544.825 6  -1007965.452 6   -758005.10348  20354055.68848
        46.250          41.000  
  21893359.109 7     -1712.603 7    127209.104 7     99688.82148  21893350.47348
        48.750          35.500  
  22698344.047 6      -722.873 6   -406756.707 6   -304478.81148  22698336.17248
        47.000          34.500  
  23766432.430 5     -3500.766 5    993484.108 5    753763.60846  23766428.65646
        40.000          21.750  
  20601308.438 7      -429.300 7   -504734.941 7   -377189.45149  20601298.27749
        48.250          42.500  
  25260716.53111      3417.62511                                
        31.250  
  25023602.188 3     -2539.547 3    505568.211 3    389156.95446  25023596.77346
        36.750          21.000  
  24688019.008 4      3679.881 4  -2394208.283 4  -1861041.97446  24688017.34446
        38.750          22.250  
 11  3 30 18 10 15.0000000  0 11G03G06G09G11G14G18G19G21G22G27G31   
  23428577.391 5     -2654.143 5    616614.523 5    470241.12747  23428573.38347
        42.000          27.250  
  23577018.641 6     -2634.017 6    611306.678 6    468019.72647  23577013.93047
        42.500          26.750  
  22932073.836 6     -1618.991 6     44598.704 6     36499.23247  22932067.01647
        43.750          28.500  
  24323380.898 3      3208.084 3  -2314376.540 3  -1771064.32446  24323374.31346
        36.500          19.750  
  20352531.180 6       536.873 6  -1016018.542 6   -764280.23049  20352522.95349
        46.250          41.500  
  21898255.719 7     -1715.572 7    152942.690 7    119740.94048  21898247.60948
        48.500          35.000  
  22700433.008 6      -731.630 6   -395782.251 6   -295927.30848  22700424.84048
        46.500          34.500  
  23776434.391 5     -3504.099 5   1046045.591 5    794720.48546  23776430.32446
        39.750          20.750  
  20602545.133 7      -433.220 7   -498236.648 7   -372125.84749  20602534.62149
        49.000          42.250  
  25030866.703 3     -2544.911 3    543741.881 3    418902.62646  25030860.93846
        37.250          20.000  
  24677512.609 4      3680.725 4  -2449419.155 4  -1904063.37146  24677510.94546
        39.000          24.000  
 11  3 30 18 10 30.0000000  0 11G03G06G09G11G14G18G19G21G22G27G31   
  23436163.688 5     -2657.753 5    656480.818 5    501305.69747  23436160.03147
        42.000          27.750  
  23584545.148 6     -2637.061 6    650862.591 6    498842.46146  23584541.02346
        42.500          26.000  
  22936724.414 6     -1629.170 6     69036.253 6     55541.48147  22936717.82847
        43.000          27.500  
  24314234.227 3      3204.352 3  -2362441.825 3  -1808517.77346  24314227.75846
        36.500          19.500  
  20351021.297 6       528.900 6  -1023952.037 6   -770462.17048  20351013.12948
        47.500          41.250  
  21903161.563 7     -1718.567 7    178721.188 7    139828.06348  21903153.16048
        48.250          34.750  
  22702546.031 6      -740.402 6   -384676.218 6   -287273.27648  22702537.92248
        46.000          34.000  
  23786446.063 5     -3507.455 5   1098657.416 5    835716.59746  23786442.40646
        39.500          19.500  
  20603793.156 7      -437.160 7   -491679.247 7   -367016.19549  20603782.41049
        50.250          42.250  
  25038145.648 3     -2550.291 3    581996.249 3    448711.19046  25038140.87946
        37.000          20.250  
  24667004.305 5      3681.518 5  -2504641.924 5  -1947093.93946  24667002.11346
        39.750          22.500  
 11  3 30 18 10 45.0000000  0 12G03G06G09G11G14G18G19G21G22G24G27G31
  23443759.500 6     -2661.155 6    696398.148 6    532410.05647  23443756.19547
        42.750          28.500  
  23592081.008 5     -2639.893 5    690460.988 5    529698.27746  23592076.88346
        41.500          26.000  
  22941403.961 5     -1639.157 5     93623.606 5     74700.44347  22941396.49647
        42.250          28.250  
  24305098.367 4      3200.801 4  -2410453.833 4  -1845929.73046  24305091.07846
        37.500          19.500  
  20349534.281 7       521.109 7  -1031768.672 7   -776553.05148  20349526.05548
        47.750          41.000  
  21908075.422 6     -1721.383 6    204541.929 6    159948.09348  21908066.43448
        47.500          34.500  
  22704683.867 6      -748.979 6   -373441.530 6   -278518.98748  22704675.64148
        45.500          34.000  
  23796467.031 4     -3510.604 4   1151316.479 4    876749.52546  23796462.73046
        38.500          20.750  
  20605051.555 7      -440.925 7   -485065.370 7   -361862.53949  20605040.80949
        50.750          42.500  
  25231457.57012      3416.18812    433758.28912                
        34.000  
  25045440.445 3     -2555.473 3    620328.339 3    478580.30846  25045435.03146
        36.750          21.000  
  24656493.195 5      3682.462 5  -2559878.856 5  -1990135.60846  24656491.12146
        40.500          22.250  
 11  3 30 18 11  0.0000000  0 12G03G06G09G11G14G18G19G21G22G24G27G31
  23451366.859 6     -2664.849 6    736370.884 6    563557.56647  23451362.73447
        42.500          28.250  
  23599624.930 6     -2643.028 6    730106.412 6    560590.75646  23599620.98046
        42.500          26.000  
  22946110.750 6     -1649.448 6    118365.326 6     93979.71047  22946105.04347
        43.500          28.250  
  24295972.547 4      3196.898 4  -2458407.302 4  -1883296.07046  24295966.19546
        37.500          20.000  
  20348069.992 6       513.002 6  -1039463.702 6   -782549.17249  20348061.29749
        45.750          42.000  
  21912997.305 6     -1724.509 6    230409.567 6    180104.67648  21912989.13748
        47.500          34.500  
  22706847.344 6      -757.876 6   -362073.393 6   -269660.72248  22706839.23448
        45.000          34.000  
  23806497.352 5     -3514.060 5   1204027.385 5    917822.85146  23806493.87146
        39.750          20.250  
  20606321.703 7      -445.008 7   -478390.242 7   -356661.14649  20606311.48449
        48.000          42.000  
  25221706.508 2      3415.989 2    382518.456 2                
        34.500  
  25052750.539 3     -2560.950 3    658742.588 3    508513.42546  25052744.89146
        36.500          19.000  
  24645979.242 5      3683.070 5  -2615124.901 5  -2033184.37546  24645977.69546
        40.750          23.000  
 11  3 30 18 11 15.0000000  0 12G03G06G09G11G14G18G19G21G22G24G27G31
  23458984.141 5     -2668.409 5    776397.018 5    594746.69647  23458979.19547
        41.250          28.000  
  23607177.547 5     -2646.020 5    769796.707 5    591518.18846  23607173.65646
        42.000          26.000  
  22950848.891 6     -1659.601 6    143259.338 6    113377.63147  22950841.89547
        44.750          27.750  
  24286858.539 4      3193.099 4  -2506303.787 4  -1920617.99346  24286851.71946
        37.750          20.750  
  20346628.492 6       505.024 6  -1047039.060 6   -788452.03949  20346619.56349
        47.000          41.500  
  21917928.484 6     -1727.519 6    256322.346 6    200296.42648  21917920.08248
        47.000          35.250  
  22709035.969 6      -766.633 6   -350573.893 6   -260700.09647  22709027.33247
        45.500          33.500  
  23816538.070 4     -3517.382 4   1256788.115 4    958934.96846  23816533.77046
        38.500          19.750  
  20607603.320 7      -448.973 7   -471655.647 7   -351413.42249  20607593.04349
        49.500          42.500  
  25211956.391 2      3415.530 2    331285.502 2                
        34.250  
  25060074.820 2     -2566.292 2    697236.962 2    538509.03045  25060069.81645
        35.250          18.250  
  24635464.680 5      3683.775 5  -2670381.523 5  -2076241.39246  24635462.60546
        41.250          24.000  
 11  3 30 18 11 30.0000000  0 12G03G06G09G11G14G18G19G21G22G24G27G31
  23466609.477 5     -2671.917 5    816475.780 5    625976.83747  23466606.23047
        41.500          27.500  
  23614739.023 5     -2648.969 5    809531.240 5    622480.09946  23614735.89546
        41.500          26.000  
  22955615.180 6     -1669.724 6    168305.205 6    132893.88347  22955608.65247
        43.750          27.500  
  24277755.211 4      3189.302 4  -2554143.314 4  -1957895.54946  24277748.21546
        38.750          21.250  
  20345209.500 6       497.066 6  -1054495.048 6   -794261.89249  20345200.98049
        46.750          41.750  
  21922867.977 7     -1730.515 7    282280.074 7    220523.20748  21922859.45748
        48.000          35.000  
  22711248.945 6      -775.361 6   -338943.472 6   -251637.44648  22711240.71948
        46.250          34.250  
  23826586.859 4     -3520.669 4   1309598.152 4   1000085.55846  23826583.32046
        39.000          19.000  
  20608896.391 7      -452.926 7   -464861.762 7   -346119.49149  20608885.82049
        49.250          43.000  
  25202208.391 3      3415.077 3    280059.345 3                
        36.000  
  25067415.750 2     -2571.597 2    735810.910 2    568566.59045  25067410.92245
        35.250          18.500  
  24624947.539 5      3684.472 5  -2725648.607 5  -2119306.59046  24624945.69946
        41.500          22.750  
 11  3 30 18 11 45.0000000  0 12G03G06G09G11G14G18G19G21G22G24G27G31
  23474247.016 6     -2675.361 6    856606.196 6    657247.22147  23474243.06647
        42.500          27.500  
  23622309.016 5     -2651.863 5    849309.188 5    653475.83946  23622304.65646
        41.500          26.250  
  22960408.820 6     -1679.807 6    193502.307 6    152527.97547  22960402.76247
        42.500          28.500  
  24268662.430 4      3185.507 4  -2601925.926 4  -1995128.76246  24268655.19946
        38.000          21.500  
  20343813.023 7       489.130 7  -1061831.999 7   -799978.99549  20343804.79749
        48.500          41.500  
  21927816.078 7     -1733.482 7    308282.307 7    240784.66448  21927807.55948
        48.000          35.250  
  22713486.938 6      -784.052 6   -327182.698 6   -242473.23148  22713478.59448
        46.000          34.250  
  23836646.289 5     -3523.908 5   1362456.778 5   1041274.01046  23836642.22346
        39.500          19.500  
  20610200.281 7      -456.855 7   -458008.931 7   -340779.63049  20610190.06349
        50.500          42.750  
  25192462.195 3      3414.639 3    228839.760 3                
        36.000  
  25074772.016 3     -2576.859 3    774463.789 3    598685.67845  25074765.84045
        36.750          18.250  
  24614427.852 5      3685.168 5  -2780926.133 5  -2162379.87646  24614426.30546
        41.750          22.750  
 11  3 30 18 12  0.0000000  0 12G03G06G09G11G14G18G19G21G22G24G27G31
  23481893.289 5     -2678.815 5    896788.421 5    688557.98547  23481889.69147
        41.000          28.250  
  23629886.094 5     -2654.758 5    889130.558 5    684505.40846  23629882.49646
        40.250          26.000  
  22965233.813 5     -1689.887 5    218850.616 5    172279.89747  22965226.28947
        40.500          28.250  
  24259580.398 5      3181.678 5  -2649651.103 5  -2032317.20646  24259573.57846
        39.250          21.750  
  20342439.891 7       481.183 7  -1069049.751 7   -805603.20949  20342431.84049
        48.500          41.500  
  21932772.883 6     -1736.473 6    334329.404 6    261081.07648  21932764.42248
        46.500          35.250  
  22715749.352 6      -792.758 6   -315291.326 6   -233207.25247  22715741.41847
        46.000          33.500  
  23846714.781 5     -3527.159 5   1415364.157 5   1082500.37946  23846710.01246
        39.500          19.750  
  20611515.492 7      -460.804 7   -451096.872 7   -335393.62049  20611505.03949
        50.750          42.250  
  25182716.977 2      3414.168 2    177627.243 2                
        35.500  
  25082140.609 2     -2582.115 2    813195.519 2    628866.18146  25082136.36746
        35.000          19.000  
  24603907.266 5      3685.826 5  -2836213.518 5  -2205460.85646  24603905.48446
        42.250          22.000  
 11  3 30 18 12 15.0000000  0 12G03G06G09G11G14G18G19G21G22G24G27G31
  23489549.563 5     -2682.244 5    937022.088 5    719908.83947  23489545.37947
        40.750          27.500  
  23637472.453 5     -2657.622 5    928994.892 5    715568.46247  23637468.21147
        40.500          26.500  
  22970085.406 5     -1699.958 5    244349.982 5    192149.51747  22970079.23047
        40.750          27.750  
  24250509.656 5      3177.818 5  -2697318.366 5  -2069460.52146  24250503.12946
        39.500          21.750  
  20341088.773 6       473.245 6  -1076148.433 6   -811134.64248  20341080.37148
        47.250          41.250  
  21937737.438 6     -1739.467 6    360421.413 6    281412.48348  21937729.56348
        46.250          35.000  
  22718037.133 6      -801.447 6   -303269.617 6   -223839.70948  22718029.02348
        47.000          34.000  
  23856791.047 4     -3530.391 4   1468320.029 4   1123764.61946  23856787.03946
        38.000          19.750  
  20612842.375 7      -464.749 7   -444125.636 7   -329961.49349  20612831.80549
        50.750          42.000  
  25172972.094 3      3413.672 3    126422.164 3                
        37.250  
  25089526.867 2     -2587.361 2    852005.941 2    659108.02245  25089522.03945
        35.500          18.250  
  24593384.922 5      3686.470 5  -2891510.566 5  -2248549.35846  24593382.49646
        42.250          23.000  
 11  3 30 18 12 30.0000000  0 12G03G06G09G11G14G18G19G21G22G24G27G31
  23497215.164 5     -2685.666 5    977307.072 5    751299.67747  23497212.56347
        42.000          28.000  
  23645066.695 5     -2660.484 5    968902.147 5    746664.96147  23645063.03947
        42.000          27.000  
  22974966.703 5     -1710.028 5    270000.404 5    212136.83447  22974959.94147
        41.250          27.500  
  24241449.492 5      3173.933 5  -2744927.360 5  -2106558.42546  24241443.60946
        40.000          21.250  
  20339760.508 6       465.301 6  -1083127.947 6   -816573.22048  20339752.22348
        46.500          41.000  
  21942711.953 7     -1742.465 7    386558.386 7    301778.93448  21942703.66848
        48.000          34.500  
  22720350.063 6      -810.139 6   -291117.531 6   -214370.57348  22720341.77748
        47.000          34.500  
  23866878.531 5     -3533.620 5   1521324.335 5   1165066.52746  23866874.23046
        40.250          20.500  
  20614180.141 7      -468.707 7   -437095.032 7   -324483.11749  20614169.86349
        49.500          42.000  
  25163230.094 3      3413.156 3     75224.818 3                
        36.500  
  25096926.531 3     -2592.588 3    890894.757 3    689410.95345  25096921.58645
        36.000          18.250  
  24582859.758 6      3687.067 6  -2946816.569 6  -2291644.83946  24582857.74246
        43.250          22.000  
 11  3 30 18 12 45.0000000  0 12G03G06G09G11G14G18G19G21G22G24G27G31
  23504891.867 6     -2689.026 6   1017642.467 6    782729.78447  23504887.85947
        42.750          28.000  
  23652669.211 5     -2663.276 5   1008851.288 5    777794.08847  23652664.79347
        42.250          27.500  
  22979876.797 5     -1720.052 5    295801.190 5    232241.33047  22979870.09447
        41.750          27.750  
  24232401.813 5      3170.063 5  -2792478.300 5  -2143611.10346  24232394.75846
        40.250          22.750  
  20338455.211 6       457.389 6  -1089988.787 6   -821919.32149  20338446.57449
        47.500          41.750  
  21947694.086 7     -1745.426 7    412739.778 7    322179.98648  21947685.27348
        49.000          34.500  
  22722686.891 6      -818.780 6   -278835.832 6   -204800.43848  22722678.60548
        46.500          34.250  
  23876973.234 5     -3536.796 5   1574376.275 5   1206405.60546  23876969.52046
        39.500          19.500  
  20615529.477 7      -472.635 7   -430005.510 7   -318958.82149  20615518.90649
        50.500          41.750  
  25153488.961 4      3412.660 4     24034.915 4                
        38.000  
  25104342.945 2     -2597.771 2    929861.319 2    719774.45745  25104336.82845
        34.500          18.500  
  24572333.883 6      3687.676 6  -3002131.708 6  -2334747.41946  24572332.10246
        42.750          23.000  
 11  3 30 18 13  0.0000000  0 12G03G06G09G11G14G18G19G21G22G24G27G31
  23512576.141 6     -2692.397 6   1058028.419 6    814199.28847  23512572.54347
        43.000          28.250  
  23660278.563 6     -2666.092 6   1048842.662 6    808956.13947  23660275.14147
        42.500          26.750  
  22984814.641 5     -1730.099 5    321752.677 5    252463.24647  22984808.28947
        42.000          26.500  
  24223363.820 5      3166.117 5  -2839970.057 5  -2180617.65446  24223356.64846
        40.750          22.750  
  20337172.117 7       449.445 7  -1096730.455 7   -827172.56648  20337163.77348
        49.000          41.250  
  21952684.656 7     -1748.421 7    438966.086 7    342616.05148  21952676.02048
        48.250          35.500  
  22725049.086 6      -827.449 6   -266424.104 6   -195128.98248  22725040.62548
        46.500          34.500  
  23887077.656 5     -3539.995 5   1627476.201 5   1247782.07246  23887074.46946
        40.000          19.250  
  20616889.813 7      -476.603 7   -422856.463 7   -313388.14149  20616879.18449
        51.250          42.750  
  25143750.023 4      3412.105 4    -27146.661 4                
        38.750  
  25111773.438 1     -2602.973 1    968905.906 1    750198.75246  25111766.73446
        33.500          19.250  
  24561806.492 6      3688.225 6  -3057455.090 6  -2377856.46146  24561804.41846
        43.000          22.500  
 11  3 30 18 13 15.0000000  0 12G03G06G09G11G14G18G19G21G22G24G27G31
  23520271.445 5     -2695.697 5   1098463.869 5    845707.38547  23520267.55547
        42.250          28.500  
  23667897.156 5     -2668.847 5   1088875.362 5    840150.38046  23667893.09046
        42.250          26.250  
  22989781.703 6     -1740.095 6    347854.096 6    272801.98947  22989775.35247
        43.000          28.500  
  24214337.617 5      3162.190 5  -2887402.901 5  -2217578.31846  24214331.44146
        41.500          22.000  
  20335911.992 7       441.537 7  -1103353.513 7   -832333.38249  20335903.82449
        48.500          41.750  
  21957684.109 7     -1751.399 7    465237.071 7    363086.92548  21957675.53148
        48.250          35.250  
  22727435.891 6      -836.078 6   -253882.928 6   -185356.65948  22727427.13748
        46.500          34.500  
  23897191.836 5     -3543.147 5   1680623.402 5   1289195.37046  23897187.77046
        41.500          19.250  
  20618261.289 7      -480.536 7   -415648.420 7   -307771.49549  20618250.60249
        51.250          42.250  
  25134011.609 4      3411.571 4    -78320.220 4                
        39.000  
  25119217.125 1     -2608.123 1   1008027.758 1    780683.27345  25119211.59445
        33.500          16.750  
  24551277.391 6      3688.781 6  -3112786.806 6  -2420971.97546  24551275.14146
        43.750          22.500  
 11  3 30 18 13 30.0000000  0 12G03G06G09G11G14G18G19G21G22G24G27G31
  23527975.539 6     -2698.997 6   1138948.827 6    877254.05047  23527971.23847
        42.500          29.000  
  23675522.516 6     -2671.596 6   1128949.298 6    871376.74146  23675519.03546
        43.000          26.000  
  22994776.984 6     -1750.088 6    374105.421 6    293257.52347  22994770.80947
        43.250          28.000  
  24205322.953 5      3158.247 5  -2934776.600 5  -2254492.88346  24205316.36746
        40.750          22.500  
  20334674.125 7       433.627 7  -1109857.925 7   -837401.75448  20334666.25048
        48.750          41.000  
  21962691.773 7     -1754.392 7    491552.949 7    383592.78148  21962683.13748
        48.000          34.750  
  22729846.234 6      -844.701 6   -241212.420 6   -175483.56048  22729838.30148
        47.250          34.750  
  23907314.461 5     -3546.286 5   1733817.691 5   1330645.33946  23907310.62946
        40.500          20.500  
  20619644.352 7      -484.485 7   -408381.142 7   -302108.68449  20619633.78149
        51.000          42.250  
  25124274.945 4      3411.012 4   -129485.393 4                
        39.000  
  25126676.477 2     -2613.268 2   1047226.774 2    811227.93345  25126670.53545
        34.750          18.250  
  24540746.016 6      3689.313 6  -3168126.496 6  -2464093.74246  24540743.64846
        43.500          22.000  
 11  3 30 18 13 45.0000000  0 12G03G06G09G11G14G18G19G21G22G24G27G31
  23535688.703 6     -2702.253 6   1179482.621 6    908838.75347  23535684.22747
        43.750          28.250  
  23683156.727 6     -2674.298 6   1169063.768 6    902634.70347  23683152.30947
        44.000          27.500  
  22999800.695 6     -1760.045 6    400506.093 6    313829.45347  22999794.75447
        43.250          27.250  
  24196319.773 5      3154.292 5  -2982090.979 5  -2291361.22246  24196312.95346
        41.250          22.250  
  20333458.813 7       425.741 7  -1116244.037 7   -842377.94048  20333450.52748
        49.000          40.750  
  21967708.016 7     -1757.359 7    517913.341 7    404133.33148  21967699.26248
        48.750          35.000  
  22732282.039 6      -853.293 6   -228413.018 6   -165510.01848  22732274.22348
        46.500          34.500  
  23917445.836 5     -3549.401 5   1787058.712 5   1372131.75146  23917441.94546
        41.250          21.250  
  20621038.547 7      -488.417 7   -401054.893 7   -296399.92849  20621027.62549
        51.000          42.250  
  25114540.117 5      3410.454 5   -180642.204 5                
        40.000  
  25134150.469 2     -2618.380 2   1086502.469 2    841832.32145  25134144.64545
        34.750          18.250  
  24530213.641 6      3689.821 6  -3223473.804 6  -2507221.43046  24530210.86346
        43.500          22.500  
 11  3 30 18 14  0.0000000  0 12G03G06G09G11G14G18G19G21G22G24G27G31
  23543411.734 6     -2705.535 6   1220065.645 6    940461.82447  23543407.37547
        43.750          28.500  
  23690798.055 6     -2677.025 6   1209219.141 6    933924.54047  23690793.98847
        43.500          27.000  
  23004853.016 6     -1770.050 6    427056.839 6    334518.31547  23004846.95747
        43.000          28.250  
  24187327.508 5      3150.264 5  -3029344.943 5  -2328182.48946  24187321.03946
        40.750          22.500  
  20332266.227 7       417.798 7  -1122511.004 7   -847261.27648  20332258.17648
        49.000          41.000  
  21972732.734 7     -1760.386 7    544319.136 7    424709.25348  21972724.39148
        48.750          34.250  
  22734742.453 6      -861.933 6   -215484.030 6   -155435.49748  22734734.93048
        46.750          34.250  
  23927586.758 5     -3552.550 5   1840346.965 5   1413654.92746  23927582.04746
        41.500          22.000  
  20622443.969 7      -492.404 7   -393668.827 7   -290644.55849  20622433.22349
        51.250          42.500  
  25104807.328 5      3409.823 5   -231789.553 5                
        41.250  
  25141639.898 2     -2623.519 2   1125855.254 2    872496.78246  25141633.07846
        35.500          19.500  
  24519680.609 6      3690.266 6  -3278827.787 6  -2550354.31246  24519678.00846
        43.250          22.500  
 11  3 30 18 14 15.0000000  0 12G03G06G09G11G14G18G19G21G22G24G27G31
  23551143.305 6     -2708.710 6   1260696.291 6    972122.00447  23551139.06347
        43.000          28.500  
  23698446.750 6     -2679.666 6   1249414.127 6    965245.24447  23698443.38747
        43.500          27.500  
  23009934.195 6     -1779.956 6    453756.183 6    355322.98047  23009927.72747
        43.000          27.750  
  24178346.148 5      3146.288 5  -3076539.262 5  -2364957.28146  24178339.73846
        41.000          22.500  
  20331096.180 7       409.940 7  -1128660.108 7   -852052.78748  20331088.12948
        49.250          41.250  
  21977766.219 7     -1763.333 7    570769.138 7    445319.63648  21977757.64148
        48.500          34.500  
  22737227.633 6      -870.489 6   -202426.698 6   -145260.97548  22737219.05548
        46.500          34.500  
  23937735.484 5     -3555.609 5   1893681.092 5   1455213.88246  23937731.65246
        41.750          20.750  
  20623860.750 7      -496.318 7   -386224.060 7   -284843.44349  20623850.12149
        51.500          42.000  
  25095075.891 5      3409.249 5   -282928.285 5                
        41.250  
  25149142.156 2     -2628.570 2   1165283.801 2    903220.26045  25149136.62545
        34.750          18.250  
  24509145.039 6      3690.756 6  -3334189.121 6  -2593492.91846  24509142.49646
        43.500          21.250  
 11  3 30 18 14 30.0000000  0 12G03G06G09G11G14G18G19G21G22G24G27G31
  23558884.336 6     -2711.927 6   1301375.195 6   1003819.79347  23558880.38747
        44.500          28.250  
  23706103.000 6     -2682.348 6   1289649.340 6    996597.29547  23706099.93047
        43.500          28.000  
  23015043.320 5     -1789.915 5    480604.913 5    376244.03547  23015037.26247
        42.250          29.250  
  24169377.195 5      3142.225 5  -3123672.640 5  -2401684.58346  24169370.55146
        40.750          22.500  
  20329948.500 7       402.017 7  -1134690.357 7   -856751.67548  20329940.03948
        48.000          41.000  
  21982807.703 7     -1766.354 7    597264.449 7    465965.30048  21982799.82848
        48.500          34.000  
  22739736.680 6      -879.099 6   -189240.207 6   -134985.80748  22739728.62948
        46.500          34.250  
  23947893.750 5     -3558.720 5   1947061.888 5   1496809.20946  23947889.91846
        41.000          22.750  
  20625288.734 7      -500.296 7   -378719.619 7   -278995.83949  20625278.04749
        51.250          42.250  
  25085346.234 5      3408.594 5   -334057.195 5                
        40.500  
  25156659.836 2     -2633.674 2   1204788.906 2    934003.44246  25156654.65646
        35.500          19.000  
  24498609.148 6      3691.156 6  -3389556.454 6  -2636636.22646  24498606.07846
        43.000          22.000  
 11  3 30 18 14 45.0000000  0 12G03G06G09G11G14G18G19G21G22G24G27G31
  23566634.398 6     -2715.103 6   1342101.744 6   1035554.70347  23566629.57047
        43.750          28.000  
  23713767.594 6     -2684.984 6   1329924.100 6   1027980.16747  23713763.17647
        43.500          27.000  
  23020180.883 5     -1799.837 5    507602.472 5    397281.07947  23020174.53147
        40.750          28.250  
  24160419.195 5      3138.156 5  -3170744.977 5  -2438364.32046  24160412.96146
        40.750          22.500  
  20328823.852 7       394.117 7  -1140602.108 7   -861358.23248  20328815.21548
        48.250          41.000  
  21987858.328 6     -1769.335 6    623804.480 6    486645.83048  21987849.57448
        47.500          34.000  
  22742270.336 6      -887.667 6   -175925.206 6   -124610.49648  22742262.05148
        46.000          35.000  
  23958060.836 5     -3561.782 5   2000488.622 5   1538440.30946  23958056.82846
        41.000          22.750  
  20626728.148 7      -504.264 7   -371155.656 7   -273101.84549  20626717.69549
        52.000          42.000  
  25075618.555 5      3407.937 5   -385176.249 5  -2390568.47356  25075606.69556
        41.000          19.250  
  25164191.609 3     -2638.740 3   1244370.000 3    964845.80445  25164186.13745
        36.000          18.500  
  24488072.117 6      3691.549 6  -3444929.696 6  -2679784.10946  24488069.51646
        42.750          22.500  
 11  3 30 18 15  0.0000000  0 12G03G06G09G11G14G18G19G21G22G24G27G31
  23574392.977 6     -2718.226 6   1382875.137 6   1067326.11347  23574389.55547
        44.000          28.000  
  23721438.930 6     -2687.552 6   1370237.385 6   1059393.04646  23721435.09846
        43.000          25.750  
  23025347.016 5     -1809.715 5    534748.203 5    418433.56247  23025341.13347
        40.750          28.500  
  24151473.234 5      3134.107 5  -3217756.587 5  -2474996.71346  24151466.82446
        40.250          22.500  
  20327720.992 7       386.262 7  -1146396.035 7   -865872.97448  20327712.70748
        48.250          41.000  
  21992917.164 6     -1772.296 6    650388.925 6    507360.96248  21992908.87948
        46.500          34.500  
  22744828.508 6      -896.198 6   -162482.241 6   -114135.47847  22744820.39847
        46.250          33.500  
  23968236.344 5     -3564.800 5   2053960.622 5   1580106.69746  23968232.80546
        40.500          22.500  
  20628178.742 7      -508.198 7   -363532.690 7   -267161.87849  20628168.40649
        51.250          42.000  
  25065892.773 5      3407.303 5   -436285.794 5  -2430394.10745  25065884.89845
        41.500          17.750  
  25171739.391 4     -2643.742 4   1284026.126 4    995746.69146  25171732.51246
        39.000          19.500  
  24477533.563 6      3691.954 6  -3500309.007 6  -2722936.73346  24477531.02046
        42.750          21.750  
 11  3 30 18 15 15.0000000  0 12G03G06G09G11G14G18G19G21G22G24G27G31
  23582160.758 6     -2721.351 6   1423695.395 6   1099134.04647  23582157.04347
        43.000          28.250  
  23729117.641 5     -2690.144 5   1410589.538 5   1090836.20647  23729113.80947
        42.000          28.000  
  23030540.125 5     -1819.606 5    562042.298 5    439701.65147  23030533.89147
        41.000          27.250  
  24142539.469 5      3130.006 5  -3264706.672 5  -2511581.20046  24142532.70746
        40.500          22.500  
  20326641.180 7       378.376 7  -1152071.676 7   -870295.55148  20326633.01248
        48.000          41.250  
  21997984.711 6     -1775.287 6    677018.235 6    528111.04748  21997976.30948
        47.500          33.750  
  22747411.313 6      -904.747 6   -148911.032 6   -103560.53148  22747403.20348
        46.500          34.000  
  23978420.680 5     -3567.844 5   2107478.279 5   1621808.64046  23978416.55546
        41.250          22.750  
  20629640.695 7      -512.160 7   -355850.292 7   -261175.60349  20629630.24249
        52.000          42.250  
  25056169.281 5      3406.629 5   -487385.228 5  -2470211.87846  25056162.93046
        40.500          19.250  
  25179299.031 4     -2648.764 4   1323757.589 4   1026706.23146  25179293.44146
        37.500          19.000  
  24466994.625 6      3692.312 6  -3555693.687 6  -2766093.52646  24466991.43846
        43.000          21.250  
 11  3 30 18 15 30.0000000  0 12G03G06G09G11G14G18G19G21G22G24G27G31
  23589938.438 5     -2724.450 5   1464562.146 5   1130978.19947  23589933.60947
        42.000          27.000  
  23736803.516 5     -2692.708 5   1450980.165 5   1122309.36847  23736800.09447
        40.250          27.000  
  23035762.531 6     -1829.486 6    589484.593 6    461085.25447  23035756.47347
        43.000          28.000  
  24133616.930 5      3125.875 5  -3311594.798 5  -2548117.38746  24133610.63746
        41.000          23.000  
  20325583.508 7       370.498 7  -1157629.140 7   -874626.04148  20325575.16448
        48.000          41.250  
  22003060.273 7     -1778.295 7    703692.667 7    548896.30248  22003052.28148
        48.000          34.250  
  22750017.867 6      -913.290 6   -135211.686 6    -92885.73448  22750009.87548
        46.000          34.500  
  23988612.664 5     -3570.870 5   2161041.325 5   1663545.96446  23988609.30146
        40.750          22.000  
  20631113.797 7      -516.120 7   -348108.491 7   -255143.03349  20631103.40249
        51.500          42.750  
  25046447.281 5      3405.933 5   -538474.222 5  -2510021.48246  25046442.04346
        40.250          19.750  
  25186874.375 4     -2653.776 4   1363564.226 4   1057724.35646  25186868.19946
        38.500          19.000  
  24456453.797 5      3692.631 5  -3611083.147 5  -2809254.05046  24456451.13746
        41.750          22.250  
 11  3 30 18 15 45.0000000  0 12G03G06G09G11G14G18G19G21G22G24G27G31
  23597723.336 5     -2727.511 5   1505474.812 5   1162858.13647  23597719.38747
        41.750          27.000  
  23744497.539 5     -2695.227 5   1491408.577 5   1153811.96147  23744493.29747
        40.000          26.500  
  23041012.852 6     -1839.332 6    617074.572 6    482583.92447  23041006.26647
        43.250          28.000  
  24124706.047 5      3121.767 5  -3358421.299 5  -2584605.57346  24124699.57846
        40.250          22.000  
  20324548.625 7       362.634 7  -1163068.654 7   -878864.61548  20324539.98848
        48.500          41.250  
  22008144.914 7     -1781.266 7    730411.658 7    569716.27448  22008136.51248
        48.000          34.500  
  22752649.188 6      -921.787 6   -121384.882 6    -82111.61948  22752641.19548
        45.750          34.500  
  23998814.547 5     -3573.846 5   2214649.019 5   1705318.08346  23998811.06646
        42.000          23.500  
  20632598.539 7      -520.062 7   -340307.556 7   -249064.38749  20632588.02749
        51.250          42.500  
  25036727.648 5      3405.239 5   -589552.802 5  -2549822.99446  25036722.46946
        40.500          19.000  
  25194463.133 4     -2658.743 4   1403445.366 4   1088800.53245  25194457.07445
        38.500          18.250  
  24445912.414 6      3692.957 6  -3666477.509 6  -2852418.35746  24445909.63746
        42.500          21.500  
 11  3 30 18 16  0.0000000  0 12G03G06G09G11G14G18G19G21G22G24G27G31
  23605517.258 6     -2730.546 6   1546433.001 6   1194773.53647  23605513.60247
        42.500          26.750  
  23752197.586 5     -2697.732 5   1531874.564 5   1185343.82347  23752193.63747
        40.500          26.750  
  23046290.664 6     -1849.167 6    644812.074 6    504197.53047  23046284.48847
        43.000          28.750  
  24115807.102 5      3117.612 5  -3405185.483 5  -2621045.18246  24115800.28146
        40.500          22.000  
  20323535.797 7       354.778 7  -1168390.325 7   -883011.37448  20323527.27748
        47.750          41.250  
  22013237.898 7     -1784.242 7    757175.291 7    590571.02148  22013229.73048
        48.250          33.750  
  22755304.992 6      -930.289 6   -107430.551 6    -71238.13548  22755296.59048
        46.250          34.500  
  24009024.055 5     -3576.827 5   2268301.424 5   1747125.02046  24009020.86746
        40.750          22.250  
  20634093.984 7      -524.024 7   -332447.195 7   -242939.44249  20634083.64849
        51.250          42.500  
  25027009.547 5      3404.519 5   -640620.593 5  -2589616.10246  25027004.77746
        40.250          20.500  
  25202066.266 3     -2663.698 3   1443400.842 3   1119934.64546  25202060.50046
        37.000          19.250  
  24435369.953 5      3693.250 5  -3721876.264 5  -2895586.11146  24435367.64546
        41.500          22.250  
 11  3 30 18 16 15.0000000  0 12G03G06G09G11G14G18G19G21G22G24G27G31
  23613320.391 6     -2733.574 6   1587436.607 6   1226724.34447  23613316.09047
        43.000          27.000  
  23759905.398 5     -2700.231 5   1572378.030 5   1216904.89346  23759901.74246
        42.000          25.750  
  23051597.313 5     -1859.002 5    672697.106 5    525926.11147  23051591.13747
        42.000          28.250  
  24106919.844 5      3113.419 5  -3451886.762 5  -2657435.77046  24106913.25846
        40.250          21.500  
  20322545.688 7       346.911 7  -1173593.989 7   -887066.17049  20322537.05149
        48.000          41.750  
  22018339.734 7     -1787.237 7    783983.851 7    611460.78648  22018331.03948
        47.750          34.000  
  22757984.422 6      -938.801 6    -93348.534 6    -60265.15348  22757976.43048
        45.250          35.250  
  24019242.492 5     -3579.806 5   2321998.516 5   1788966.79546  24019239.77346
        40.750          22.750  
  20635601.258 7      -528.001 7   -324527.180 7   -236768.00749  20635591.03949
        50.750          42.750  
  25017293.805 5      3403.769 5   -691677.126 5  -2629400.42246  25017288.50846
        40.250          21.500  
  25209684.680 5     -2668.652 5   1483430.626 5   1151126.64946  25209678.09446
        39.500          19.750  
  24424827.430 5      3693.499 5  -3777278.747 5  -2938756.74246  24424825.00446
        41.250          21.500  
 11  3 30 18 16 30.0000000  0 12G03G06G09G11G14G18G19G21G22G24G27G31
  23621132.016 6     -2736.556 6   1628484.950 6   1258710.00247  23621127.77347
        43.000          28.250  
  23767619.945 5     -2702.682 5   1612918.254 5   1248494.61047  23767615.87947
        41.250          27.000  
  23056932.289 6     -1868.809 6    700729.243 6    547769.31047  23056925.29347
        42.500          28.250  
  24098045.063 5      3109.224 5  -3498525.116 5  -2693777.34346  24098038.30146
