     2.11           OBSERVATION DATA    GPS(GPS)            RINEX VERSION / TYPE
cnvtToRINEX 2.11.0  Stan Thomas         31-Mar-11 19:15 UTC PGM / RUN BY / DATE 
----------------------------------------------------------- COMMENT             
MD2                                                         MARKER NAME         
MD2                                                         MARKER NUMBER       
Stan Thomas         University of Utah                      OBSERVER / AGENCY   
4644124574          NetRS               1.12                REC # / TYPE / VERS 
12532422            TRM41249.00                             ANT # / TYPE        
 -1926193.3559 -4539633.1974  4033940.7349                  APPROX POSITION XYZ 
        1.3520        0.0000        0.0000                  ANTENNA: DELTA H/E/N
     1     1     0                                          WAVELENGTH FACT L1/2
     7    C1    D1    L1    L2    P2    S1    S2            # / TYPES OF OBSERV 
  2011     3    29    20    55   45.0000000     GPS         TIME OF FIRST OBS   
  2011     3    29    23    59   45.0000000     GPS         TIME OF LAST OBS    
     0                                                      RCV CLOCK OFFS APPL 
    15                                                      LEAP SECONDS        
    16                                                      # OF SATELLITES     
   G03   179   179   174   166   166   179   166            PRN / # OF OBS      
   G04   408   408   403   370   370   408   370            PRN / # OF OBS      
   G06   181   181   177   176   176   181   176            PRN / # OF OBS      
   G07   223   223   223   222   222   223   222            PRN / # OF OBS      
   G10   108   108   106   100   100   108   100            PRN / # OF OBS      
   G11   444   444   443   426   426   444   426            PRN / # OF OBS      
   G13   525   525   522   517   517   525   517            PRN / # OF OBS      
   G14   382   382   379   360   360   382   360            PRN / # OF OBS      
   G16   729   729   726   718   718   729   718            PRN / # OF OBS      
   G20   737   737   737   737   737   737   737            PRN / # OF OBS      
   G22   186   186   185   182   182   186   182            PRN / # OF OBS      
   G23   737   737   737   737   737   737   737            PRN / # OF OBS      
   G24   621   621   618   596   596   621   596            PRN / # OF OBS      
   G25   359   359   356   354   354   359   354            PRN / # OF OBS      
   G30   737   737   737   737   737   737   737            PRN / # OF OBS      
   G31   737   737   737   737   737   737   737            PRN / # OF OBS      
CARRIER PHASE MEASUREMENTS: PHASE SHIFTS REMOVED            COMMENT             
                                                            END OF HEADER       
 11  3 29 20 55 45.0000000  0  9G11G14G20G22G23G24G25G30G31         
  22614679.61717     -1754.93817   -349966.49317   -272028.87357  22614673.38357
        47.750          33.000  
  22801723.78915     -2394.54715   -162586.08615   -133698.30757  22801716.09057
        42.000          28.500  
  22679192.42216      2991.67216  -1627559.36816  -1221125.47757  22679185.60257
        45.500          29.500  
  23881959.75015     -3056.00015    -21929.40615    -23230.54356  23881953.51656
        40.500          23.000  
  24122863.15616      2657.20316  -1530009.02016  -1147883.03256  24122857.03956
        43.500          26.250  
  21458504.88317      -420.48417   -719877.34917   -544245.48058  21458499.00058
        49.000          37.250  
  23885190.46116      -139.18816   -774631.74616   -600263.61956  23885186.80556
        43.000          25.000  
  24424506.37516      3428.96916  -1519949.32616  -1176484.63856  24424505.64856
        43.000          22.750  
  20383673.68017      -237.59417   -770041.25817   -580906.53259  20383664.63359
        51.000          43.000  
 11  3 29 20 56  0.0000000  0  9G11G14G20G22G23G24G25G30G31         
  22619700.836 6     -1759.144 6   -323579.340 6   -251467.48447  22619694.48447
        47.000          31.250  
  22808562.250 6     -2395.954 6   -126646.776 6   -105693.69247  22808554.49247
        43.500          26.500  
  22670658.688 6      2989.588 6  -1672403.190 6  -1256068.67747  22670651.86747
        44.500          28.500  
  23890689.945 5     -3058.535 5     23948.622 5     12518.46246  23890684.29746
        40.500          25.500  
  24115281.578 6      2655.622 6  -1569843.358 6  -1178922.67246  24115276.86746
        42.750          25.250  
  21459721.016 7      -425.995 7   -713487.422 7   -539266.33648  21459714.78148
        49.000          37.000  
  23885602.680 5      -144.600 5   -772462.750 5   -598573.48946  23885600.07846
        41.250          23.500  
  24414721.539 6      3428.337 6  -1571374.387 6  -1216555.93946  24414719.87546
        43.500          23.250  
  20384367.406 7      -243.102 7   -766394.725 7   -578065.06449  20384358.82849
        51.750          43.250  
 11  3 29 20 56 15.0000000  0  9G11G14G20G22G23G24G25G30G31         
  22624741.625 6     -1765.900 6   -297090.840 6   -230827.12147  22624735.21547
        47.250          31.500  
  22815405.016 6     -2397.254 6    -90687.959 6    -77673.86447  22815397.84447
        42.750          29.250  
  22662133.094 6      2986.821 6  -1717205.510 6  -1290979.53447  22662126.15647
        44.750          29.250  
  23899429.656 5     -3061.637 5     69873.181 5     48303.75147  23899423.18847
        42.000          27.250  
  24107705.875 5      2654.147 5  -1609655.561 5  -1209945.06346  24107700.57846
        42.000          25.250  
  21460963.813 7      -435.405 7   -706956.347 7   -534177.19848  21460957.46148
        48.000          36.750  
  23886041.531 6      -153.789 6   -770155.910 6   -596775.96046  23886038.46146
        42.500          23.750  
  24404934.789 6      3428.673 6  -1622804.483 6  -1256631.18846  24404933.00846
        43.750          24.000  
  20385088.914 7      -252.627 7   -762605.321 7   -575112.27549  20385080.16049
        51.750          43.500  
 11  3 29 20 56 30.0000000  0 10G11G14G16G20G22G23G24G25G30G31      
  22629801.570 6     -1772.582 6   -270502.104 6   -210108.65047  22629794.92647
        47.000          31.500  
  22822251.492 6     -2398.488 6    -54710.634 6    -49639.61547  22822243.79347
        43.250          28.750  
  25642892.17215      3244.71915   -299306.88515   -213467.71556  25642894.32056
        41.000          20.000  
  22653615.391 6      2984.093 6  -1761966.904 6  -1325858.50647  22653608.45347
        44.500          29.750  
  23908177.359 6     -3064.651 6    115842.948 6     84124.24146  23908171.12546
        42.500          26.000  
  24100133.461 5      2652.731 5  -1649446.529 5  -1240950.90846  24100128.45746
        42.000          25.250  
  21462233.648 7      -444.746 7   -700285.154 7   -528978.88548  21462227.23848
        49.500          37.250  
  23886506.641 6      -162.913 6   -767712.210 6   -594871.79446  23886502.86746
        43.500          22.500  
  24395146.227 6      3429.059 6  -1674240.374 6  -1296710.97946  24395144.68046
        43.750          22.750  
  20385836.641 7      -262.079 7   -758674.143 7   -572049.00149  20385828.35549
        52.000          43.750  
 11  3 29 20 56 45.0000000  0 10G11G14G16G20G22G23G24G25G30G31      
  22634880.211 6     -1779.205 6   -243814.022 6   -189312.77847  22634873.68447
        47.500          31.500  
  22829101.031 6     -2399.688 6    -18715.313 6    -21591.34947  22829093.80147
        42.750          28.500  
  25633627.320 1      3245.351 1   -347987.155 1   -251400.49546  25633629.58646
        33.500          19.750  
  22645105.484 6      2981.381 6  -1806687.626 6  -1360705.77247  22645098.78147
        45.500          30.500  
  23916934.008 6     -3067.641 6    161857.565 6    119979.69447  23916928.06647
        42.500          26.500  
  24092565.594 6      2651.339 6  -1689216.615 6  -1271940.50046  24092559.82846
        42.500          25.750  
  21463529.414 7      -454.054 7   -693474.341 7   -523671.77848  21463523.18048
        48.750          37.250  
  23886997.539 5      -172.009 5   -765132.078 5   -592861.29146  23886994.17646
        42.250          22.000  
  24385356.977 6      3429.456 6  -1725682.206 6  -1336795.36246  24385355.13746
        43.250          22.000  
  20386611.766 7      -271.499 7   -754601.658 7   -568875.62949  20386602.77749
        51.500          43.500  
 11  3 29 20 57  0.0000000  0 10G11G14G16G20G22G23G24G25G30G31      
  22639977.086 6     -1785.875 6   -217025.891 6   -168438.93947  22639970.85247
        47.500          31.500  
  22835954.633 6     -2400.959 6     17299.069 6      6471.77147  22835947.16847
        44.500          28.750  
  25624356.023 4      3248.438 4   -396713.722 4   -289368.98746  25624357.23446
        38.750          20.000  
  22636603.203 6      2978.579 6  -1851366.313 6  -1395520.28447  22636596.50047
        45.500          31.250  
  23925698.234 5     -3070.700 5    207918.064 5    155870.89646  23925693.05546
        41.750          26.250  
  24085002.453 6      2649.876 6  -1728964.751 6  -1302912.98447  24084996.10247
        42.500          26.500  
  21464852.172 7      -463.431 7   -686522.877 7   -518255.05848  21464846.11348
        48.750          37.000  
  23887515.219 5      -181.183 5   -762414.333 5   -590743.57046  23887511.38746
        41.750          23.000  
  24375567.453 6      3429.741 6  -1777128.328 6  -1376883.13546  24375565.14546
        43.000          22.750  
  20387413.875 7      -280.977 7   -750386.998 7   -565591.46849  20387405.12149
        51.750          43.500  
 11  3 29 20 57 15.0000000  0 10G11G14G16G20G22G23G24G25G30G31      
  22645094.117 7     -1792.474 7   -190138.776 7   -147487.96447  22645087.59047
        47.750          31.500  
  22842810.750 6     -2402.153 6     53331.365 6     34548.85247  22842803.98847
        43.750          28.000  
  25615074.672 1      3251.546 1   -445486.907 1   -327373.98345  25615076.58645
        31.000          17.250  
  22628108.719 6      2975.834 6  -1896003.817 6  -1430302.72347  22628101.84047
        44.750          30.750  
  23934473.023 6     -3073.672 6    254023.141 6    191796.84247  23934467.19947
        43.000          26.750  
  24077442.000 5      2648.478 5  -1768691.927 5  -1333869.12047  24077436.46947
        42.000          26.750  
  21466201.875 7      -472.733 7   -679431.886 7   -512729.62548  21466195.81648
        49.750          37.500  
  23888058.016 5      -190.290 5   -759559.980 5   -588519.39646  23888055.06346
        42.000          25.000  
  24365775.484 6      3430.081 6  -1828579.543 6  -1416974.85546  24365774.28946
        42.500          22.000  
  20388242.484 7      -290.380 7   -746031.292 7   -562197.40649  20388233.73049
        51.750          43.250  
 11  3 29 20 57 30.0000000  0 10G11G14G16G20G22G23G24G25G30G31      
  22650229.586 7     -1799.103 7   -163152.224 7   -126459.52247  22650222.82447
        47.750          31.750  
  22849671.563 6     -2403.399 6     89382.355 6     62640.50547  22849664.68447
        43.500          29.500  
  25605783.75012      3254.65312   -494305.91212   -365414.51255  25605786.19155
        35.500          15.500  
  22619622.680 6      2973.007 6  -1940598.918 6  -1465052.08547  22619615.68447
        43.750          29.000  
  23943255.211 5     -3076.707 5    300173.747 5    227758.21747  23943249.03547
        42.250          27.250  
  24069886.750 6      2647.022 6  -1808397.255 6  -1364808.22747  24069880.04747
        42.750          26.500  
  21467577.891 7      -482.086 7   -672200.592 7   -507094.85748  21467571.83248
        50.250          37.750  
  23888626.633 5      -199.461 5   -756568.066 5   -586188.03446  23888624.20746
        42.250          22.750  
  24355983.203 6      3430.339 6  -1880034.626 6  -1457069.59846  24355981.94946
        42.750          22.000  
  20389098.289 7      -299.820 7   -741533.989 7   -558693.00249  20389089.71149
        51.500          43.000  
 11  3 29 20 57 45.0000000  0 10G11G14G16G20G22G23G24G25G30G31      
  22655383.797 6     -1805.713 6   -136066.534 6   -105353.81447  22655377.03547
        47.250          31.500  
  22856535.641 6     -2404.646 6    125452.043 6     90746.72147  22856528.99647
        43.750          29.000  
  25596484.492 3      3257.605 3   -543169.984 3   -403490.20746  25596487.69546
        35.750          19.250  
  22611144.648 6      2970.159 6  -1985151.298 6  -1499768.19647  22611137.82847
        44.500          29.750  
  23952046.336 6     -3079.729 6    346369.688 6    263754.99547  23952040.86347
        43.000          27.750  
  24062334.727 5      2645.568 5  -1848080.768 5  -1395730.35646  24062329.13746
        41.250          25.750  
  21468980.461 7      -491.437 7   -664829.041 7   -501350.80848  21468974.57848
        50.000          38.500  
  23889222.242 5      -208.632 5   -753438.587 5   -583749.49146  23889219.75846
        40.500          22.500  
  24346191.891 6      3430.565 6  -1931493.104 6  -1497166.97446  24346189.23046
        43.000          22.250  
  20389980.984 7      -309.265 7   -736895.012 7   -555078.20849  20389972.58249
        50.500          43.250  
 11  3 29 20 58  0.0000000  0 10G11G14G16G20G22G23G24G25G30G31      
  22660556.352 6     -1812.255 6   -108882.708 6    -84171.64547  22660549.59047
        47.250          31.250  
  22863402.445 6     -2405.837 6    161539.597 6    118866.85247  22863395.50847
        43.000          27.500  
  25587176.883 1      3260.666 1   -592079.973 1   -441601.80345  25587180.49645
        33.500          16.250  
  22602674.992 6      2967.346 6  -2029661.487 6  -1534451.40847  22602667.64547
        44.750          30.250  
  23960845.500 6     -3082.687 6    392609.998 6    299786.29647  23960839.50047
        43.000          28.000  
  24054787.391 6      2644.161 6  -1887743.183 6  -1426636.05846  24054780.68846
        44.000          25.500  
  21470410.031 7      -500.736 7   -657318.007 7   -495498.06348  21470403.56348
        50.750          38.000  
  23889843.945 5      -217.769 5   -750172.057 5   -581204.13546  23889841.75446
        41.500          23.750  
  24336398.438 5      3430.812 5  -1982955.281 5  -1537267.23946  24336396.71546
        42.250          22.250  
  20390890.797 7      -318.662 7   -732115.075 7   -551353.56949  20390882.04349
        51.750          43.750  
 11  3 29 20 58 15.0000000  0 10G11G14G16G20G22G23G24G25G30G31      
  22665748.406 6     -1818.814 6    -81600.500 6    -62912.81747  22665741.99647
        47.000          31.500  
  22870273.188 6     -2407.067 6    197645.600 6    147001.37647  22870266.48447
        42.750          29.500  
  25577861.609 1      3263.666 1   -641034.963 1   -479748.43545  25577864.34445
        33.500          14.750  
  22594213.008 6      2964.472 6  -2074128.566 6  -1569101.03547  22594205.83647
        43.500          28.500  
  23969652.813 6     -3085.687 6    438895.305 6    335852.67447  23969647.80947
        42.750          27.500  
  24047244.055 6      2642.706 6  -1927383.766 6  -1457524.74946  24047237.11746
        42.500          26.250  
  21471865.750 7      -510.070 7   -649666.955 7   -489536.22248  21471859.98448
        50.000          38.250  
  23890492.367 5      -226.942 5   -746767.927 5   -578551.56646  23890489.41446
        42.000          22.750  
  24326606.211 5      3430.993 5  -2034420.180 5  -1577369.61846  24326602.84846
        41.250          22.000  
  20391827.320 7      -328.089 7   -727193.745 7   -547518.75549  20391818.62549
        51.000          43.000  
 11  3 29 20 58 30.0000000  0 10G11G14G16G20G22G23G24G25G30G31      
  22670958.641 6     -1825.351 6    -54220.229 6    -41577.56447  22670951.99647
        47.500          31.000  
  22877147.531 6     -2408.273 6    233769.688 6    175149.98247  22877140.59447
        43.000          28.750  
  25568537.078 2      3266.661 2   -690034.885 2                
        35.250  
  22585758.969 6      2961.597 6  -2118552.517 6  -1603717.06047  22585752.14847
        44.750          31.000  
  23978469.359 6     -3088.668 6    485225.325 6    371953.88347  23978464.00447
        42.500          27.000  
  24039704.773 6      2641.258 6  -1967002.635 6  -1488396.49947  24039698.18847
        42.500          27.250  
  21473348.180 7      -519.384 7   -641876.191 7   -483465.50348  21473342.64848
        50.250          37.500  
  23891165.852 5      -236.104 5   -743226.372 5   -575791.93146  23891163.54346
        41.750          24.000  
  24316811.391 5      3431.157 5  -2085887.540 5  -1617473.91546  24316808.96546
        42.000          22.500  
  20392790.852 7      -337.500 7   -722131.250 7   -543573.95449  20392781.98049
        51.250          43.500  
 11  3 29 20 58 45.0000000  0 10G11G14G16G20G22G23G24G25G30G31      
  22676187.508 6     -1831.877 6    -26742.069 6    -20166.04147  22676181.21547
        46.500          31.500  
  22884025.102 5     -2409.495 5    269912.121 5    203312.88147  22884018.34047
        41.500          28.250  
  25559205.258 2      3269.603 2   -739078.928 2                
        35.000  
  22577313.852 6      2958.683 6  -2162932.763 6  -1638299.02547  22577306.62147
        44.500          30.500  
  23987294.609 6     -3091.655 6    531600.147 6    408090.01147  23987289.02047
        42.500          27.500  
  24032169.609 6      2639.801 6  -2006599.643 6  -1519251.21347  24032163.37547
        43.250          27.250  
  21474857.555 7      -528.711 7   -633945.534 7   -477285.78348  21474851.32048
        50.250          37.500  
  23891865.891 6      -245.294 6   -739546.961 6   -572924.83446  23891863.05546
        42.500          24.500  
  24307016.422 5      3431.277 5  -2137356.701 5  -1657579.64146  24307014.34846
        40.500          21.500  
  20393781.023 7      -346.921 7   -716927.432 7   -539519.02049  20393772.15249
        51.000          43.750  
 11  3 29 20 59  0.0000000  0 10G11G14G16G20G22G23G24G25G30G31      
  22681435.016 6     -1838.360 6       833.329 6      1321.24847  22681428.37147
        46.750          32.000  
  22890906.164 6     -2410.679 6    306072.302 6    231489.62547  22890899.28547
        42.500          27.750  
  25549864.25011      3272.54411   -788167.43911                
        32.250  
  22568876.766 6      2955.792 6  -2207269.647 6  -1672847.19747  22568869.59447
        44.500          31.250  
  23996127.195 5     -3094.592 5    578019.033 5    444260.48046  23996122.19146
        41.750          26.000  
  24024638.648 6      2638.364 6  -2046175.105 6  -1550089.15647  24024632.41447
        43.000          26.500  
  21476393.250 7      -537.995 7   -625875.616 7   -470997.55548  21476387.25048
        50.000          37.500  
  23892592.578 6      -254.445 6   -735730.294 6   -569950.79246  23892589.39146
        43.750          24.000  
  24297221.273 5      3431.421 5  -2188828.013 5  -1697686.98646  24297219.72746
        39.750          20.250  
  20394797.844 7      -356.284 7   -711583.165 7   -535354.64449  20394789.20749
        50.750          43.500  
 11  3 29 20 59 15.0000000  0 10G11G14G16G20G22G23G24G25G30G31      
  22686700.688 6     -1844.822 6     28505.657 6     22884.07747  22686694.33647
        46.000          31.750  
  22897791.133 5     -2411.868 5    342250.324 5    259680.24847  22897783.78547
        42.000          28.750  
  25540514.883 3      3275.502 3   -837299.969 3                
        36.000  
  22560447.813 6      2952.875 6  -2251562.769 6  -1707361.27047  22560441.22747
        44.750          30.750  
  24004969.148 6     -3097.530 6    624481.979 6    480465.25747  24004963.14847
        42.750          26.500  
  24017110.945 6      2636.934 6  -2085729.121 6  -1580910.37947  24017105.53147
        42.500          27.000  
  21477955.305 7      -547.283 7   -617666.369 7   -464600.74848  21477949.42248
        50.250          37.250  
  23893345.438 6      -263.608 6   -731776.181 6   -566869.66746  23893341.66446
        42.750          25.250  
  24287426.180 4      3431.517 4  -2240300.775 4  -1737795.49146  24287423.98846
        38.500          19.750  
  20395841.523 7      -365.648 7   -706098.438 7   -531080.82649  20395832.65249
        50.000          44.000  
 11  3 29 20 59 30.0000000  0 10G11G14G16G20G22G23G24G25G30G31      
  22691985.383 6     -1851.459 6     56277.546 6     44524.47747  22691978.91447
        46.500          31.500  
  22904679.484 5     -2413.231 5    378448.794 5    287886.81847  22904672.48847
        42.000          28.250  
  25531156.12511      3279.96911                   -670998.37555  25531158.91855
        29.750          17.250  
  22552028.016 6      2949.750 6  -2295809.012 6  -1741838.82247  22552021.31347
        45.500          30.250  
  24013819.656 6     -3100.647 6    670991.681 6    516706.49346  24013813.71546
        43.000          25.500  
  24009589.633 6      2635.308 6  -2125258.746 6  -1611712.62147  24009582.40247
        43.000          26.500  
  21479544.250 7      -556.748 7   -609315.151 7   -458093.31548  21479538.48448
        50.500          37.500  
  23894124.281 6      -272.951 6   -727681.912 6   -563679.30746  23894121.56346
        43.500          25.250  
  24277632.211 5      3431.419 5  -2291772.059 5  -1777902.84546  24277629.31646
        40.250          20.250  
  20396912.570 7      -375.193 7   -700470.547 7   -526695.44449  20396904.05149
        50.250          43.750  
 11  3 29 20 59 45.0000000  0  9G11G14G20G22G23G24G25G30G31         
  22697288.195 6     -1857.711 6     84143.209 6     66237.96047  22697281.72747
        47.000          31.750  
  22911570.602 5     -2414.244 5    414662.451 5    316105.21747  22911563.31347
        41.750          28.000  
  22543616.391 6      2946.968 6  -2340013.528 6  -1776283.85647  22543609.10247
        45.000          30.750  
  24022677.922 5     -3103.403 5    717542.727 5    552979.94446  24022673.21146
        41.750          26.000  
  24002071.086 6      2634.038 6  -2164769.320 6  -1642500.00547  24002063.68047
        42.500          27.000  
  21481159.266 7      -565.859 7   -600827.262 7   -451479.38548  21481153.50048
        50.000          37.750  
  23894928.797 6      -281.954 6   -723452.598 6   -560383.73146  23894926.25446
        43.000          23.500  
  24267836.492 5      3431.644 5  -2343246.727 5  -1818012.88146  24267834.35946
        40.250          21.500  
  20398009.906 7      -384.375 7   -694704.923 7   -522202.74549  20398001.03549
        50.750          43.500  
 11  3 29 21  0  0.0000000  0  9G11G14G20G22G23G24G25G30G31         
  22702609.148 6     -1864.126 6    112105.092 6     88026.41047  22702603.14847
        46.500          31.500  
  22918464.750 5     -2415.440 5    450894.044 5    344337.59947  22918458.04747
        42.000          29.500  
  22535212.945 6      2943.974 6  -2384173.143 6  -1810693.90047  22535205.53947
        45.000          30.000  
  24031544.469 5     -3106.348 5    764137.943 5    589287.80447  24031539.40647
        42.000          27.750  
  23994556.008 6      2632.570 6  -2204257.865 6  -1673270.22746  23994549.77346
        43.250          26.000  
  21482801.344 7      -575.151 7   -592199.991 7   -444756.85248  21482795.10948
        50.000          37.500  
  23895759.953 6      -291.146 6   -719085.402 6   -556980.69946  23895757.35246
        43.250          24.500  
  24258041.234 5      3431.641 5  -2394721.340 5  -1858122.84946  24258038.28146
        40.000          22.000  
  20399133.586 7      -393.742 7   -688798.793 7   -517600.55549  20399125.12549
        50.000          43.250  
 11  3 29 21  0 15.0000000  0  9G11G14G20G22G23G24G25G30G31         
  22707948.109 6     -1870.518 6    140162.862 6    109889.57647  22707942.28547
        46.750          30.750  
  22925363.266 5     -2416.616 5    487143.279 5    372583.73147  22925356.68047
        41.500          28.000  
  22526818.273 6      2940.981 6  -2428287.859 6  -1845068.96347  22526810.92647
        44.500          30.250  
  24040420.172 5     -3109.262 5    810776.870 5    625629.73946  24040414.69946
        42.250          26.250  
  23987045.492 6      2631.119 6  -2243724.647 6  -1704023.47147  23987039.78547
        43.000          27.000  
  21484469.594 7      -584.418 7   -583433.729 7   -437926.01348  21484463.35948
        50.250          37.250  
  23896617.742 6      -300.325 6   -714580.531 6   -553470.39446  23896614.43846
        43.750          25.000  
  24248245.492 4      3431.631 4  -2446195.801 4  -1898232.68246  24248243.12546
        38.250          22.000  
  20400284.234 7      -403.077 7   -682752.642 7   -512889.25649  20400275.65649
        50.000          43.250  
 11  3 29 21  0 30.0000000  0  9G11G14G20G22G23G24G25G30G31         
  22713305.750 6     -1876.867 6    168315.862 6    131826.94647  22713299.45747
        46.250          30.750  
  22932264.430 5     -2417.764 5    523409.736 5    400843.26847  22932257.90247
        41.500          28.000  
  22518432.156 6      2937.996 6  -2472357.801 6  -1879409.12547  22518424.86747
        44.750          29.750  
  24049303.703 5     -3112.145 5    857459.043 5    662005.33646  24049298.11346
        42.250          25.500  
  23979539.438 5      2629.693 5  -2283170.045 5  -1734760.06847  23979533.26247
        41.500          26.500  
  21486163.789 7      -593.653 7   -574528.934 7   -430987.22348  21486157.90648
        50.500          37.750  
  23897500.188 6      -309.481 6   -709938.315 6   -549853.04446  23897497.87946
        43.250          25.750  
  24238449.336 5      3431.618 5  -2497670.077 5  -1938342.35746  24238447.55546
        39.500          21.500  
  20401461.414 7      -412.382 7   -676566.910 7   -508069.20149  20401452.36749
        50.500          43.500  
 11  3 29 21  0 45.0000000  0  9G11G14G20G22G23G24G25G30G31         
  22718681.008 6     -1883.208 6    196563.988 6    153838.43947  22718674.83247
        46.500          30.750  
  22939169.031 5     -2418.913 5    559693.432 5    429116.25647  22939161.74247
        41.500          28.250  
  22510054.539 6      2934.971 6  -2516382.371 6  -1913713.95347  22510047.30947
        45.250          30.250  
  24058196.008 6     -3115.036 6    904184.588 6    698414.77446  24058190.00846
        42.500          26.000  
  23972036.414 5      2628.241 5  -2322593.662 5  -1765479.68746  23972031.46946
        41.750          26.000  
  21487885.188 7      -602.898 7   -565485.461 7   -423940.37448  21487879.01248
        50.250          37.250  
  23898410.242 6      -318.654 6   -705158.510 6   -546128.51346  23898407.64146
        43.000          25.000  
  24228654.406 4      3431.564 4  -2549143.543 4  -1978451.45146  24228652.62546
        38.250          21.000  
  20402664.969 7      -421.686 7   -670241.623 7   -503140.39549  20402655.80549
        50.000          43.500  
 11  3 29 21  1  0.0000000  0 10G11G14G16G20G22G23G24G25G30G31      
  22724075.586 6     -1889.574 6    224907.597 6    175924.33447  22724068.82447
        47.000          31.500  
  22946077.156 5     -2420.110 5    595995.076 5    457403.20847  22946070.21947
        42.000          26.750  
  25474837.21112      3296.93812                                
        35.000  
  22501685.438 6      2931.888 6  -2560360.684 6  -1947982.73447  22501678.44147
        44.750          29.750  
  24067095.633 6     -3117.965 6    950954.069 6    734858.40346  24067089.63346
        42.500          25.500  
  23964539.039 6      2626.748 6  -2361994.888 6  -1796181.88046  23964532.62946
        43.000          25.000  
  21489632.352 7      -612.182 7   -556302.726 7   -416785.00848  21489626.70348
        51.000          37.500  
  23899345.953 6      -327.875 6   -700240.389 6   -542296.18947  23899343.05947
        43.250          26.500  
  24218860.117 5      3431.448 5  -2600615.264 5  -2018559.15546  24218858.21946
        41.500          22.500  
  20403895.094 7      -431.047 7   -663775.919 7   -498102.17849  20403886.51649
        50.500          43.500  
 11  3 29 21  1 15.0000000  0 10G11G14G16G20G22G23G24G25G30G31      
  22729486.094 6     -1895.659 6    253342.479 6    198081.35047  22729479.44947
        46.500          31.000  
  22952987.367 6     -2421.041 6    632310.697 6    485701.07447  22952980.84047
        42.500          28.000  
  25465421.703 1      3300.094 1    522411.119 1                
        32.250  
  22493324.586 6      2929.052 6  -2604296.462 6  -1982218.35847  22493317.35547
        45.000          29.250  
  24076003.203 5     -3120.613 5    997763.261 5    771333.01746  24075997.61346
        42.000          24.750  
  23957045.047 5      2625.520 5  -2401377.685 5  -1826869.70946  23957038.28546
        42.000          24.500  
  21491405.844 7      -621.201 7   -546984.715 7   -409524.23748  21491399.66848
        50.000          38.000  
  23900307.523 5      -336.835 5   -695187.863 5   -538359.12746  23900304.45346
        42.000          24.500  
  24209065.328 5      3431.564 5  -2652088.727 5  -2058668.23046  24209062.66846
        41.000          22.500  
  20405151.477 7      -440.123 7   -657174.072 7   -492957.87649  20405142.89849
        50.000          43.000  
 11  3 29 21  1 30.0000000  0 10G11G14G16G20G22G23G24G25G30G31      
  22734915.703 6     -1902.337 6    281877.534 6    220316.44047  22734909.64547
        46.000          30.750  
  22959902.359 5     -2422.587 5    668649.499 5    514017.00347  22959896.18447
        40.750          28.500  
  25456001.07011      3302.84411                                
        30.250  
  22484973.820 6      2925.578 6  -2648180.132 6  -2016413.37447  22484967.05947
        45.250          30.250  
  24084919.992 5     -3123.879 5   1044621.450 5    807845.78246  24084914.10946
        42.000          24.000  
  23949556.008 6      2623.675 6  -2440732.811 6  -1857535.96146  23949549.83246
        43.500          26.000  
  21493206.273 7      -630.830 7   -537522.265 7   -402150.90548  21493200.27348
        50.000          37.500  
  23901296.273 6      -346.412 6   -689991.679 6   -534310.12546  23901293.67246
        42.750          25.250  
  24199272.039 5      3431.039 5  -2703554.312 5  -2098771.17546  24199269.20346
        42.000          22.750  
  20406435.133 7      -449.800 7   -650427.078 7   -487700.46649  20406426.73049
        48.250          43.250  
 11  3 29 21  1 45.0000000  0 10G11G14G16G20G22G23G24G25G30G31      
  22740363.391 6     -1908.238 6    310501.102 6    242620.48247  22740356.45347
        46.500          31.000  
  22966819.977 5     -2423.368 5    705000.017 5    542342.04547  22966812.74647
        42.000          26.500  
  25446567.594 2      3305.219 2    423341.797 2                
        34.750  
  22476631.164 6      2922.846 6  -2692022.817 6  -2050576.47147  22476623.75847
        45.750          30.750  
  24093843.328 5     -3126.377 5   1091517.109 5    844387.74346  24093838.14846
        40.500          23.750  
  23942070.430 6      2622.576 6  -2480071.448 6  -1888189.36446  23942063.96146
        44.000          25.750  
  21495032.148 7      -639.699 7   -527926.775 7   -394673.91648  21495026.32448
        49.750          37.250  
  23902309.836 6      -355.240 6   -684663.073 6   -530157.95846  23902307.46946
        43.000          24.000  
  24189477.180 5      3431.237 5  -2755022.865 5  -2138876.41346  24189474.93046
        41.750          22.000  
  20407744.883 7      -458.725 7   -643546.208 7   -482338.73549  20407736.01249
        49.000          43.500  
 11  3 29 21  2  0.0000000  0 10G11G14G16G20G22G23G24G25G30G31      
  22745827.766 6     -1914.635 6    339220.629 6    264999.31347  22745821.64847
        46.000          30.750  
  22973740.766 5     -2424.652 5    741369.802 5    570682.10647  22973734.00447
        42.000          27.500  
  25437132.867 3      3306.388 3    373745.972 3                
        36.500  
  22468297.156 6      2919.571 6  -2735816.386 6  -2084701.27947  22468289.86747
        45.500          31.500  
  24102776.406 5     -3129.383 5   1138457.858 5    880964.85946  24102771.16846
        42.000          25.000  
  23934588.648 6      2620.963 6  -2519385.887 6  -1918823.91846  23934582.23846
        43.750          25.250  
  21496884.984 7      -649.071 7   -518190.708 7   -387087.38648  21496878.75048
        50.000          37.250  
  23903350.563 5      -364.581 5   -679194.356 5   -525896.60546  23903347.66846
        42.250          25.750  
  24179683.656 5      3430.895 5  -2806486.284 5  -2178977.66446  24179681.11346
        42.250          21.500  
  20409080.797 7      -468.154 7   -636523.895 7   -476866.79549  20409072.16049
        49.000          43.500  
 11  3 29 21  2 15.0000000  0 10G11G14G16G20G22G23G24G25G30G31      
  22751311.164 6     -1920.875 6    368033.755 6    287451.06447  22751305.04747
        45.500          31.250  
  22980665.211 5     -2425.806 5    777756.885 5    599035.65847  22980658.74247
        41.500          26.750  
  25427684.617 1      3309.074 1    324109.867 1                
        33.250  
  22459972.602 6      2916.423 6  -2779562.725 6  -2118789.29747  22459965.43047
        45.500          30.500  
  24111717.273 5     -3132.244 5   1185441.517 5    917575.40946  24111712.09446
        40.500          24.250  
  23927111.570 6      2619.487 6  -2558678.196 6  -1949441.22446  23927105.39546
        44.000          25.750  
  21498764.328 7      -658.294 7   -508316.305 7   -379393.05348  21498758.09448
        50.000          37.250  
  23904417.641 5      -373.783 5   -673587.615 5   -521527.68046  23904414.68846
        42.250          24.000  
  24169891.750 5      3430.672 5  -2857946.365 5  -2219076.32246  24169888.50446
        42.000          22.750  
  20410443.969 7      -477.427 7   -629362.488 7   -471286.47049  20410435.44949
        50.750          43.500  
 11  3 29 21  2 30.0000000  0 10G11G14G16G20G22G23G24G25G30G31      
  22756812.117 6     -1927.107 6    396940.353 6    309975.65747  22756805.88347
        45.750          31.500  
  22987592.805 6     -2426.955 6    814161.206 6    627402.62647  22987585.45747
        42.750          27.250  
  25418233.078 4      3311.709 4    274434.226 4   -732668.98455  25418233.81655
        37.500          16.750  
  22451656.805 6      2913.265 6  -2823261.705 6  -2152840.41247  22451650.21947
        45.250          30.000  
  24120666.625 5     -3135.092 5   1232467.903 5    954219.23746  24120660.62546
        41.500          23.750  
  23919638.156 6      2618.011 6  -2597948.356 6  -1980041.27546  23919632.50846
        43.500          25.750  
  21500669.258 7      -667.512 7   -498303.630 7   -371590.98448  21500663.55148
        50.250          37.500  
  23905510.742 6      -382.988 6   -667842.791 6   -517051.19646  23905508.14146
        42.750          24.250  
  24160099.547 5      3430.423 5  -2909402.705 5  -2259172.07646  24160096.94546
        41.500          22.250  
  20411833.070 7      -486.697 7   -622062.026 7   -465597.79349  20411823.96549
        51.000          43.750  
 11  3 29 21  2 45.0000000  0 10G11G14G16G20G22G23G24G25G30G31      
  22762330.359 6     -1933.239 6    425938.937 6    332571.92847  22762324.00847
        45.750          30.500  
  22994523.039 5     -2428.039 5    850581.791 5    655782.27147  22994516.57047
        42.250          27.250  
  25408772.000 2      3314.402 2    224718.193 2   -771408.49745  25408772.68045
        35.500          13.750  
  22443349.992 6      2910.149 6  -2866913.945 6  -2186855.11447  22443342.82047
        46.000          31.250  
  24129622.680 5     -3137.868 5   1279535.919 5    990895.48246  24129617.50046
        40.750          22.750  
  23912169.492 6      2616.582 6  -2637197.089 6  -2010624.63346  23912163.49246
        44.000          25.750  
  21502600.766 7      -676.659 7   -488153.738 7   -363681.99248  21502594.70748
        50.000          37.000  
  23906630.742 6      -392.132 6   -661960.810 6   -512467.81846  23906627.14546
        42.750          25.000  
  24150308.164 5      3430.205 5  -2960855.776 5  -2299265.25646  24150305.79746
        41.500          23.000  
  20413248.461 7      -495.896 7   -614623.591 7   -459801.60149  20413239.76649
        51.500          43.500  
 11  3 29 21  3  0.0000000  0 10G11G14G16G20G22G23G24G25G30G31      
  22767865.844 6     -1939.413 6    455030.136 6    355240.36047  22767859.49247
        45.000          30.500  
  23001457.133 6     -2429.180 6    887019.491 6    684175.26647  23001450.37147
        43.000          27.750  
  25399303.438 2      3317.007 2    174963.093 2   -810180.08945  25399304.59045
        34.250          13.750  
  22435052.148 6      2906.949 6  -2910518.183 6  -2220832.39347  22435045.21147
        45.000          31.500  
  24138587.297 5     -3140.700 5   1326646.417 5   1027604.87746  24138582.76246
        40.250          22.500  
  23904705.641 6      2615.105 6  -2676423.667 6  -2041190.72747  23904699.23047
        44.000          27.000  
  21504558.484 7      -685.869 7   -477865.697 7   -355665.34648  21504552.54348
        50.250          37.250  
  23907776.344 6      -401.342 6   -655940.683 6   -507776.79246  23907772.86346
        43.250          24.000  
  24140517.734 5      3429.892 5  -3012304.150 5  -2339354.78347  24140515.71947
        40.500          26.500  
  20414690.273 7      -505.146 7   -607046.404 7   -453897.28749  20414681.75449
        50.500          43.000  
 11  3 29 21  3 15.0000000  0 10G11G14G16G20G22G23G24G25G30G31      
  22773420.063 6     -1945.563 6    484213.576 6    377980.67847  22773413.59447
        46.250          30.500  
  23008393.992 6     -2430.311 6    923474.150 6    712581.46347  23008387.81647
        43.000          27.750  
  25389828.633 4      3319.593 4    125169.198 4   -848989.38945  25389830.25445
        38.500          14.750  
  22426763.508 6      2903.738 6  -2954074.247 6  -2254772.14947  22426756.68847
        45.750          31.250  
  24147559.648 5     -3143.518 5   1373799.191 5   1064347.17446  24147555.34846
        39.750          21.750  
  23897245.000 6      2613.639 6  -2715628.247 6  -2071739.67647  23897238.82447
        43.500          27.000  
  21506542.461 7      -695.065 7   -467439.715 7   -347541.21248  21506536.34448
        50.500          37.250  
  23908948.547 6      -410.541 6   -649782.561 6   -502978.23446  23908944.24646
        43.750          24.000  
  24130728.609 5      3429.572 5  -3063747.728 5  -2379440.58346  24130726.24246
        41.500          23.750  
  20416158.766 7      -514.375 7   -599330.781 7   -447885.10349  20416149.89549
        51.250          43.500  
 11  3 29 21  3 30.0000000  0 10G11G14G16G20G22G23G24G25G30G31      
  22778990.625 6     -1951.649 6    513488.316 6    400792.13447  22778984.27347
        45.250          29.500  
  23015334.461 6     -2431.391 6    959945.016 6    741000.29847  23015328.05147
        43.000          27.750  
  25380345.914 2      3322.195 2     75336.270 2   -887827.84745  25380346.83245
        35.500          16.250  
  22418484.438 6      2900.536 6  -2997582.294 6  -2288674.48547  22418477.20747
        46.250          31.500  
  24156540.500 5     -3146.295 5   1420993.610 5   1101121.95646  24156535.67246
        39.750          22.500  
  23889788.813 6      2612.201 6  -2754811.263 6  -2102271.82746  23889781.87546
        43.250          24.500  
  21508552.773 7      -704.211 7   -456876.551 7   -339310.19548  21508546.42248
        50.000          37.500  
  23910146.414 6      -419.708 6   -643486.948 6   -498072.55546  23910142.28946
        43.500          24.750  
  24120940.313 5      3429.254 5  -3115186.543 5  -2419522.66746  24120937.59446
        40.250          24.250  
  20417653.297 7      -523.559 7   -591477.393 7   -441765.57049  20417644.48449
        51.500          44.000  
 11  3 29 21  3 45.0000000  0 10G11G14G16G20G22G23G24G25G30G31      
  22784578.516 6     -1957.766 6    542854.813 6    423675.07647  22784572.39847
        45.750          30.000  
  23022277.773 6     -2432.518 6    996432.788 6    769432.28847  23022270.89547
        43.500          27.250  
  25370855.453 4      3324.739 4     25465.188 4   -926697.22044  25370856.54744
        37.500          12.500  
  22410214.523 6      2897.282 6  -3041041.525 6  -2322538.78347  22410207.11747
        46.000          31.000  
  24165530.891 5     -3149.106 5   1468230.203 5   1137929.57246  24165525.71146
        41.000          22.000  
  23882335.813 6      2610.719 6  -2793972.046 6  -2132786.64046  23882329.93046
        43.000          25.500  
  21510588.883 7      -713.396 7   -446175.614 7   -330971.80848  21510583.05948
        50.250          37.750  
  23911370.094 6      -428.918 6   -637053.175 6   -493059.22546  23911366.96546
        43.500          26.000  
  24111152.984 5      3428.873 5  -3166619.645 5  -2459600.31146  24111149.68046
        41.250          24.500  
  20419173.789 7      -532.784 7   -583485.639 7   -435538.22349  20419165.03549
        51.500          43.500  
 11  3 29 21  4  0.0000000  0 10G11G14G16G20G22G23G24G25G30G31      
  22790184.313 6     -1963.834 6    572312.324 6    446628.94347  22790177.78547
        45.500          31.250  
  23029224.109 6     -2433.603 6   1032936.833 6    797876.96947  23029218.10947
        43.500          27.250  
  25361357.445 5      3327.281 5    -24444.031 5   -965601.82845  25361358.24245
        40.000          16.250  
  22401954.000 6      2894.044 6  -3084452.180 6  -2356365.22747  22401946.65247
        45.500          32.000  
  24174526.484 5     -3151.879 5   1515508.393 5   1174769.62146  24174521.94946
        40.250          21.000  
  23874888.648 6      2609.255 6  -2833110.864 6  -2163284.34847  23874881.88747
        42.750          26.500  
  21512651.344 7      -722.543 7   -435337.471 7   -322526.51648  21512645.22748
        50.750          37.500  
  23912620.625 6      -438.099 6   -630481.697 6   -487938.58046  23912617.78946
        43.250          25.000  
  24101366.195 5      3428.496 5  -3218047.078 5  -2499673.54646  24101363.77046
        40.250          24.750  
  20420720.930 7      -541.965 7   -575356.167 7   -429203.55749  20420712.17649
        50.250          43.250  
 11  3 29 21  4 15.0000000  0 10G11G14G16G20G22G23G24G25G30G31      
  22795807.227 6     -1969.893 6    601860.715 6    469653.63547  22795800.81647
        45.250          30.750  
  23036173.859 6     -2434.707 6   1069457.437 6    826334.56047  23036167.74247
        43.000          26.500  
  25351850.820 1      3329.792 1    -74390.908 1  -1004538.29145  25351853.96545
        30.500          16.250  
  22393702.453 6      2890.788 6  -3127814.000 6  -2390153.63147  22393694.98847
        46.000          30.750  
  24183532.523 5     -3154.648 5   1562828.112 5   1211642.03046  24183526.64146
        41.000          21.750  
  23867444.656 6      2607.790 6  -2872227.720 6  -2193764.91446  23867438.07046
        43.750          25.500  
  21514740.008 7      -731.697 7   -424362.011 7   -313974.22048  21514733.94948
        50.000          37.750  
  23913897.570 6      -447.294 6   -623772.284 6   -482710.46546  23913895.02746
        44.000          24.750  
  24091580.805 5      3428.076 5  -3269468.218 5  -2539741.86946  24091578.43846
        40.000          26.000  
  20422294.039 7      -551.140 7   -567089.065 7   -422761.65149  20422285.34449
        50.500          43.500  
 11  3 29 21  4 30.0000000  0 10G11G14G16G20G22G23G24G25G30G31      
  22801447.109 6     -1975.909 6    631499.348 6    492748.63547  22801441.16847
        45.000          30.500  
  23043127.016 6     -2435.779 6   1105994.126 6    854804.67947  23043120.19547
        43.250          27.500  
  25342341.500 4      3332.314 4   -124375.625 4  -1043508.95645  25342341.71145
        38.750          13.750  
  22385460.156 6      2887.518 6  -3171126.771 6  -2423903.80447  22385452.80947
        45.750          31.250  
  24192544.406 5     -3157.384 5   1610188.876 5   1248546.40746  24192539.57846
        41.250          22.250  
  23860005.508 6      2606.343 6  -2911322.870 6  -2224228.57846  23859998.57046
        43.000          26.000  
  21516854.930 7      -740.815 7   -413249.790 7   -305315.36248  21516848.75448
        50.250          37.250  
  23915200.664 6      -456.462 6   -616925.352 6   -477375.19846  23915197.94546
        43.500          25.500  
  24081797.359 5      3427.660 5  -3320883.123 5  -2579805.34446  24081794.34846
        41.000          25.000  
  20423893.203 7      -560.289 7   -558684.730 7   -416212.81649  20423884.56649
        50.250          43.500  
 11  3 29 21  4 45.0000000  0 10G11G14G16G20G22G23G24G25G30G31      
  22807104.852 6     -1981.944 6    661228.504 6    515914.18447  22807097.97347
        45.250          30.750  
  23050083.148 6     -2436.889 6   1142547.464 6    883287.76847  23050076.09447
        43.000          27.500  
  25332821.367 4      3334.764 4   -174397.084 4  -1082505.22445  25332822.81345
        37.750          16.750  
  22377227.820 6      2884.187 6  -3214389.581 6  -2457615.04247  22377220.29747
        46.500          30.750  
  24201565.172 5     -3160.153 5   1657591.164 5   1285483.16246  24201559.52346
        41.500          22.000  
  23852569.250 6      2604.855 6  -2950395.687 6  -2254674.85746  23852562.84046
        43.750          26.250  
  21518995.383 7      -749.964 7   -402000.336 7   -296549.56448  21518989.73448
        50.000          37.250  
  23916529.523 6      -465.673 6   -609940.257 6   -471932.26646  23916526.16046
        43.500          24.500  
  24072014.234 5      3427.174 5  -3372290.728 5  -2619863.11446  24072011.69146
        41.000          24.750  
  20425518.805 7      -569.461 7   -550142.822 7   -409556.77349  20425509.99249
        50.000          43.500  
 11  3 29 21  5  0.0000000  0 10G11G14G16G20G22G23G24G25G30G31      
  22812778.656 6     -1987.929 6    691047.431 6    539149.68747  22812772.30547
        44.500          30.750  
  23057041.688 6     -2437.967 6   1179116.965 6    911783.45647  23057035.45347
        43.750          27.750  
  25323295.555 3      3337.223 3   -224455.426 3  -1121531.15545  25323297.35245
        37.250          16.250  
  22369004.156 6      2880.868 6  -3257602.594 6  -2491287.48247  22368996.98447
        45.750          31.250  
  24210593.359 5     -3162.899 5   1705034.653 5   1322452.02346  24210587.88746
        40.500          22.250  
  23845138.273 6      2603.391 6  -2989446.548 6  -2285104.01746  23845131.27746
        43.000          24.750  
  21521162.133 7      -759.082 7   -390614.101 7   -287677.17648  21521156.25048
        50.000          38.000  
  23917884.641 6      -474.864 6   -602817.305 6   -466381.91946  23917881.92246
        42.750          22.750  
  24062232.977 5      3426.686 5  -3423691.013 5  -2659915.17546  24062230.60946
        40.500          25.250  
  20427170.297 7      -578.605 7   -541463.743 7   -402793.83849  20427161.48449
        49.250          43.500  
 11  3 29 21  5 15.0000000  0 10G11G14G16G20G22G23G24G25G30G31      
  22818469.703 6     -1993.912 6    720956.115 6    562455.11147  22818463.46947
        45.250          30.250  
  23064003.594 6     -2439.062 6   1215702.901 6    940291.93347  23063996.42247
        43.250          27.500  
  25313763.164 3      3339.606 3   -274549.512 3  -1160588.82145  25313764.02345
        36.500          14.750  
  22360790.961 6      2877.509 6  -3300765.223 6  -2524920.66847  22360783.37947
        46.250          31.500  
  24219628.531 5     -3165.651 5   1752519.415 5   1359453.00846  24219623.87946
        40.750          21.500  
  23837710.555 6      2601.896 6  -3028474.993 6  -2315515.70647  23837704.20347
        43.250          26.750  
  21523354.766 7      -768.212 7   -379090.916 7   -278698.09048  21523348.82448
        50.750          37.250  
  23919266.375 6      -484.071 6   -595556.244 6   -460723.96046  23919264.24246
        42.500          24.750  
  24052452.945 5      3426.145 5  -3475083.185 5  -2699960.94146  24052450.34446
        40.750          26.000  
  20428848.070 7      -587.753 7   -532647.451 7   -395923.99849  20428839.19949
        49.250          43.000  
 11  3 29 21  5 30.0000000  0 10G11G14G16G20G22G23G24G25G30G31      
  22824179.023 6     -1999.871 6    750954.187 6    585830.19747  22824172.32047
        46.000          30.000  
  23070968.828 6     -2440.146 6   1252305.090 6    968813.09247  23070962.24247
        43.250          28.000  
  25304223.273 3      3342.024 3   -324679.873 3  -1199676.71845  25304223.54345
        36.000          15.500  
  22352586.297 6      2874.146 6  -3343877.411 6  -2558514.55147  22352579.35947
        46.000          32.500  
  24228673.484 5     -3168.380 5   1800045.119 5   1396485.94446  24228668.48046
        40.750          22.500  
  23830288.820 6      2600.406 6  -3067481.076 6  -2345909.98146  23830282.11746
        43.750          26.000  
  21525573.602 7      -777.326 7   -367431.033 7   -269612.47748  21525567.89548
        50.000          37.000  
  23920673.977 6      -493.270 6   -588157.194 6   -454958.46646  23920672.07846
        42.500          25.250  
  24042675.656 5      3425.594 5  -3526467.090 5  -2740000.23847  24042672.41047
        41.750          26.500  
  20430551.992 7      -596.895 7   -523694.025 7   -388947.29249  20430542.59449
        48.500          43.500  
 11  3 29 21  5 45.0000000  0 10G11G14G16G20G22G23G24G25G30G31      
  22829904.047 6     -2005.778 6    781040.863 6    609274.32947  22829897.69547
        45.750          31.000  
  23077936.852 6     -2441.192 6   1288922.964 6    997346.48447  23077930.20747
        43.000          27.500  
  25294677.359 3      3344.441 3   -374846.493 3  -1238792.65545  25294677.86345
        36.750          16.750  
  22344392.211 6      2870.798 6  -3386939.383 6  -2592069.29847  22344384.98047
        46.000          31.250  
  24237724.945 5     -3171.073 5   1847611.213 5   1433550.32246  24237719.06346
        41.000          22.500  
  23822870.141 6      2598.958 6  -3106465.446 6  -2376287.31247  23822863.32047
        44.500          26.750  
  21527818.664 7      -786.396 7   -355635.098 7   -260420.84748  21527812.66448
        49.750          37.000  
  23922108.313 5      -502.435 5   -580620.673 5   -449085.85746  23922106.18046
        42.000          24.500  
  24032899.242 5      3425.051 5  -3577842.848 5  -2780033.20046  24032896.64146
        40.000          25.250  
  20432281.625 7      -605.985 7   -514604.253 7   -381864.34149  20432272.46149
        49.250          43.000  
 11  3 29 21  6  0.0000000  0 10G11G14G16G20G22G23G24G25G30G31      
  22835646.539 6     -2011.691 6    811216.232 6    632787.56647  22835640.24647
        46.000          30.250  
  23084908.359 6     -2442.278 6   1325557.130 6   1025892.55947  23084902.12547
        43.250          26.500  
  25285123.461 3      3346.791 3   -425048.356 3  -1277935.95945  25285124.73045
        36.250          15.500  
  22336207.641 6      2867.398 6  -3429950.352 6  -2625584.31147  22336199.82447
        46.250          32.000  
  24246783.984 5     -3173.794 5   1895218.125 5   1470646.51846  24246778.62946
        41.000          22.250  
  23815455.781 6      2597.471 6  -3145427.512 6  -2406647.29646  23815449.31346
        44.500          26.000  
  21530089.563 7      -795.497 7   -343702.637 7   -251122.83848  21530083.32848
        50.500          37.000  
  23923568.469 5      -511.639 5   -572946.083 5   -443105.67946  23923566.80546
        42.000          24.250  
  24023124.148 5      3424.444 5  -3629209.502 5  -2820059.04646  24023121.43046
        40.500          25.250  
  20434037.422 7      -615.103 7   -505377.705 7   -374674.82149  20434028.31649
        49.250          44.000  
 11  3 29 21  6 15.0000000  0 10G11G14G16G20G22G23G24G25G30G31      
  22841405.344 6     -2017.575 6    841479.859 6    656369.56847  22841399.10947
        44.500          30.250  
  23091882.117 6     -2443.331 6   1362207.090 6   1054450.94647  23091876.05947
        42.500          26.500  
  25275564.539 4      3349.142 4   -475285.490 4  -1317106.84245  25275565.33645
        38.250          17.750  
  22328032.797 6      2863.992 6  -3472910.231 6  -2659059.49747  22328025.03947
        45.750          31.500  
  24255850.789 5     -3176.488 5   1942865.439 5   1507774.20246  24255846.19546
        41.000          22.250  
  23808045.570 6      2596.000 6  -3184367.519 6  -2436990.08546  23808038.86746
        44.000          25.000  
  21532385.641 7      -804.576 7   -331633.993 7   -241718.71448  21532379.75848
        49.750          37.500  
  23925055.383 5      -520.822 5   -565133.752 5   -437018.16946  23925053.89546
        42.250          25.750  
  24013351.211 5      3423.827 5  -3680566.912 5  -2860077.70846  24013348.14146
        41.000          25.750  
  20435818.844 7      -624.185 7   -496014.935 7   -367379.15049  20435810.26649
        50.000          43.000  
 11  3 29 21  6 30.0000000  0 10G11G14G16G20G22G23G24G25G30G31      
  22847181.188 6     -2023.426 6    871831.254 6    680019.97047  22847174.71947
        45.750          29.750  
  23098860.242 6     -2444.376 6   1398872.735 6   1083021.54647  23098853.30547
        44.000          28.000  
  25265997.250 3      3351.464 3   -525557.448 3  -1356304.96445  25265998.81345
        36.000          18.500  
  22319867.086 6      2860.577 6  -3515818.892 6  -2692494.78547  22319859.97347
        45.750          32.000  
  24264925.422 5     -3179.149 5   1990552.670 5   1544932.94846  24264921.23846
        41.500          21.500  
  23800639.977 6      2594.527 6  -3223285.422 6  -2467315.62947  23800633.15647
        44.000          26.500  
  21534708.352 7      -813.637 7   -319429.432 7   -232208.67748  21534702.29348
        49.250          37.750  
  23926568.875 5      -529.996 5   -557183.809 5   -430823.40746  23926567.09446
        42.250          26.000  
  24003579.992 5      3423.196 5  -3731914.852 5  -2900088.98147  24003577.21547
        42.000          27.250  
  20437626.461 7      -633.247 7   -486516.225 7   -359977.55449  20437617.82449
        49.500          43.250  
 11  3 29 21  6 45.0000000  0 10G11G14G16G20G22G23G24G25G30G31      
  22852973.578 6     -2029.262 6    902270.179 6    703738.57047  22852967.28547
        45.000          29.500  
  23105839.602 6     -2445.424 6   1435554.094 6   1111604.38347  23105833.30947
        42.500          26.750  
  25256425.047 5      3353.778 5   -575864.113 5  -1395534.13445  25256424.43845
        40.000          17.250  
  22311711.922 6      2857.139 6  -3558675.972 6  -2725889.88047  22311704.57447
        46.250          32.000  
  24274008.164 5     -3181.825 5   2038280.053 5   1582123.05846  24274003.39546
        40.500          23.000  
  23793237.797 6      2593.066 6  -3262181.416 6  -2497624.10846  23793231.38746
        44.500          26.250  
  21537056.219 7      -822.692 7   -307089.057 7   -222592.81348  21537050.57048
        49.750          37.500  
  23928107.992 5      -539.181 5   -549096.090 5   -424521.28046  23928105.33246
        42.250          26.000  
  23993810.508 5      3422.526 5  -3783252.749 5  -2940092.43546  23993807.49646
        41.500          25.750  
  20439459.953 7      -642.309 7   -476881.583 7   -352470.03149  20439450.90649
        49.250          43.500  
 11  3 29 21  7  0.0000000  0 10G11G14G16G20G22G23G24G25G30G31      
  22858782.320 6     -2035.102 6    932796.714 6    727525.44347  22858775.96947
        45.750          29.750  
  23112823.305 6     -2446.492 6   1472251.469 6   1140199.71347  23112816.71947
        43.500          27.750  
  25246843.633 3      3356.033 3   -626204.608 3  -1434794.90645  25246845.37145
        36.750          17.750  
  22303565.930 6      2853.659 6  -3601480.864 6  -2759244.30247  22303558.69947
        46.500          32.250  
  24283098.969 5     -3184.512 5   2086047.740 5   1619344.53246  24283093.08646
        42.000          23.750  
  23785840.328 6      2591.578 6  -3301055.080 6  -2527915.17746  23785833.62546
        43.500          25.000  
  21539430.719 7      -831.759 7   -294612.674 7   -212870.97048  21539424.48448
        49.250          37.750  
  23929672.516 5      -548.389 5   -540870.253 5   -418111.56846  23929670.96946
        41.000          26.000  
  23984042.570 5      3421.809 5  -3834579.887 5  -2980087.50646  23984040.08646
        42.000          26.000  
  20441319.023 7      -651.376 7   -467110.937 7   -344856.53549  20441310.27049
        49.750          43.000  
 11  3 29 21  7 15.0000000  0 10G11G14G16G20G22G23G24G25G30G31      
  22864608.047 6     -2040.899 6    963410.205 6    751380.06947  22864601.75447
        44.250          30.250  
  23119809.328 6     -2447.538 6   1508964.535 6   1168807.27247  23119803.38747
        43.500          27.250  
  25237258.531 3      3358.286 3   -676578.897 3  -1474085.10745  25237258.85945
        37.000          17.250  
  22295431.063 6      2850.178 6  -3644233.534 6  -2792558.04247  22295423.24647
        46.500          32.250  
  24292195.133 5     -3187.165 5   2133855.219 5   1656597.01846  24292191.00846
        41.000          22.000  
  23778447.664 6      2590.090 6  -3339906.425 6  -2558188.87146  23778440.37546
        43.500          25.500  
  21541830.891 7      -840.796 7   -282000.737 7   -203043.49448  21541824.48048
        49.750          37.500  
  23931264.781 5      -557.573 5   -532506.664 5   -411594.49646  23931262.12146
        41.000          25.000  
  23974277.992 5      3421.078 5  -3885896.057 5  -3020074.01446  23974275.09846
        40.500          26.250  
  20443204.102 7      -660.426 7   -457204.550 7   -337137.26649  20443195.17249
        50.250          43.500  
 11  3 29 21  7 30.0000000  0 10G11G14G16G20G22G23G24G25G30G31      
  22870450.258 6     -2046.675 6    994110.322 6    775302.20147  22870443.61347
        45.500          30.000  
  23126798.836 6     -2448.577 6   1545693.189 6   1197426.97746  23126792.19146
        43.500          26.000  
  25227665.961 2      3360.530 2   -726986.840 2  -1513401.10746  25227666.99646
        35.500          19.000  
  22287304.953 6      2846.683 6  -3686933.776 6  -2825830.93247  22287297.43047
        46.750          32.500  
