     2.11           OBSERVATION DATA    GPS(GPS)            RINEX VERSION / TYPE
cnvtToRINEX 2.11.0  Stan Thomas         26-Mar-11 14:10 UTC PGM / RUN BY / DATE 
----------------------------------------------------------- COMMENT             
BR1                                                         MARKER NAME         
BR1                                                         MARKER NUMBER       
Stan Thomas         University of Utah                      OBSERVER / AGENCY   
4644124574          NetRS               1.12                REC # / TYPE / VERS 
12532422            TRM41249.00                             ANT # / TYPE        
 -1911713.1997 -4567269.9917  4009429.9059                  APPROX POSITION XYZ 
        1.0560        0.0000        0.0000                  ANTENNA: DELTA H/E/N
     1     1     0                                          WAVELENGTH FACT L1/2
     7    C1    D1    L1    L2    P2    S1    S2            # / TYPES OF OBSERV 
  2011     3    22    19    52    0.0000000     GPS         TIME OF FIRST OBS   
  2011     3    22    23    59   45.0000000     GPS         TIME OF LAST OBS    
     0                                                      RCV CLOCK OFFS APPL 
    15                                                      LEAP SECONDS        
    19                                                      # OF SATELLITES     
   G03    95    95    92    77    77    95    77            PRN / # OF OBS      
   G04   302   302   295   254   254   302   254            PRN / # OF OBS      
   G06    62    62    59    57    57    62    57            PRN / # OF OBS      
   G07   135   135   131   126   126   135   126            PRN / # OF OBS      
   G09    21    21    21    17    17    21    17            PRN / # OF OBS      
   G11   856   856   853   838   838   856   838            PRN / # OF OBS      
   G12   361   361   354   342   342   361   342            PRN / # OF OBS      
   G13   427   427   425   421   421   427   421            PRN / # OF OBS      
   G14   666   666   661   650   650   666   650            PRN / # OF OBS      
   G16   615   615   613   591   591   615   591            PRN / # OF OBS      
   G18   218   218   210   193   193   218   193            PRN / # OF OBS      
   G19   241   241   239   236   236   241   236            PRN / # OF OBS      
   G20   937   937   936   931   931   937   931            PRN / # OF OBS      
   G22   547   547   546   546   546   547   546            PRN / # OF OBS      
   G23   825   825   823   820   820   825   820            PRN / # OF OBS      
   G24   990   990   989   973   973   990   973            PRN / # OF OBS      
   G25   666   666   663   658   658   666   658            PRN / # OF OBS      
   G30   767   767   766   766   766   767   766            PRN / # OF OBS      
   G31   992   992   992   992   992   992   992            PRN / # OF OBS      
CARRIER PHASE MEASUREMENTS: PHASE SHIFTS REMOVED            COMMENT             
                                                            END OF HEADER       
 11  3 22 19 52  0.0000000  0  9G09G11G12G14G18G19G22G24G31         
  25128743.57812     -3645.20312    688882.02312                
        34.500  
  22454750.72716      1500.10916  -2222851.85416  -1701133.89557  22454742.67657
        45.500          31.500  
  25349885.39811      1055.92211                                
        33.000  
  20717744.06317     -1318.98417    814874.71117    641577.83148  20717734.78148
        49.750          39.750  
  23590172.68015     -2538.79715   2154547.74215   1672922.12756  23590166.03556
        41.500          24.750  
  24076941.82015     -2474.15615   2067236.92515   1604435.50757  24076934.35557
        41.750          27.750  
  21383662.37517     -1567.75017   1110516.85717    868604.11758  21383651.45358
        49.750          39.000  
  22777576.84416      2635.26616  -3279054.64716  -2523915.12557  22777570.43457
        45.500          29.000  
  21930368.25016      2971.82816  -3640382.16616  -2783003.95258  21930360.66858
        47.000          38.000  
 11  3 22 19 52 15.0000000  0 10G03G09G11G12G14G18G19G22G24G31      
  25668088.40613     -2705.00013    702481.58413                
        37.250  
  25139154.438 1     -3647.304 1    743591.589 1                
        33.750  
  22450481.484 6      1495.839 6  -2245289.443 6  -1718617.72647  22450473.14147
        44.000          31.250  
  25346883.063 2      1048.766 2    624940.727 2   -532883.07156  25346874.42656
        35.250          19.500  
  20721516.906 7     -1321.574 7    834698.317 7    657024.79248  20721507.56648
        49.500          40.000  
  23597424.469 5     -2540.310 5   2192652.387 5   1702614.01346  23597416.65246
        40.000          25.500  
  24084008.930 5     -2475.809 5   2104374.057 5   1633373.47347  24084001.46547
        41.500          27.750  
  21388143.656 7     -1569.980 7   1134066.550 7    886954.51448  21388132.79348
        48.000          39.000  
  22770063.195 6      2632.457 6  -3318541.505 6  -2554684.10047  22770056.02347
        45.750          30.500  
  21921894.141 7      2968.758 7  -3684913.543 7  -2817703.69848  21921886.55948
        48.250          37.750  
 11  3 22 19 52 30.0000000  0 10G03G09G11G12G14G18G19G22G24G31      
  25675806.430 5     -2703.851 5    743039.356 5    773070.93356  25675801.89556
        41.750          21.000  
  25149576.164 1     -3651.293 1    798360.989 1                
        33.500  
  22446236.523 6      1487.168 6  -2267596.962 6  -1736000.19947  22446227.88747
        44.750          32.000  
  25343898.938 1      1045.063 1    609264.787 1   -545097.97145  25343890.47745
        31.750          18.250  
  20725303.734 7     -1326.750 7    854599.566 7    672532.25948  20725294.33648
        49.000          40.500  
  23604683.555 5     -2543.317 5   2230802.137 5   1732341.04646  23604676.44146
        40.500          24.500  
  24091085.453 5     -2479.223 5   2141562.398 5   1662351.33547  24091078.28147
        41.250          28.750  
  21392637.844 7     -1574.443 7   1157683.199 7    905357.07848  21392627.09848
        49.000          38.500  
  22762565.031 6      2626.772 6  -3357943.080 6  -2585386.60847  22762558.21147
        44.500          30.000  
  21913437.742 7      2962.625 7  -3729352.918 7  -2852331.75848  21913429.80948
        48.750          38.000  
 11  3 22 19 52 45.0000000  0 10G03G09G11G12G14G18G19G22G24G31      
  25683514.703 5     -2701.030 5    783554.806 5    804641.37546  25683511.92646
        40.500          20.750  
  25160008.703 2     -3655.186 2    853188.778 2                
        34.250  
  22442016.297 6      1478.552 6  -2289775.245 6  -1753281.97847  22442008.12947
        44.750          31.250  
  25340937.352 1      1037.869 1    593696.754 1   -557228.80945  25340927.83645
        29.000          17.250  
  20729105.258 7     -1331.828 7    874576.981 7    688099.07748  20729095.62548
        49.000          40.250  
  23611951.438 5     -2546.244 5   2268995.799 5   1762102.30246  23611944.32446
        40.750          25.250  
  24098170.398 5     -2482.537 5   2178800.460 5   1691367.97147  24098163.93047
        39.500          26.500  
  21397144.336 7     -1578.832 7   1181365.675 7    923810.94648  21397134.11748
        48.750          38.500  
  22755083.461 6      2621.150 6  -3397260.336 6  -2616023.41347  22755076.28947
        44.000          30.250  
  21904998.523 7      2956.550 7  -3773701.169 7  -2886888.80648  21904990.70748
        48.000          38.000  
 11  3 22 19 53  0.0000000  0  9G03G09G11G14G18G19G22G24G31         
  25691214.219 4     -2698.264 4    824028.764 4    836179.48646  25691214.13746
        38.500          21.500  
  25170454.352 3     -3659.118 3    908075.555 3   1405176.98055  25170446.06655
        36.000          18.250  
  22437820.711 6      1469.871 6  -2311823.316 6  -1770462.28547  22437812.54347
        45.000          31.750  
  20732921.375 7     -1336.964 7    894631.441 7    703725.93148  20732912.21148
        49.250          40.000  
  23619228.531 5     -2549.243 5   2307234.444 5   1791898.58446  23619221.06646
        41.250          24.500  
  24105266.289 5     -2485.888 5   2216088.777 5   1720423.74047  24105260.05547
        41.000          28.000  
  21401663.609 7     -1583.290 7   1205115.031 7    942316.91748  21401652.74648
        48.500          38.500  
  22747617.719 6      2615.441 6  -3436491.956 6  -2646593.48447  22747610.60547
        45.000          30.750  
  21896576.953 7      2950.387 7  -3817956.971 7  -2921373.82348  21896569.13748
        48.500          38.000  
 11  3 22 19 53 15.0000000  0  9G03G09G11G14G18G19G22G24G31         
  25698910.359 5     -2695.218 5    864457.041 5    867681.99546  25698907.34846
        41.500          19.500  
  25180908.969 3     -3662.778 3    963017.232 3   1447988.71545  25180902.26645
        36.500          17.750  
  22433649.008 6      1461.418 6  -2333744.586 6  -1787543.79747  22433640.43047
        44.500          30.750  
  20736751.188 7     -1341.841 7    914759.058 7    719409.78748  20736742.49248
        49.000          39.750  
  23626512.773 5     -2551.991 5   2345514.314 5   1821727.01646  23626505.71946
        40.750          22.750  
  24112372.047 5     -2488.973 5   2253423.379 5   1749515.55347  24112364.52347
        41.750          28.000  
  21406195.258 7     -1587.512 7   1228927.708 7    960872.24148  21406184.39548
        48.750          38.500  
  22740167.867 6      2609.955 6  -3475641.287 6  -2677099.43947  22740160.81347
        45.000          30.250  
  21888172.492 7      2944.432 7  -3862123.457 7  -2955789.23948  21888164.61748
        49.250          38.000  
 11  3 22 19 53 30.0000000  0 10G03G09G11G12G14G18G19G22G24G31      
  25706596.461 5     -2692.099 5    904838.525 5    899148.15745  25706591.34045
        42.250          17.750  
  25191374.578 3     -3666.373 3   1018012.830 3   1490842.43345  25191368.05145
        36.750          18.250  
  22429501.531 6      1453.002 6  -2355539.618 6  -1804526.92647  22429493.01247
        44.500          31.500  
  25332171.77311      1012.92211   -732747.97211                
        32.250  
  20740595.477 7     -1346.650 7    934958.811 7    735149.85048  20740586.13748
        48.500          39.500  
  23633804.633 5     -2554.693 5   2383834.702 5   1851587.00746  23633798.10546
        41.000          24.500  
  24119485.742 6     -2491.987 6   2290803.187 6   1778642.61947  24119477.69147
        43.000          27.000  
  21410738.656 7     -1591.684 7   1252802.969 7    979476.32248  21410727.85248
        49.000          38.250  
  22732733.281 6      2604.495 6  -3514708.713 6  -2707541.58147  22732726.57847
        44.500          30.500  
  21879784.695 7      2938.507 7  -3906201.065 7  -2990135.40248  21879776.99648
        49.000          38.000  
 11  3 22 19 53 45.0000000  0 10G03G09G11G12G14G18G19G22G24G31      
  25714269.211 4     -2689.209 4    945176.664 4    930580.53545  25714267.54745
        38.000          16.250  
  25201851.094 3     -3670.166 3   1073065.317 3   1533740.51245  25201844.15645
        37.250          17.750  
  22425379.000 6      1444.351 6  -2377204.886 6  -1821408.93747  22425370.71547
        44.500          31.500  
  25329291.070 1      1009.271 1   -747887.034 1                
        32.500  
  20744453.414 7     -1351.676 7    955233.957 7    750948.66448  20744444.36748
        49.250          39.750  
  23641105.625 5     -2557.612 5   2422198.886 5   1881481.14446  23641098.21946
        40.500          22.750  
  24126607.609 5     -2495.203 5   2328231.232 5   1807807.26147  24126600.02747
        41.500          26.500  
  21415294.367 7     -1596.081 7   1276744.179 7    998131.80348  21415283.56348
        48.000          38.500  
  22725315.328 6      2598.796 6  -3553690.651 6  -2737917.08947  22725308.85947
        45.000          31.250  
  21871414.703 7      2932.334 7  -3950186.069 7  -3024409.40348  21871406.65248
        48.750          38.500  
 11  3 22 19 54  0.0000000  0 10G03G09G11G12G14G18G19G22G24G31      
  25721935.914 3     -2686.341 3    985471.772 3    961979.16845  25721935.18845
        35.750          17.250  
  25212337.836 4     -3673.972 4   1128174.903 4   1576683.05745  25212331.30945
        37.750          17.250  
  22421280.977 6      1435.649 6  -2398739.627 6  -1838189.24847  22421272.22347
        44.250          31.500  
  25326430.461 1      1001.966 1   -762916.521 1                
        30.500  
  20748326.320 7     -1356.720 7    975584.763 7    766806.43648  20748316.86348
        49.250          39.750  
  23648414.266 5     -2560.571 5   2460607.445 5   1911409.83246  23648406.97746
        39.250          23.000  
  24133739.289 5     -2498.431 5   2365707.699 5   1837009.63847  24133731.88347
        41.500          26.500  
  21419863.227 7     -1600.505 7   1300751.748 7   1016838.97948  21419852.12948
        49.250          38.750  
  22717914.016 6      2593.040 6  -3592586.258 6  -2768225.33047  22717907.66447
        45.250          30.500  
  21863062.391 7      2926.114 7  -3994077.780 7  -3058610.71248  21863054.34048
        49.000          38.000  
 11  3 22 19 54 15.0000000  0 10G03G09G11G12G14G18G19G22G24G31      
  25729602.563 3     -2683.442 3   1025723.397 3    993344.00045  25729595.74245
        37.000          15.500  
  25222835.094 4     -3677.763 4   1183341.352 4   1619669.92945  25222829.44545
        37.750          18.250  
  22417207.594 6      1426.928 6  -2420143.543 6  -1854867.61547  22417199.25047
        45.250          31.500  
  25323588.35911       994.66111   -777835.98011                
        27.250  
  20752213.477 7     -1361.761 7    996011.179 7    782723.12148  20752204.07848
        49.500          39.750  
  23655731.898 4     -2563.535 4   2499060.474 4   1941373.18346  23655724.55146
        39.000          22.250  
  24140878.828 5     -2501.646 5   2403232.390 5   1866249.61247  24140872.65247
        42.000          27.500  
  21424443.977 7     -1604.949 7   1324825.986 7   1035598.11248  21424432.87948
        48.500          39.000  
  22710528.969 6      2587.250 6  -3631395.004 6  -2798465.89447  22710521.73847
        45.000          30.500  
  21854727.938 7      2919.851 7  -4037875.549 7  -3092738.81148  21854720.06348
        49.250          38.000  
 11  3 22 19 54 30.0000000  0  9G03G09G11G14G18G19G22G24G31         
  25737255.422 1     -2680.247 1   1065927.098 1   1024671.62745  25737245.73045
        30.500          15.500  
  25233342.219 4     -3681.249 4   1238560.087 4   1662697.53845  25233336.74645
        38.000          17.750  
  22413158.781 6      1418.477 6  -2441420.697 6  -1871447.21447  22413150.02747
        45.750          31.500  
  20756113.563 7     -1366.511 7   1016508.846 7    798695.32848  20756104.51648
        49.500          40.000  
  23663056.477 5     -2566.219 5   2537553.754 5   1971367.90446  23663049.83246
        39.750          21.500  
  24148028.680 5     -2504.549 5   2440800.628 5   1895523.52247  24148022.09447
        41.250          27.750  
  21429037.016 7     -1609.110 7   1348962.639 7   1054405.88048  21429026.21148
        49.500          38.500  
  22703159.219 6      2581.725 6  -3670120.886 6  -2828641.89147  22703152.57447
        44.750          30.750  
  21846410.406 7      2913.847 7  -4081583.254 7  -3126796.73248  21846402.59048
        50.000          38.000  
 11  3 22 19 54 45.0000000  0  8G09G11G14G18G19G22G24G31            
  25243861.398 3     -3684.934 3   1293834.104 3   1705768.23145  25243854.52045
        36.000          17.750  
  22409134.672 6      1409.791 6  -2462567.565 6  -1887925.27947  22409125.91847
        45.000          31.750  
  20760028.328 7     -1371.476 7   1037080.990 7    814725.56548  20760019.22348
        50.000          39.500  
  23670389.930 5     -2569.120 5   2576090.549 5   2001396.52246  23670382.99246
        39.750          22.000  
  24155188.258 6     -2507.655 6   2478415.449 6   1924833.74246  24155179.32846
        43.250          26.250  
  21433642.594 7     -1613.513 7   1373165.327 7   1073265.10848  21433632.14148
        49.750          38.750  
  22695806.242 6      2575.943 6  -3708760.026 6  -2858750.28947  22695799.71547
        45.500          30.250  
  21838111.313 7      2907.587 7  -4125197.061 7  -3160781.49048  21838103.26248
        49.750          38.500  
 11  3 22 19 55  0.0000000  0 10G03G09G11G12G14G18G19G22G24G31      
  25752573.92211     -2672.45311                                
        33.500  
  25254389.977 5     -3688.514 5   1349161.809 5   1748880.76046  25254383.39146
        41.250          19.000  
  22405135.273 6      1401.169 6  -2483585.097 6  -1904302.56847  22405126.81347
        45.750          31.500  
  25315199.59411       969.93811                                
        33.500  
  20763957.531 7     -1376.343 7   1057726.139 7    830812.69548  20763947.95748
        50.000          40.000  
  23677731.695 4     -2571.945 4   2614669.721 4   2031458.17146  23677724.58246
        39.000          21.250  
  24162354.461 6     -2510.669 6   2516075.478 6   1954179.11147  24162346.00047
        43.000          26.750  
  21438260.734 7     -1617.828 7   1397432.750 7   1092174.76948  21438249.87148
        50.250          39.000  
  22688470.242 6      2570.225 6  -3747313.403 6  -2888791.86347  22688463.30547
        45.750          31.000  
  21829829.148 7      2901.383 7  -4168717.808 7  -3194693.73348  21829821.27348
        49.500          39.000  
 11  3 22 19 55 15.0000000  0 10G03G09G11G12G14G18G19G22G24G31      
  25760145.234 1     -2669.031 1   -382494.332 1                
        32.750  
  25264925.125 5     -3691.157 5   1404529.162 5   1792024.19246  25264919.71146
        40.500          20.750  
  22401157.906 6      1393.469 6  -2504487.138 6  -1920589.87247  22401148.80147
        45.750          31.500  
  25312439.586 1       962.469 1   -447052.293 1  -1716204.67056  25312430.59856
        33.000          19.000  
  20767896.867 7     -1380.280 7   1078430.337 7    846945.82748  20767887.64548
        49.000          40.000  
  23685078.352 5     -2573.841 5   2653277.340 5   2061541.97746  23685071.23846
        39.250          22.000  
  24169524.945 5     -2512.716 5   2553766.224 5   1983548.48147  24169518.35947
        41.000          27.250  
  21442888.461 7     -1621.209 7   1421750.892 7   1111123.95848  21442877.01248
        49.750          38.750  
  22681147.398 6      2565.417 6  -3785794.664 6  -2918777.24147  22681140.40247
        44.000          31.250  
  21821562.508 7      2896.088 7  -4212159.127 7  -3228544.07748  21821554.80948
        49.500          39.000  
 11  3 22 19 55 30.0000000  0 10G03G09G11G12G14G18G19G22G24G31      
  25767762.617 3     -2668.483 3   -342467.086 3                
        36.750  
  25275475.953 4     -3696.126 4   1459971.046 4   1835225.66145  25275469.89545
        38.000          18.500  
  22397209.133 6      1383.397 6  -2525238.100 6  -1936759.44247  22397200.32047
        46.250          31.500  
  25309701.633 1       957.970 1   -461421.836 1  -1727401.69545  25309695.80945
        28.250          15.500  
  20771855.031 7     -1386.552 7   1099228.622 7    863152.28548  20771845.92648
        50.000          39.750  
  23692438.156 5     -2578.083 5   2691948.590 5   2091675.37946  23692430.10546
        39.500          21.500  
  24176709.422 5     -2517.087 5   2591522.534 5   2012968.93646  24176703.18846
        40.750          26.000  
  21447532.141 7     -1626.937 7   1446154.948 7   1130140.09148  21447521.39548
        49.250          38.250  
  22673845.016 6      2558.239 6  -3824168.252 6  -2948678.71847  22673838.37147
        45.750          31.250  
  21813317.797 7      2888.419 7  -4255485.413 7  -3262304.79348  21813310.03948
        49.500          39.000  
 11  3 22 19 55 45.0000000  0  9G03G09G11G14G18G19G22G24G31         
  25775373.391 5     -2665.450 5   -302485.330 5    -45601.27456  25775368.27056
        40.000          24.500  
  25286036.516 4     -3699.753 4   1515467.336 4   1878469.53946  25286030.28146
        38.000          19.000  
  22393285.211 6      1374.635 6  -2545857.622 6  -1952826.59747  22393276.57447
        46.000          31.500  
  20775826.594 7     -1391.483 7   1120100.871 7    879416.37448  20775817.72348
        49.250          39.500  
  23699804.336 5     -2581.007 5   2730663.690 5   2121842.94446  23699797.45746
        39.750          22.500  
  24183903.688 5     -2520.128 5   2629324.448 5   2042424.86547  24183896.75047
        41.250          26.500  
  21452188.602 7     -1631.358 7   1470625.318 7   1149207.90548  21452177.56348
        49.500          38.500  
  22666559.531 6      2552.355 6  -3862453.576 6  -2978511.41647  22666552.65247
        45.250          31.000  
  21805091.602 7      2882.049 7  -4298716.154 7  -3295991.04648  21805083.14148
        49.750          37.750  
 11  3 22 19 56  0.0000000  0  9G03G09G11G14G18G19G22G24G31         
  25782969.000 4     -2661.860 4   -262557.424 4    -14488.65146  25782966.92646
        39.000          26.000  
  25296605.484 4     -3702.785 4   1571009.118 4   1921748.91245  25296599.42645
        38.750          18.250  
  22389385.633 6      1366.406 6  -2566353.710 6  -1968797.56547  22389376.64547
        47.250          31.500  
  20779811.133 7     -1395.863 7   1141038.815 7    895731.64948  20779802.14548
        49.750          40.000  
  23707178.688 5     -2583.398 5   2769414.654 5   2152038.45346  23707171.28146
        40.500          22.000  
  24191104.641 5     -2522.594 5   2667163.359 5   2071909.68347  24191097.35247
        42.000          27.250  
  21456856.328 7     -1635.236 7   1495153.862 7   1168321.04348  21456845.58248
        49.500          38.750  
  22659289.758 6      2546.997 6  -3900658.532 6  -3008281.49347  22659282.82047
        46.000          31.750  
  21796881.492 7      2876.191 7  -4341859.012 7  -3329608.81748  21796873.67648
        50.000          38.000  
 11  3 22 19 56 15.0000000  0 10G03G09G11G12G14G18G19G22G24G31      
  25790555.938 5     -2658.250 5   -222683.681 5     16581.65146  25790554.62546
        39.250          24.750  
  25307183.898 3     -3705.807 3   1626596.217 3   1965063.56445  25307177.25445
        36.750          17.750  
  22385508.219 6      1358.165 6  -2586726.185 6  -1984672.21647  22385499.69947
        46.750          31.750  
  25301623.23411       933.18811   -260410.23711                
        33.500  
  20783808.203 7     -1400.227 7   1162042.225 7    912097.93848  20783798.62948
        49.000          40.000  
  23714559.617 5     -2585.787 5   2808201.458 5   2182261.88246  23714552.09446
        40.000          22.750  
  24198314.086 6     -2525.043 6   2705039.008 6   2101423.12547  24198304.74647
        43.250          26.500  
  21461535.344 7     -1639.138 7   1519740.933 7   1187479.78848  21461524.42248
        49.250          38.250  
  22652034.680 6      2541.622 6  -3938782.859 6  -3037988.75747  22652028.56347
        45.000          31.250  
  21788688.398 7      2870.322 7  -4384913.842 7  -3363158.01148  21788680.28948
        50.000          38.500  
 11  3 22 19 56 30.0000000  0 10G03G09G11G12G14G18G19G22G24G31      
  25798138.617 6     -2655.415 6   -182852.450 6     47618.93347  25798134.72747
        43.500          26.500  
  25317772.422 3     -3709.611 3   1682240.375 3   2008422.69245  25317765.83645
        37.250          17.750  
  22381657.305 6      1349.109 6  -2606962.816 6  -2000441.01147  22381649.02047
        46.000          31.500  
  25298971.133 1       929.096 1   -274346.684 1                
        33.250  
  20787819.484 7     -1405.373 7   1183122.818 7    928524.37248  20787810.37948
        49.000          40.000  
  23721949.563 4     -2588.948 4   2847035.676 4   2212522.28346  23721942.85946
        39.000          22.000  
  24205530.438 6     -2528.256 6   2742962.853 6   2130974.10546  24205521.50846
        43.500          25.500  
  21466227.477 7     -1643.804 7   1544397.997 7   1206693.06448  21466216.49648
        49.000          38.500  
  22644797.750 6      2535.429 6  -3976814.292 6  -3067623.61447  22644790.87147
        46.000          30.750  
  21780514.789 7      2863.623 7  -4427868.188 7  -3396628.88948  21780506.62148
        49.500          38.500  
 11  3 22 19 56 45.0000000  0 10G03G09G11G12G14G18G19G22G24G31      
  25805708.188 6     -2652.254 6   -143068.633 6     78619.24847  25805705.17647
        42.500          30.000  
  25328370.500 3     -3713.085 3   1737936.656 3   2051822.47545  25328364.32445
        35.750          16.750  
  22377831.078 6      1340.369 6  -2627068.358 6  -2016107.66047  22377823.20347
        45.500          32.000  
  25296339.875 1       921.676 1   -288171.823 1                
        31.500  
  20791844.594 7     -1410.199 7   1204275.809 7    945007.21348  20791835.72348
        49.000          40.250  
  23729347.688 4     -2591.802 4   2885912.702 4   2242816.00246  23729340.92646
        39.000          22.000  
  24212752.641 5     -2531.138 5   2780929.923 5   2160558.82246  24212746.81646
        40.750          26.000  
  21470931.805 7     -1648.162 7   1569120.430 7   1225957.28348  21470921.05948
        48.250          38.750  
  22637577.141 6      2529.518 6  -4014757.065 6  -3097189.38347  22637570.26247
        45.500          31.000  
  21772358.867 7      2857.211 7  -4470726.350 7  -3430024.82348  21772350.81648
        49.750          38.000  
 11  3 22 19 57  0.0000000  0 10G03G09G11G12G14G18G19G22G24G31      
  25813267.656 5     -2649.092 5   -103332.254 5    109582.54546  25813266.81346
        40.750          26.250  
  25338978.664 3     -3716.548 3   1793684.875 3   2095262.62545  25338972.66445
        35.750          14.750  
  22374030.453 6      1331.605 6  -2647042.437 6  -2031671.87547  22374021.75847
        45.750          31.500  
  25293727.484 1       914.243 1   -301885.467 1                
        30.500  
  20795883.813 7     -1415.021 7   1225501.123 7    961546.41548  20795874.64848
        48.750          40.000  
  23736754.000 5     -2594.672 5   2924832.786 5   2273143.28946  23736746.65246
        39.250          22.750  
  24219987.047 5     -2534.008 5   2818940.040 5   2190177.00546  24219979.99246
        42.000          24.500  
  21475649.125 7     -1652.540 7   1593908.535 7   1245272.67948  21475638.49648
        49.500          38.500  
  22630374.125 6      2523.577 6  -4052610.717 6  -3126685.72647  22630366.95347
        45.250          30.750  
  21764221.570 7      2850.775 7  -4513487.975 7  -3463345.53848  21764213.57848
        50.000          38.500  
 11  3 22 19 57 15.0000000  0  9G03G11G12G14G18G19G22G24G31         
  25820822.008 6     -2645.624 6    -63647.888 6    140505.38346  25820817.88346
        43.000          25.000  
  22370253.414 6      1323.106 6  -2666889.028 6  -2047136.74547  22370245.07047
        45.750          32.750  
  25291137.98411       906.81011   -315491.50611                
        29.000  
  20799935.891 7     -1419.559 7   1246794.503 7    978138.64948  20799926.66848
        49.250          39.750  
  23744167.625 5     -2597.257 5   2963791.642 5   2303500.80046  23744160.92246
        40.000          21.250  
  24227226.328 5     -2536.579 5   2856988.722 5   2219825.27946  24227220.85546
        41.250          26.000  
  21480377.680 7     -1656.646 7   1618758.229 7   1264636.06548  21480366.52348
        49.250          38.500  
  22623187.031 6      2517.897 6  -4090379.180 6  -3156115.68147  22623179.85947
        46.000          31.000  
  21756101.883 7      2844.596 7  -4556156.921 7  -3496594.02948  21756093.65648
        49.000          38.750  
 11  3 22 19 57 30.0000000  0  9G03G11G12G14G18G19G22G24G31         
  25828364.766 6     -2642.531 6    -24009.919 6    171392.02846  25828361.52046
        42.500          26.250  
  22366502.617 6      1314.211 6  -2686602.197 6  -2062497.64747  22366494.27347
        45.750          32.000  
  25288572.664 1       899.503 1   -328984.053 1                
        33.250  
  20804001.836 7     -1424.464 7   1268161.465 7    994788.22648  20803992.49648
        49.750          39.500  
  23751589.781 4     -2600.233 4   3002795.140 4   2333893.08346  23751582.84446
        38.750          21.500  
  24234476.516 5     -2539.510 5   2895081.366 5   2249507.77446  24234469.16846
        41.750          25.000  
  21485119.453 7     -1661.142 7   1643675.361 7   1284052.00048  21485108.29748
        49.000          38.500  
  22616016.797 6      2511.816 6  -4128056.415 6  -3185474.55147  22616010.09447
        45.500          31.250  
  21748001.102 7      2838.001 7  -4598726.936 7  -3529765.43148  21747992.81648
        50.000          38.250  
 11  3 22 19 57 45.0000000  0  9G03G11G12G14G18G19G22G24G31         
  25835895.234 4     -2639.257 4     15578.934 4    202240.39746  25835894.80146
        39.000          25.000  
  22362776.188 6      1305.466 6  -2706184.182 6  -2077756.33047  22362767.84447
        45.000          32.250  
  25286026.117 2       892.074 2   -342365.163 2                
        34.750  
  20808081.273 7     -1429.198 7   1289599.427 7   1011493.11548  20808071.87548
        49.250          39.750  
  23759019.922 4     -2603.047 4   3041840.849 4   2364318.25346  23759012.75046
        38.250          20.500  
  24241732.984 6     -2542.249 6   2933215.096 6   2279222.32446  24241725.57846
        42.750          24.250  
  21489873.023 7     -1665.476 7   1668657.501 7   1303518.58048  21489861.92648
        48.750          38.500  
  22608864.320 6      2505.876 6  -4165644.556 6  -3214763.99947  22608857.50047
        45.750          31.500  
  21739918.297 7      2831.541 7  -4641200.045 7  -3562861.32648  21739910.07048
        50.000          38.500  
 11  3 22 19 58  0.0000000  0  9G03G11G12G14G18G19G22G24G31         
  25843421.266 5     -2635.975 5     55118.556 5    233050.38546  25843419.19146
        39.250          22.000  
  22359074.563 6      1296.697 6  -2725634.632 6  -2092912.52047  22359065.86747
        44.500          32.000  
  25283502.266 2       884.622 2   -355634.487 2  -1753025.30455  25283492.69155
        35.250          18.500  
  20812174.477 7     -1433.924 7   1311108.292 7   1028253.26048  20812165.25448
        49.750          40.250  
  23766458.508 5     -2605.873 5   3080928.940 5   2394776.45646  23766451.16046
        39.500          19.500  
  24248997.477 5     -2544.980 5   2971389.791 5   2308968.77946  24248990.12946
        41.500          24.500  
  21494639.508 7     -1669.811 7   1693704.664 7   1323035.83848  21494628.58648
        47.750          38.250  
  22601728.438 6      2499.899 6  -4203143.045 6  -3243983.58947  22601721.50047
        46.000          31.750  
  21731854.609 7      2825.054 7  -4683575.862 7  -3595881.40248  21731846.32448
        50.000          38.500  
 11  3 22 19 58 15.0000000  0  9G03G11G12G14G18G19G22G24G31         
  25850937.180 5     -2632.693 5     94608.953 5    263822.03546  25850933.11346
        40.500          20.750  
  22355398.781 6      1287.908 6  -2744953.257 6  -2107965.99347  22355389.79347
        45.000          32.000  
  25280997.555 1       877.149 1   -368791.717 1  -1763277.71945  25280990.03145
        32.750          16.750  
  20816280.945 7     -1438.654 7   1332688.095 7   1045068.68548  20816271.78148
        49.000          40.000  
  23773904.406 4     -2608.689 4   3120059.271 4   2425267.58746  23773897.58646
        38.750          19.750  
  24256270.055 5     -2547.686 5   3009605.081 5   2338746.86046  24256262.35546
        40.500          26.000  
  21499418.266 7     -1674.166 7   1718817.160 7   1342603.99948  21499407.22748
        48.500          38.000  
  22594609.656 6      2493.898 6  -4240551.521 6  -3273133.03047  22594602.71947
        45.000          31.500  
  21723809.109 7      2818.536 7  -4725853.903 7  -3628825.28848  21723801.05948
        49.750          38.750  
 11  3 22 19 58 30.0000000  0  9G03G11G12G14G18G19G22G24G31         
  25858443.164 5     -2630.111 5    134060.621 5    294563.53546  25858441.50046
        41.250          24.250  
  22351749.156 6      1278.391 6  -2764129.124 6  -2122908.21447  22351740.93047
        45.500          32.250  
  25278512.53911       869.67611   -381825.58711  -1773434.06255  25278510.58255
        29.500          15.500  
  20820403.039 7     -1444.091 7   1354349.465 7   1061947.66648  20820393.64148
        49.500          39.500  
  23781360.602 5     -2612.247 5   3159242.970 5   2455800.28246  23781354.01646
        39.500          20.000  
  24263550.172 5     -2551.101 5   3047871.601 5   2368564.87746  24263544.28946
        40.500          25.500  
  21504211.422 7     -1679.243 7   1744005.801 7   1362231.49948  21504200.32448
        48.500          38.250  
  22587510.633 6      2487.151 6  -4277858.785 6  -3302203.61247  22587503.40247
        46.500          30.500  
  21715784.742 7      2811.267 7  -4768022.906 7  -3661684.22048  21715776.57448
        49.500          38.000  
 11  3 22 19 58 45.0000000  0  9G03G11G12G14G18G19G22G24G31         
  25865937.625 5     -2625.434 5    173442.125 5    325250.28346  25865935.78546
        40.250          23.750  
  22348121.789 6      1270.951 6  -2783193.394 6  -2137763.48047  22348113.27047
        45.500          32.000  
  25276054.48411       862.20311   -394767.30111  -1783518.55155  25276048.60255
        33.250          14.750  
  20824534.406 7     -1447.425 7   1376060.839 7   1078865.60948  20824525.00848
        49.750          39.500  
  23788821.773 5     -2613.709 5   3198448.603 5   2486350.08146  23788814.30946
        41.250          21.000  
  24270836.398 5     -2552.413 5   3086157.802 5   2398398.21646  24270829.98846
        41.000          25.500  
  21509013.445 7     -1682.236 7   1769239.337 7   1381893.98548  21509002.40648
        49.250          38.000  
  22580424.633 6      2482.465 6  -4315095.761 6  -3331219.42447  22580417.57847
        45.750          31.750  
  21707775.016 7      2806.056 7  -4810113.752 7  -3694482.24048  21707766.90648
        50.000          38.750  
 11  3 22 19 59  0.0000000  0  9G03G11G12G14G18G19G22G24G31         
  25873425.148 4     -2622.659 4    212782.013 4    355904.67946  25873421.31646
        38.000          19.000  
  22344520.641 6      1261.563 6  -2802116.843 6  -2152509.02947  22344512.06347
        45.500          32.250  
  25273616.141 4       854.695 4   -407587.725 4  -1793508.43345  25273607.73845
        37.500          15.500  
  20828680.891 7     -1452.683 7   1397851.077 7   1095845.01348  20828671.43448
        49.750          39.750  
  23796291.961 5     -2617.094 5   3237705.017 5   2516939.45346  23796284.20346
        40.500          20.000  
  24278131.664 5     -2555.620 5   3124492.097 5   2428269.02646  24278124.78546
        40.750          25.250  
  21513829.266 7     -1687.170 7   1794546.885 7   1401614.13748  21513818.57848
        49.750          38.750  
  22573357.625 6      2475.829 6  -4352233.197 6  -3360157.67447  22573350.80547
        44.500          32.000  
  21699785.898 7      2798.904 7  -4852097.316 7  -3727196.67148  21699777.78948
        50.000          39.000  
 11  3 22 19 59 15.0000000  0  9G03G11G12G14G18G19G22G24G31         
  25880899.930 1     -2619.292 1    252071.400 1    386519.76145  25880898.26645
        32.250          16.250  
  22340945.086 6      1252.738 6  -2820907.906 6  -2167151.40847  22340936.21547
        46.000          31.500  
  25271198.758 3       847.166 3   -420295.209 3  -1803410.30045  25271187.66045
        37.250          14.750  
  20832840.836 7     -1457.345 7   1419711.259 7   1112878.91448  20832831.73048
        49.750          39.750  
  23803770.000 5     -2619.899 5   3277003.497 5   2547561.59646  23803762.59446
        41.250          20.750  
  24285433.797 5     -2558.222 5   3162865.430 5   2458170.27746  24285427.21146
        41.250          24.750  
  21518657.547 7     -1691.515 7   1819919.608 7   1421385.07748  21518646.68448
        49.500          38.500  
  22566307.336 6      2469.757 6  -4389279.548 6  -3389024.95047  22566300.69147
        44.750          31.750  
  21691815.633 7      2792.296 7  -4893981.760 7  -3759833.86248  21691807.40648
        49.750          38.500  
 11  3 22 19 59 30.0000000  0  9G03G11G12G14G18G19G22G24G31         
  25888365.33611     -2614.01611                    417091.79855  25888363.84855
        25.750          13.750  
  22337393.469 6      1244.202 6  -2839570.930 6  -2181694.01647  22337384.94947
        46.000          32.000  
  25268798.523 2       839.905 2   -432893.778 2  -1813227.36245  25268790.23845
        35.000          16.750  
  20837013.000 7     -1461.686 7   1441636.555 7   1129963.54448  20837003.95348
        49.500          40.000  
  23811256.141 5     -2622.416 5   3316339.739 5   2578213.19146  23811247.68046
        41.000          19.750  
  24292742.727 5     -2560.516 5   3201273.166 5   2488098.32646  24292735.96546
        41.250          25.750  
  21523497.188 7     -1695.563 7   1845353.058 7   1441203.33148  21523486.50048
        49.500          38.500  
  22559274.852 6      2463.958 6  -4426238.917 6  -3417824.44247  22559267.44547
        46.250          31.250  
  21683863.422 7      2785.957 7  -4935771.113 7  -3792396.96148  21683854.96148
        50.250          38.750  
 11  3 22 19 59 45.0000000  0  8G11G12G14G18G19G22G24G31            
  22333868.133 6      1235.083 6  -2858097.172 6  -2196130.05747  22333859.55547
        46.000          32.000  
  25266423.320 1       832.071 1   -445374.840 1  -1822952.80945  25266417.32045
        33.500          18.500  
  20841199.258 7     -1466.600 7   1463635.558 7   1147105.61648  20841190.21148
        49.250          39.750  
  23818750.055 5     -2625.510 5   3355722.384 5   2608900.91146  23818742.53146
        41.500          20.500  
  24300059.617 5     -2563.346 5   3239723.351 5   2518059.44946  24300052.44546
        41.250          25.000  
  21528350.266 7     -1700.181 7   1870855.778 7   1461075.57448  21528339.75448
        48.500          38.750  
  22552259.883 6      2457.564 6  -4463102.373 6  -3446549.19647  22552253.00447
        46.250          31.750  
  21675930.805 7      2779.036 7  -4977456.646 7  -3824879.15748  21675922.57848
        49.500          38.500  
 11  3 22 20  0  0.0000000  0  8G11G12G14G18G19G22G24G31            
  22330367.758 6      1226.226 6  -2876490.565 6  -2210462.56547  22330358.77047
        46.500          32.000  
  25264069.250 1       824.489 1   -457742.169 1  -1832589.76745  25264065.59445
        33.500          17.750  
  20845398.758 7     -1471.237 7   1485704.114 7   1164301.88948  20845389.71148
        50.000          39.750  
  23826252.172 5     -2628.319 5   3395147.163 5   2639621.47346  23826245.05946
        41.250          20.000  
  24307383.141 5     -2565.895 5   3278211.769 5   2548050.37246  24307376.96546
        40.250          24.750  
  21533215.563 7     -1704.542 7   1896423.913 7   1480998.78748  21533204.99248
        49.750          38.500  
  22545262.492 6      2451.422 6  -4499873.702 6  -3475202.17447  22545255.32047
        47.000          31.500  
  21668017.227 7      2772.364 7  -5019042.107 7  -3857283.36348  21668009.00048
        50.250          39.000  
 11  3 22 20  0 15.0000000  0  8G11G12G14G18G19G22G24G31            
  22326892.531 6      1217.380 6  -2894751.271 6  -2224691.68347  22326884.30547
        46.250          32.250  
  25261739.344 3       816.916 3   -469995.916 3  -1842138.13545  25261734.16445
        37.250          17.750  
  20849611.844 7     -1475.852 7   1507841.896 7   1181552.10748  20849602.50448
        49.500          40.500  
  23833762.266 5     -2631.115 5   3434613.884 5   2670374.72646  23833755.85546
        42.250          21.500  
  24314714.477 5     -2568.402 5   3316737.800 5   2578070.59946  24314708.06646
        41.500          24.500  
  21538093.688 7     -1708.892 7   1922057.291 7   1500972.83248  21538083.23448
        49.500          38.500  
  22538282.734 6      2445.273 6  -4536552.800 6  -3503783.27447  22538275.79747
        46.000          32.000  
  21660122.797 7      2765.678 7  -5060527.283 7  -3889609.44148  21660114.80548
        49.500          39.250  
 11  3 22 20  0 30.0000000  0  8G11G12G14G18G19G22G24G31            
  22323443.813 6      1208.494 6  -2912878.679 6  -2238816.93447  22323434.59047
        46.000          32.250  
  25259429.383 5       809.297 5   -482135.377 5  -1851597.50745  25259422.97345
        39.500          18.250  
  20853837.344 7     -1480.465 7   1530048.872 7   1198856.22748  20853828.35548
        49.750          39.500  
  23841280.500 5     -2633.925 5   3474122.763 5   2701160.81846  23841273.73846
        41.000          22.000  
  24322054.242 6     -2570.906 6   3355301.396 6   2608120.06446  24322046.66046
        42.500          25.750  
  21542983.820 7     -1713.259 7   1947756.174 7   1520997.92048  21542973.25048
        49.000          38.500  
  22531321.023 6      2439.081 6  -4573139.018 6  -3532291.99947  22531313.38347
        46.750          32.000  
  21652247.859 7      2758.946 7  -5101911.469 7  -3921856.81648  21652239.86748
        50.000          38.750  
 11  3 22 20  0 45.0000000  0  8G11G12G14G18G19G22G24G31            
  22320018.672 6      1199.685 6  -2930873.949 6  -2252839.22147  22320010.44547
        47.000          31.500  
  25257140.547 4       801.744 4   -494161.541 4  -1860968.44345  25257132.73045
        39.000          17.250  
  20858075.953 7     -1484.987 7   1552323.671 7   1216213.20648  20858066.78948
        49.500          39.750  
  23848807.328 5     -2636.670 5   3513672.810 5   2731978.97746  23848800.27346
        42.000          22.500  
  24329398.789 5     -2573.297 5   3393900.855 5   2638197.52546  24329391.67646
        41.250          24.500  
  21547886.414 7     -1717.546 7   1973519.370 7   1541073.12148  21547875.72748
        49.500          38.000  
  22524376.008 6      2432.951 6  -4609633.286 6  -3560729.07647  22524368.66047
        46.750          32.500  
  21644391.617 7      2752.276 7  -5143195.612 7  -3954026.24948  21644383.44948
        50.500          39.000  
 11  3 22 20  1  0.0000000  0  8G11G12G14G18G19G22G24G31            
  22316619.688 6      1190.811 6  -2948736.113 6  -2266757.78647  22316611.28547
        46.500          32.000  
  25254872.805 3       794.121 3   -506073.363 3  -1870250.31245  25254863.99245
        37.250          15.500  
  20862327.641 7     -1489.549 7   1574666.911 7   1233623.50848  20862318.53548
        50.000          39.750  
  23856341.094 5     -2639.457 5   3553264.664 5   2762829.72946  23856334.44946
        42.000          22.750  
  24336751.070 5     -2575.735 5   3432536.875 5   2668303.43846  24336743.89846
        42.000          22.750  
  21552801.586 7     -1721.891 7   1999347.733 7   1561199.11048  21552790.72348
        49.250          37.750  
  22517448.734 6      2426.744 6  -4646034.447 6  -3589093.60647  22517441.91447
        46.750          32.250  
  21636554.648 7      2745.526 7  -5184378.507 7  -3986116.77748  21636546.77348
        50.000          38.750  
 11  3 22 20  1 15.0000000  0  8G11G12G14G18G19G22G24G31            
  22313247.000 6      1181.874 6  -2966464.224 6  -2280571.89647  22313238.12947
        46.500          32.500  
  25252627.320 3       786.435 3   -517869.882 3  -1879442.43545  25252620.73445
        35.750          15.500  
  20866592.711 7     -1494.158 7   1597079.277 7   1251087.68348  20866584.19148
        49.500          39.500  
  23863883.531 5     -2642.287 5   3592898.965 5   2793713.54846  23863876.59446
        41.500          22.000  
  24344110.281 5     -2578.193 5   3471209.767 5   2698438.09946  24344103.40246
        40.750          24.750  
  21557729.414 7     -1726.285 7   2025242.010 7   1581376.46048  21557718.37548
        49.500          38.250  
  22510539.805 6      2420.466 6  -4682341.442 6  -3617384.74947  22510533.10247
        46.500          31.750  
  21628737.430 7      2738.706 7  -5225459.095 7  -4018127.58948  21628728.96948
        50.000          39.000  
 11  3 22 20  1 30.0000000  0  8G11G12G14G18G19G22G24G31            
  22309898.109 6      1173.005 6  -2984059.294 6  -2294282.33947  22309889.59047
        46.250          32.750  
  25250405.766 4       778.817 4   -529552.131 4  -1888545.51445  25250398.71145
        38.500          17.250  
  20870870.742 7     -1498.664 7   1619559.231 7   1268604.52248  20870861.52048
        50.000          39.500  
  23871433.211 5     -2645.041 5   3632574.576 5   2824629.56346  23871426.44946
        41.000          21.750  
  24351476.234 5     -2580.543 5   3509917.908 5   2728600.24846  24351469.06346
        41.500          24.000  
  21562668.953 7     -1730.600 7   2051201.013 7   1601604.23648  21562658.32448
        49.750          38.500  
  22503648.766 6      2414.258 6  -4718555.310 6  -3645603.32947  22503641.77047
        47.000          32.250  
  21620939.195 7      2731.945 7  -5266438.271 7  -4050059.37848  21620930.79348
        50.250          38.750  
 11  3 22 20  1 45.0000000  0  8G11G12G14G18G19G22G24G31            
  22306575.406 6      1164.128 6  -3001521.209 6  -2307889.01847  22306566.77047
        47.000          32.000  
  25248205.211 5       771.186 5   -541119.918 5  -1897559.40046  25248199.73846
        39.500          19.250  
  20875161.516 7     -1503.155 7   1642106.555 7   1286173.85248  20875152.17648
        49.250          39.250  
  23878991.656 5     -2647.791 5   3672291.445 5   2855577.72546  23878984.71946
        42.000          22.500  
  24358848.953 5     -2582.867 5   3548660.908 5   2758789.55646  24358841.66446
        41.250          24.500  
  21567621.227 7     -1734.914 7   2077224.730 7   1621882.45148  21567610.30548
        49.750          38.000  
  22496775.398 6      2408.026 6  -4754675.698 6  -3673749.07947  22496768.28547
        45.000          32.500  
  21613160.711 7      2725.157 7  -5307315.620 7  -4081911.82048  21613152.30948
        50.500          38.750  
 11  3 22 20  2  0.0000000  0  8G11G12G14G18G19G22G24G31            
  22303278.313 6      1155.219 6  -3018849.494 6  -2321391.57547  22303269.09047
        47.250          32.000  
  25246025.508 4       763.521 4   -552572.737 4  -1906483.67646  25246020.79746
        37.750          20.000  
  20879464.469 7     -1507.659 7   1664721.436 7   1303795.82648  20879455.36348
        49.750          39.250  
  23886557.297 5     -2650.569 5   3712049.987 5   2886558.34846  23886550.82846
        41.500          25.500  
  24366228.469 5     -2585.193 5   3587438.799 5   2789006.02146  24366220.71146
        41.500          25.000  
  21572585.352 7     -1739.263 7   2103313.670 7   1642211.48348  21572574.60548
        50.250          37.500  
  22489919.734 6      2401.746 6  -4790701.886 6  -3701821.42647  22489912.44547
        44.000          31.500  
  21605401.008 7      2718.325 7  -5348090.491 7  -4113684.41148  21605393.07448
        50.500          39.500  
 11  3 22 20  2 15.0000000  0  8G11G12G14G18G19G22G24G31            
  22300005.391 6      1146.291 6  -3036043.864 6  -2334789.79047  22299996.98847
        47.000          32.500  
  25243866.352 4       755.822 4   -563910.074 4  -1915317.95745  25243861.99245
        38.500          17.750  
  20883781.180 7     -1512.155 7   1687403.758 7   1321470.35948  20883771.72348
        50.000          39.500  
  23894131.055 6     -2653.341 6   3751850.096 6   2917571.38146  23894124.35246
        42.500          24.500  
  24373614.445 5     -2587.499 5   3626251.289 5   2819249.47346  24373606.57046
        42.000          25.250  
  21577562.500 7     -1743.617 7   2129467.932 7   1662591.41048  21577551.93048
        49.250          38.250  
  22483082.125 6      2395.437 6  -4826633.440 6  -3729820.01147  22483075.24647
        45.000          32.250  
  21597661.773 7      2711.465 7  -5388762.459 7  -4145376.81848  21597653.25448
        50.500          39.500  
 11  3 22 20  2 30.0000000  0  8G11G12G14G18G19G22G24G31            
  22296759.414 6      1137.292 6  -3053103.249 6  -2348082.81047  22296751.24647
        45.500          32.750  
  25241730.742 3       748.038 3   -575130.650 3  -1924061.16245  25241724.27345
        36.000          14.750  
  20888110.016 7     -1516.709 7   1710154.390 7   1339198.12148  20888100.96948
        49.500          39.500  
  23901711.891 5     -2656.182 5   3791692.833 5   2948617.60846  23901705.94946
        41.750          22.500  
  24381006.586 5     -2589.841 5   3665098.907 5   2849520.28346  24380999.70746
        41.500          24.500  
  21582552.156 7     -1748.029 7   2155688.363 7   1683022.90548  21582541.87948
        49.500          38.250  
  22476262.844 6      2389.051 6  -4862469.200 6  -3757743.95847  22476255.84847
        46.500          32.000  
  21589941.656 7      2704.522 7  -5429330.295 7  -4176988.07848  21589933.66448
        50.500          39.250  
 11  3 22 20  2 45.0000000  0  8G11G12G14G18G19G22G24G31            
  22293538.492 6      1128.398 6  -3070029.214 6  -2361271.87047  22293529.91447
        47.000          32.500  
  25239618.172 4       740.357 4   -586236.005 4  -1932714.65345  25239608.65645
        38.500          13.750  
  20892452.461 7     -1521.141 7   1732971.500 7   1356977.67548  20892443.23848
        49.250          39.250  
  23909302.367 5     -2658.912 5   3831576.513 5   2979695.76046  23909295.54746
        42.250          25.000  
  24388405.766 6     -2592.061 6   3703979.815 6   2879817.04546  24388398.71146
        42.500          25.250  
  21587554.258 7     -1752.332 7   2181973.350 7   1703504.69748  21587543.33648
        49.500          38.250  
  22469461.422 6      2382.751 6  -4898210.472 6  -3785594.29347  22469454.66047
        46.500          32.750  
  21582241.570 7      2697.662 7  -5469795.218 7  -4208519.15348  21582233.10948
        50.500          39.500  
 11  3 22 20  3  0.0000000  0  8G11G12G14G18G19G22G24G31            
  22290343.102 6      1119.474 6  -3086821.322 6  -2374356.63547  22290334.52347
        47.000          32.750  
  25237528.445 5       732.651 5   -597225.769 5  -1941278.06745  25237518.75445
        40.000          16.750  
  20896807.031 7     -1525.583 7   1755855.248 7   1374809.15948  20896798.04348
        49.500          39.000  
  23916899.266 5     -2661.660 5   3871501.414 5   3010806.01246  23916893.38346
        42.000          24.500  
  24395809.961 5     -2594.278 5   3742893.983 5   2910139.67346  24395803.60946
        41.000          25.000  
  21592568.609 7     -1756.662 7   2208323.279 7   1724037.09848  21592557.62948
        49.500          38.000  
  22462678.086 6      2376.412 6  -4933856.657 6  -3813370.52047  22462670.79747
        46.500          31.750  
  21574561.500 7      2690.743 7  -5510156.364 7  -4239969.36648  21574552.86348
        50.000          39.250  
 11  3 22 20  3 15.0000000  0  8G11G12G14G18G19G22G24G31            
  22287172.961 6      1110.542 6  -3103479.447 6  -2387336.98947  22287164.50047
        46.250          33.000  
  25235458.969 5       724.938 5   -608099.834 5  -1949751.37846  25235452.55946
        40.250          19.250  
  20901174.109 7     -1529.995 7   1778805.172 7   1392692.20948  20901164.82848
        49.250          39.250  
  23924505.266 6     -2664.397 6   3911467.369 6   3041948.26446  23924498.27046
        42.500          23.250  
  24403222.633 6     -2596.456 6   3781840.830 6   2940487.83346  24403214.93446
        43.500          25.250  
  21597595.047 7     -1760.982 7   2234738.013 7   1744619.99548  21597584.35948
        50.000          38.500  
  22455913.422 6      2370.058 6  -4969407.522 6  -3841072.47447  22455905.60547
        46.500          32.750  
  21566900.438 7      2683.839 7  -5550413.954 7  -4271338.87948  21566891.80148
        51.000          39.750  
 11  3 22 20  3 30.0000000  0  8G11G12G14G18G19G22G24G31            
  22284029.055 6      1101.549 6  -3120002.684 6  -2400212.23547  22284020.88747
        47.000          32.500  
  25233411.547 5       717.160 5   -618857.235 5  -1958133.71146  25233406.36746
        39.750          19.500  
  20905554.219 7     -1534.455 7   1801822.002 7   1410627.39448  20905545.05548
        49.500          39.750  
  23932118.531 5     -2667.188 5   3951475.195 5   3073123.14846  23932111.59446
        42.000          22.750  
  24410639.602 5     -2598.673 5   3820820.924 5   2970861.87846  24410632.48846
        41.500          25.250  
  21602634.000 7     -1765.353 7   2261218.310 7   1765253.98048  21602623.48848
        50.000          38.000  
  22449166.500 6      2363.632 6  -5004862.004 6  -3868699.32747  22449159.32847
        46.500          32.750  
  21559259.539 7      2676.853 7  -5590566.752 7  -4302626.73748  21559250.96148
        50.500          40.000  
 11  3 22 20  3 45.0000000  0  8G11G12G14G18G19G22G24G31            
  22280910.438 6      1092.586 6  -3136391.476 6  -2412982.72347  22280901.39147
        46.500          32.250  
  25231384.984 4       709.395 4   -629498.162 4  -1966425.42245  25231382.09045
        37.500          18.500  
  20909946.852 7     -1538.856 7   1824904.849 7   1428614.01848  20909937.45348
        49.250          40.000  
  23939739.539 6     -2669.935 6   3991524.226 6   3104330.13846  23939733.07046
        42.500          23.000  
  24418063.234 5     -2600.827 5   3859833.331 5   3001261.10446  24418056.29746
        41.750          24.750  
  21607685.477 7     -1769.695 7   2287763.732 7   1785938.71648  21607674.78948
        49.750          38.000  
  22442437.500 6      2357.217 6  -5040220.255 6  -3896251.19547  22442430.79747
        45.750          32.500  
  21551638.711 7      2669.874 7  -5630614.865 7  -4333833.02048  21551630.13348
        50.250          39.250  
 11  3 22 20  4  0.0000000  0  8G11G12G14G18G19G22G24G31            
  22277817.383 6      1083.555 6  -3152644.800 6  -2425647.64547  22277809.03947
        46.500          32.500  
  25229382.141 4       701.557 4   -640021.524 4  -1974625.47045  25229379.42245
        37.750          18.500  
  20914351.773 7     -1543.315 7   1848054.569 7   1446652.75448  20914342.78548
        49.500          39.500  
  23947368.344 5     -2672.736 5   4031615.267 5   3135569.85446  23947362.40246
        41.250          23.750  
  24425494.000 6     -2603.003 6   3898878.370 6   3031685.75147  24425486.88747
        42.500          26.500  
  21612749.383 7     -1774.097 7   2314375.185 7   1806674.90048  21612738.63748
        49.250          37.500  
  22435727.641 6      2350.734 6  -5075481.264 6  -3923727.28747  22435720.99647
        46.250          32.250  
  21544037.742 7      2662.825 7  -5670557.237 7  -4364956.91448  21544029.39848
        50.500          39.500  
 11  3 22 20  4 15.0000000  0  8G11G12G14G18G19G22G24G31            
  22274750.016 6      1074.591 6  -3168763.658 6  -2438207.79047  22274741.49647
        47.000          33.000  
  25227402.805 5       693.787 5   -650428.327 5  -1982734.54145  25227396.92245
        40.750          16.750  
  20918769.938 7     -1547.680 7   1871269.768 7   1464742.50948  20918760.42248
        49.000          39.250  
  23955005.328 5     -2675.471 5   4071747.337 5   3166841.56546  23954998.80146
        42.000          25.500  
  24432929.133 5     -2605.087 5   3937954.672 5   3062134.76146  24432922.84046
        40.750          25.500  
  21617825.555 7     -1778.424 7   2341051.549 7   1827461.67048  21617815.10248
        49.500          37.500  
  22429035.906 6      2344.303 6  -5110645.803 6  -3951128.21547  22429029.20347
        47.250          32.000  
  21536456.602 7      2655.820 7  -5710394.529 7  -4395998.92148  21536448.60948
        50.500          39.250  
 11  3 22 20  4 30.0000000  0  8G11G12G14G18G19G22G24G31            
  22271708.445 6      1065.631 6  -3184748.130 6  -2450663.22347  22271699.57447
        47.000          33.000  
  25225446.281 5       686.011 5   -660718.493 5  -1990752.68945  25225436.12145
        40.000          16.750  
  20923199.586 7     -1552.017 7   1894550.025 7   1482882.96248  20923191.00848
        49.000          39.500  
  23962649.813 5     -2678.188 5   4111920.160 5   3198144.99446  23962643.69546
        42.250          24.750  
  24440370.922 5     -2607.142 5   3977061.802 5   3092607.78846  24440364.80546
        40.000          25.500  
  21622914.578 7     -1782.737 7   2367792.600 7   1848298.84548  21622903.48048
        49.750          37.000  
  22422362.930 6      2337.866 6  -5145713.788 6  -3978453.89847  22422355.87547
        46.500          33.250  
  21528896.172 7      2648.807 7  -5750126.631 7  -4426958.96548  21528887.77048
        49.750          39.000  
 11  3 22 20  4 45.0000000  0  8G11G12G14G18G19G22G24G31            
  22268692.156 6      1056.649 6  -3200597.864 6  -2463013.67147  22268683.16847
        46.250          33.250  
  25223509.586 5       678.218 5   -670891.768 5  -1998679.96645  25223501.24245
        39.250          16.750  
  20927642.391 7     -1556.365 7   1917895.496 7   1501074.23148  20927633.05148
        49.750          39.750  
  23970303.172 5     -2680.916 5   4152133.894 5   3229480.32946  23970296.23446
        41.750          24.750  
  24447819.672 5     -2609.172 5   4016199.389 5   3123104.55047  24447812.14847
        41.750          27.250  
  21628015.508 7     -1787.060 7   2394598.507 7   1869186.54648  21628004.76248
        49.250          37.500  
  22415707.711 6      2331.397 6  -5180684.750 6  -4005703.98447  22415701.24247
        46.500          32.000  
  21521355.523 7      2641.762 7  -5789753.068 7  -4457836.66548  21521347.23848
        50.000          39.250  
 11  3 22 20  5  0.0000000  0  9G11G12G14G18G19G20G22G24G31         
  22265701.555 6      1047.648 6  -3216312.577 6  -2475258.89547  22265693.03547
        46.250          32.500  
  25221594.797 4       670.399 4   -680947.750 4  -2006515.79945  25221589.44145
        38.750          18.250  
  20932097.336 7     -1560.704 7   1941306.051 7   1519316.21748  20932087.99648
        49.250          39.500  
  23977963.305 6     -2683.655 6   4192388.726 6   3260847.68546  23977956.71946
        42.500          22.500  
